{
  "21201": {
    "source": "国土地理院「指定緊急避難場所データ」",
    "asOf": "2026-06-19",
    "sites": [
      {
        "name": "中央卸売市場（建物内を除く）",
        "address": "岐阜県岐阜市茜部新所2-5",
        "lng": 136.757961,
        "lat": 35.38532,
        "h": 106
      },
      {
        "name": "茜部公民館",
        "address": "岐阜県岐阜市茜部新所4-126-2",
        "lng": 136.754935,
        "lat": 35.38058,
        "h": 107
      },
      {
        "name": "茜部小学校",
        "address": "岐阜県岐阜市茜部新所4-91-3",
        "lng": 136.755487,
        "lat": 35.381859,
        "h": 107
      },
      {
        "name": "南部防災備蓄拠点（旧岐阜南消防署）（建物内除く）",
        "address": "岐阜県岐阜市茜部大野1-12",
        "lng": 136.755231,
        "lat": 35.395826,
        "h": 106
      },
      {
        "name": "茜部大野公園",
        "address": "岐阜県岐阜市茜部大野1-95",
        "lng": 136.753061,
        "lat": 35.395303,
        "h": 106
      },
      {
        "name": "茜部辰新公園",
        "address": "岐阜県岐阜市茜部辰新２－２５地先",
        "lng": 136.758608,
        "lat": 35.37767,
        "h": 107
      },
      {
        "name": "あかね公園",
        "address": "岐阜県岐阜市茜部菱野２－１１５~118",
        "lng": 136.750209,
        "lat": 35.385378,
        "h": 106
      },
      {
        "name": "茜部公園",
        "address": "岐阜県岐阜市茜部野瀬3-159",
        "lng": 136.743818,
        "lat": 35.374147,
        "h": 106
      },
      {
        "name": "岩野田小学校",
        "address": "岐阜県岐阜市粟野西2-33",
        "lng": 136.781117,
        "lat": 35.478296,
        "h": 107
      },
      {
        "name": "岩野田公民館",
        "address": "岐阜県岐阜市粟野西2-33",
        "lng": 136.780635,
        "lat": 35.47794,
        "h": 107
      },
      {
        "name": "岩野田公園",
        "address": "岐阜県岐阜市粟野西5-297",
        "lng": 136.774496,
        "lat": 35.478538,
        "h": 107
      },
      {
        "name": "岩野田中学校",
        "address": "岐阜県岐阜市粟野西5-817",
        "lng": 136.771705,
        "lat": 35.482645,
        "h": 107
      },
      {
        "name": "十六銀行粟野グランド（西の山ぎわを除く）",
        "address": "岐阜県岐阜市粟野西6",
        "lng": 136.769856,
        "lat": 35.48717,
        "h": 41
      },
      {
        "name": "粟野台南公園",
        "address": "岐阜県岐阜市粟野台307-222",
        "lng": 136.777629,
        "lat": 35.488682,
        "h": 105
      },
      {
        "name": "粟野台中央公園",
        "address": "岐阜県岐阜市粟野台307-244",
        "lng": 136.776049,
        "lat": 35.489957,
        "h": 105
      },
      {
        "name": "岩野田北公民館",
        "address": "岐阜県岐阜市粟野東2-33-3",
        "lng": 136.780645,
        "lat": 35.484077,
        "h": 107
      },
      {
        "name": "岩野田北小学校",
        "address": "岐阜県岐阜市粟野東2-33-3",
        "lng": 136.780661,
        "lat": 35.484615,
        "h": 107
      },
      {
        "name": "粟野北公園",
        "address": "岐阜県岐阜市粟野東4-424",
        "lng": 136.788365,
        "lat": 35.489311,
        "h": 105
      },
      {
        "name": "粟野公園",
        "address": "岐阜県岐阜市粟野東5-406",
        "lng": 136.783934,
        "lat": 35.484438,
        "h": 105
      },
      {
        "name": "方県公園",
        "address": "岐阜県岐阜市安食3-104",
        "lng": 136.727677,
        "lat": 35.496959,
        "h": 105
      },
      {
        "name": "方県小学校",
        "address": "岐阜県岐阜市安食3-115",
        "lng": 136.728716,
        "lat": 35.497211,
        "h": 107
      },
      {
        "name": "（旧）方県保育所グランド",
        "address": "岐阜県岐阜市安食3-118",
        "lng": 136.728953,
        "lat": 35.497569,
        "h": 104
      },
      {
        "name": "方県公民館",
        "address": "岐阜県岐阜市安食443-2",
        "lng": 136.728348,
        "lat": 35.498012,
        "h": 107
      },
      {
        "name": "花かいどう南公園",
        "address": "岐阜県岐阜市安食字志良古26-101",
        "lng": 136.718039,
        "lat": 35.487516,
        "h": 105
      },
      {
        "name": "花かいどう北公園",
        "address": "岐阜県岐阜市安食字志良古26-307",
        "lng": 136.716872,
        "lat": 35.49056,
        "h": 105
      },
      {
        "name": "安食公園",
        "address": "岐阜県岐阜市安食字志良古26-314",
        "lng": 136.719297,
        "lat": 35.489031,
        "h": 107
      },
      {
        "name": "安宅公園",
        "address": "岐阜県岐阜市安宅町2-18-3",
        "lng": 136.765595,
        "lat": 35.406852,
        "h": 106
      },
      {
        "name": "伊奈波公園",
        "address": "岐阜県岐阜市伊奈波通1-80-2",
        "lng": 136.767338,
        "lat": 35.428324,
        "h": 104
      },
      {
        "name": "一松道公園",
        "address": "岐阜県岐阜市一松道1864-3",
        "lng": 136.767965,
        "lat": 35.409596,
        "h": 107
      },
      {
        "name": "古川公園",
        "address": "岐阜県岐阜市一日市場北町4",
        "lng": 136.718269,
        "lat": 35.425399,
        "h": 106
      },
      {
        "name": "岐阜市立女子短期大学",
        "address": "岐阜県岐阜市一日市場北町7-1",
        "lng": 136.716739,
        "lat": 35.425856,
        "h": 107
      },
      {
        "name": "宇佐西公園",
        "address": "岐阜県岐阜市宇佐3-10",
        "lng": 136.731215,
        "lat": 35.397747,
        "h": 106
      },
      {
        "name": "海草公園",
        "address": "岐阜県岐阜市宇佐東町8-1",
        "lng": 136.73618,
        "lat": 35.39893,
        "h": 106
      },
      {
        "name": "宇佐中公園",
        "address": "岐阜県岐阜市宇佐南1-9-1",
        "lng": 136.735367,
        "lat": 35.396459,
        "h": 106
      },
      {
        "name": "宇佐南公園",
        "address": "岐阜県岐阜市宇佐南2-7-1",
        "lng": 136.735562,
        "lat": 35.394463,
        "h": 106
      },
      {
        "name": "井堰公園",
        "address": "岐阜県岐阜市宇佐南4-3-1",
        "lng": 136.730449,
        "lat": 35.394581,
        "h": 106
      },
      {
        "name": "本荘中学校",
        "address": "岐阜県岐阜市雲雀ケ丘1",
        "lng": 136.731946,
        "lat": 35.415746,
        "h": 107
      },
      {
        "name": "雲雀ケ丘公園",
        "address": "岐阜県岐阜市雲雀ケ丘7",
        "lng": 136.732757,
        "lat": 35.415083,
        "h": 106
      },
      {
        "name": "早田中公園",
        "address": "岐阜県岐阜市栄新町1-42",
        "lng": 136.757492,
        "lat": 35.437429,
        "h": 106
      },
      {
        "name": "早田緑地",
        "address": "岐阜県岐阜市栄新町3-110",
        "lng": 136.756588,
        "lat": 35.438953,
        "h": 106
      },
      {
        "name": "永田町公園",
        "address": "岐阜県岐阜市永田町29",
        "lng": 136.751651,
        "lat": 35.426628,
        "h": 106
      },
      {
        "name": "西部コミュニティセンター駐車場",
        "address": "岐阜県岐阜市下鵜飼1-105",
        "lng": 136.71375,
        "lat": 35.457266,
        "h": 106
      },
      {
        "name": "黒野公民館",
        "address": "岐阜県岐阜市下鵜飼1564-3",
        "lng": 136.718339,
        "lat": 35.461884,
        "h": 107
      },
      {
        "name": "黒野西公園",
        "address": "岐阜県岐阜市下鵜飼字甌窶1534-1",
        "lng": 136.717153,
        "lat": 35.46172,
        "h": 107
      },
      {
        "name": "宮公園",
        "address": "岐阜県岐阜市下川手字宮71-3",
        "lng": 136.770074,
        "lat": 35.39523,
        "h": 106
      },
      {
        "name": "川手公園",
        "address": "岐阜県岐阜市下川手字中島",
        "lng": 136.767061,
        "lat": 35.388182,
        "h": 106
      },
      {
        "name": "さぎしも公園",
        "address": "岐阜県岐阜市下土居1-4-1",
        "lng": 136.75652,
        "lat": 35.45022,
        "h": 106
      },
      {
        "name": "下土居東公園",
        "address": "岐阜県岐阜市下土居2-1-6",
        "lng": 136.759667,
        "lat": 35.451812,
        "h": 106
      },
      {
        "name": "下土居中央公園",
        "address": "岐阜県岐阜市下土居2-20",
        "lng": 136.756055,
        "lat": 35.453325,
        "h": 106
      },
      {
        "name": "青山中学校",
        "address": "岐阜県岐阜市下土居2-27-1",
        "lng": 136.758619,
        "lat": 35.453391,
        "h": 107
      },
      {
        "name": "下土居さんかく公園",
        "address": "岐阜県岐阜市下土居3-11",
        "lng": 136.752999,
        "lat": 35.457069,
        "h": 106
      },
      {
        "name": "鳥羽川緑地",
        "address": "岐阜県岐阜市下土居字下野１７２地先",
        "lng": 136.753833,
        "lat": 35.456198,
        "h": 106
      },
      {
        "name": "下奈良公園",
        "address": "岐阜県岐阜市下奈良2-31-1",
        "lng": 136.710226,
        "lat": 35.391032,
        "h": 106
      },
      {
        "name": "日置江北公園",
        "address": "岐阜県岐阜市下奈良4-3-1",
        "lng": 136.710024,
        "lat": 35.385053,
        "h": 106
      },
      {
        "name": "次木公園",
        "address": "岐阜県岐阜市下奈良4-4-1",
        "lng": 136.709768,
        "lat": 35.386026,
        "h": 106
      },
      {
        "name": "愛宕公園",
        "address": "岐阜県岐阜市加納愛宕町22",
        "lng": 136.750826,
        "lat": 35.408641,
        "h": 106
      },
      {
        "name": "加納公園（加納城跡含む）",
        "address": "岐阜県岐阜市加納丸之内4",
        "lng": 136.760312,
        "lat": 35.399575,
        "h": 43
      },
      {
        "name": "沓井公園",
        "address": "岐阜県岐阜市加納沓井町36",
        "lng": 136.760101,
        "lat": 35.403474,
        "h": 106
      },
      {
        "name": "加納西小学校",
        "address": "岐阜県岐阜市加納高柳町1-1",
        "lng": 136.750758,
        "lat": 35.404201,
        "h": 107
      },
      {
        "name": "加納西公民館",
        "address": "岐阜県岐阜市加納高柳町1-1",
        "lng": 136.750459,
        "lat": 35.403993,
        "h": 107
      },
      {
        "name": "加納三笠公園",
        "address": "岐阜県岐阜市加納三笠町1",
        "lng": 136.748628,
        "lat": 35.405629,
        "h": 106
      },
      {
        "name": "加納中学校",
        "address": "岐阜県岐阜市加納舟田町9",
        "lng": 136.759766,
        "lat": 35.397045,
        "h": 107
      },
      {
        "name": "南部コミュニティセンター駐車場",
        "address": "岐阜県岐阜市加納城南通1-20",
        "lng": 136.760659,
        "lat": 35.397693,
        "h": 106
      },
      {
        "name": "加納神明公園",
        "address": "岐阜県岐阜市加納神明町6-7-3",
        "lng": 136.749685,
        "lat": 35.401363,
        "h": 106
      },
      {
        "name": "水野町公園",
        "address": "岐阜県岐阜市加納水野町4-22",
        "lng": 136.753012,
        "lat": 35.407797,
        "h": 106
      },
      {
        "name": "清水緑地",
        "address": "岐阜県岐阜市加納清水町5",
        "lng": 136.759478,
        "lat": 35.408317,
        "h": 42
      },
      {
        "name": "加納東公民館",
        "address": "岐阜県岐阜市加納西丸町1-73-2",
        "lng": 136.76176,
        "lat": 35.401722,
        "h": 107
      },
      {
        "name": "加納小学校",
        "address": "岐阜県岐阜市加納西丸町1-73-2",
        "lng": 136.761925,
        "lat": 35.401371,
        "h": 107
      },
      {
        "name": "加納西公園",
        "address": "岐阜県岐阜市加納大黒町4-3-3",
        "lng": 136.752244,
        "lat": 35.401757,
        "h": 106
      },
      {
        "name": "岐阜大学附属小学校",
        "address": "岐阜県岐阜市加納大手町74",
        "lng": 136.762397,
        "lat": 35.403776,
        "h": 107
      },
      {
        "name": "岐阜大学附属中学校",
        "address": "岐阜県岐阜市加納大手町74",
        "lng": 136.762206,
        "lat": 35.403058,
        "h": 107
      },
      {
        "name": "加納高等学校",
        "address": "岐阜県岐阜市加納南陽町3-17",
        "lng": 136.750135,
        "lat": 35.398173,
        "h": 107
      },
      {
        "name": "加野公園",
        "address": "岐阜県岐阜市加野1-42",
        "lng": 136.815859,
        "lat": 35.465896,
        "h": 105
      },
      {
        "name": "藍川北中学校",
        "address": "岐阜県岐阜市加野2-23-1",
        "lng": 136.823608,
        "lat": 35.463717,
        "h": 107
      },
      {
        "name": "加野中公園",
        "address": "岐阜県岐阜市加野3-2",
        "lng": 136.822389,
        "lat": 35.462143,
        "h": 107
      },
      {
        "name": "藍川公民館",
        "address": "岐阜県岐阜市加野3-3-1",
        "lng": 136.824415,
        "lat": 35.462957,
        "h": 107
      },
      {
        "name": "藍川小学校",
        "address": "岐阜県岐阜市加野3-3-5",
        "lng": 136.825026,
        "lat": 35.462239,
        "h": 107
      },
      {
        "name": "百楽公園",
        "address": "岐阜県岐阜市加野6-25",
        "lng": 136.824761,
        "lat": 35.466995,
        "h": 107
      },
      {
        "name": "花本公園",
        "address": "岐阜県岐阜市加野7-14",
        "lng": 136.827599,
        "lat": 35.471985,
        "h": 41
      },
      {
        "name": "岩井東公園",
        "address": "岐阜県岐阜市加野7-19",
        "lng": 136.826708,
        "lat": 35.470434,
        "h": 107
      },
      {
        "name": "河渡公園",
        "address": "岐阜県岐阜市河渡1-165-2",
        "lng": 136.702034,
        "lat": 35.411848,
        "h": 106
      },
      {
        "name": "河渡緑地",
        "address": "岐阜県岐阜市河渡字中嶋１６７０－１地先外",
        "lng": 136.701646,
        "lat": 35.40723,
        "h": 106
      },
      {
        "name": "河渡小公園",
        "address": "岐阜県岐阜市河渡字道内１２４０－１地先",
        "lng": 136.703059,
        "lat": 35.411523,
        "h": 106
      },
      {
        "name": "福住公園",
        "address": "岐阜県岐阜市花園町19",
        "lng": 136.752116,
        "lat": 35.411873,
        "h": 106
      },
      {
        "name": "華陽小学校",
        "address": "岐阜県岐阜市華陽5-1",
        "lng": 136.769474,
        "lat": 35.408823,
        "h": 107
      },
      {
        "name": "華陽公民館",
        "address": "岐阜県岐阜市華陽5-11",
        "lng": 136.770219,
        "lat": 35.408775,
        "h": 107
      },
      {
        "name": "芥見公園",
        "address": "岐阜県岐阜市芥見1-10",
        "lng": 136.84102,
        "lat": 35.447354,
        "h": 107
      },
      {
        "name": "芥見小学校",
        "address": "岐阜県岐阜市芥見2-213",
        "lng": 136.841603,
        "lat": 35.453059,
        "h": 107
      },
      {
        "name": "芥見公民館",
        "address": "岐阜県岐阜市芥見2-98",
        "lng": 136.839533,
        "lat": 35.452896,
        "h": 107
      },
      {
        "name": "藍川中学校",
        "address": "岐阜県岐阜市芥見4-157",
        "lng": 136.849948,
        "lat": 35.450924,
        "h": 107
      },
      {
        "name": "東部コミュニティセンター駐車場",
        "address": "岐阜県岐阜市芥見4-80",
        "lng": 136.848025,
        "lat": 35.450038,
        "h": 106
      },
      {
        "name": "野村公園",
        "address": "岐阜県岐阜市芥見5-181",
        "lng": 136.845767,
        "lat": 35.447909,
        "h": 105
      },
      {
        "name": "龍雲寺",
        "address": "岐阜県岐阜市芥見大船1-151",
        "lng": 136.845785,
        "lat": 35.459933,
        "h": 105
      },
      {
        "name": "大船台公園",
        "address": "岐阜県岐阜市芥見大船1-182",
        "lng": 136.845794,
        "lat": 35.460808,
        "h": 105
      },
      {
        "name": "野畑公園",
        "address": "岐阜県岐阜市芥見中野畑177-1",
        "lng": 136.842602,
        "lat": 35.445021,
        "h": 105
      },
      {
        "name": "大洞南山公園",
        "address": "岐阜県岐阜市芥見南山1-26-2",
        "lng": 136.857244,
        "lat": 35.454632,
        "h": 107
      },
      {
        "name": "岡本鋳造グランド",
        "address": "岐阜県岐阜市芥見南山3",
        "lng": 136.863021,
        "lat": 35.455209,
        "h": 105
      },
      {
        "name": "教育研究所",
        "address": "岐阜県岐阜市芥見南山3-10-1",
        "lng": 136.857211,
        "lat": 35.455408,
        "h": 107
      },
      {
        "name": "岐阜清流高等特別支援学校",
        "address": "岐阜県岐阜市芥見南山3-11-1",
        "lng": 136.859584,
        "lat": 35.454335,
        "h": 105
      },
      {
        "name": "芥見南公民館",
        "address": "岐阜県岐阜市芥見南山3-12-1",
        "lng": 136.862954,
        "lat": 35.454774,
        "h": 107
      },
      {
        "name": "諏訪山運動場",
        "address": "岐阜県岐阜市芥見野畑3",
        "lng": 136.847908,
        "lat": 35.440451,
        "h": 107
      },
      {
        "name": "早田西公園",
        "address": "岐阜県岐阜市学園町1-93-1",
        "lng": 136.754141,
        "lat": 35.438945,
        "h": 106
      },
      {
        "name": "早田公民館",
        "address": "岐阜県岐阜市学園町2-35",
        "lng": 136.756229,
        "lat": 35.439795,
        "h": 107
      },
      {
        "name": "早田小学校",
        "address": "岐阜県岐阜市学園町2-35",
        "lng": 136.756632,
        "lat": 35.440198,
        "h": 107
      },
      {
        "name": "城西公民館",
        "address": "岐阜県岐阜市萱場東町1-1",
        "lng": 136.735942,
        "lat": 35.435764,
        "h": 106
      },
      {
        "name": "萱場東公園",
        "address": "岐阜県岐阜市萱場東町5-34",
        "lng": 136.732895,
        "lat": 35.437658,
        "h": 106
      },
      {
        "name": "新富公園",
        "address": "岐阜県岐阜市萱場南1-12",
        "lng": 136.733104,
        "lat": 35.433142,
        "h": 106
      },
      {
        "name": "島中央公園",
        "address": "岐阜県岐阜市萱場南2-9-1",
        "lng": 136.72952,
        "lat": 35.43472,
        "h": 106
      },
      {
        "name": "篭下公園",
        "address": "岐阜県岐阜市萱場北町2-39",
        "lng": 136.730383,
        "lat": 35.43909,
        "h": 106
      },
      {
        "name": "岩井公園",
        "address": "岐阜県岐阜市岩井3-14",
        "lng": 136.820151,
        "lat": 35.472089,
        "h": 107
      },
      {
        "name": "岩井北公園",
        "address": "岐阜県岐阜市岩井3-5",
        "lng": 136.816975,
        "lat": 35.471997,
        "h": 105
      },
      {
        "name": "岩井天神西公園",
        "address": "岐阜県岐阜市岩井380",
        "lng": 136.80757,
        "lat": 35.468109,
        "h": 105
      },
      {
        "name": "岩井天神東公園",
        "address": "岐阜県岐阜市岩井380-186",
        "lng": 136.812791,
        "lat": 35.469686,
        "h": 105
      },
      {
        "name": "岩井天神南公園",
        "address": "岐阜県岐阜市岩井380-217",
        "lng": 136.811167,
        "lat": 35.467684,
        "h": 105
      },
      {
        "name": "岩崎緑地",
        "address": "岐阜県岐阜市岩崎1",
        "lng": 136.773979,
        "lat": 35.464094,
        "h": 106
      },
      {
        "name": "岩崎公園",
        "address": "岐阜県岐阜市岩崎2-17-40",
        "lng": 136.777553,
        "lat": 35.462817,
        "h": 41
      },
      {
        "name": "上岩崎公園",
        "address": "岐阜県岐阜市岩崎字畑中676",
        "lng": 136.778823,
        "lat": 35.472664,
        "h": 107
      },
      {
        "name": "早田南公園",
        "address": "岐阜県岐阜市岩倉町2-71",
        "lng": 136.755019,
        "lat": 35.432609,
        "h": 106
      },
      {
        "name": "岩公民館",
        "address": "岐阜県岐阜市岩滝西1-612",
        "lng": 136.840226,
        "lat": 35.435085,
        "h": 107
      },
      {
        "name": "岩小学校",
        "address": "岐阜県岐阜市岩滝西1-612",
        "lng": 136.840892,
        "lat": 35.435528,
        "h": 107
      },
      {
        "name": "八坂公園",
        "address": "岐阜県岐阜市岩滝西3-250",
        "lng": 136.848203,
        "lat": 35.429345,
        "h": 105
      },
      {
        "name": "岩滝八幡公園",
        "address": "岐阜県岐阜市岩滝東2-94-1",
        "lng": 136.85402,
        "lat": 35.426354,
        "h": 107
      },
      {
        "name": "岩地公園",
        "address": "岐阜県岐阜市岩地2-9-18",
        "lng": 136.80541,
        "lat": 35.406891,
        "h": 106
      },
      {
        "name": "岩田坂公園",
        "address": "岐阜県岐阜市岩田坂1-12",
        "lng": 136.826533,
        "lat": 35.434668,
        "h": 105
      },
      {
        "name": "流公園",
        "address": "岐阜県岐阜市岩田坂3-6",
        "lng": 136.830322,
        "lat": 35.435385,
        "h": 105
      },
      {
        "name": "岩田西公園",
        "address": "岐阜県岐阜市岩田西1-777",
        "lng": 136.831222,
        "lat": 35.438939,
        "h": 107
      },
      {
        "name": "岩田公園",
        "address": "岐阜県岐阜市岩田西3-181",
        "lng": 136.834244,
        "lat": 35.445721,
        "h": 106
      },
      {
        "name": "岩利広場",
        "address": "岐阜県岐阜市岩利2-143",
        "lng": 136.735136,
        "lat": 35.505182,
        "h": 105
      },
      {
        "name": "岩利公園",
        "address": "岐阜県岐阜市岩利4-38",
        "lng": 136.734171,
        "lat": 35.503222,
        "h": 106
      },
      {
        "name": "中部プラント水処理棟屋上",
        "address": "岐阜県岐阜市祈年町4-1",
        "lng": 136.770953,
        "lat": 35.405248,
        "h": 107
      },
      {
        "name": "祈年町公園",
        "address": "岐阜県岐阜市祈年町５－５０－２外",
        "lng": 136.769208,
        "lat": 35.406423,
        "h": 106
      },
      {
        "name": "菊地公園",
        "address": "岐阜県岐阜市菊地町1-25",
        "lng": 136.745888,
        "lat": 35.408359,
        "h": 106
      },
      {
        "name": "中洲公園",
        "address": "岐阜県岐阜市宮浦町12",
        "lng": 136.72816,
        "lat": 35.437086,
        "h": 106
      },
      {
        "name": "宮北公園",
        "address": "岐阜県岐阜市宮北町21-3",
        "lng": 136.766719,
        "lat": 35.398315,
        "h": 106
      },
      {
        "name": "京町公園",
        "address": "岐阜県岐阜市京町2-10-1",
        "lng": 136.755655,
        "lat": 35.425773,
        "h": 42
      },
      {
        "name": "京町公民館",
        "address": "岐阜県岐阜市京町3-19",
        "lng": 136.755696,
        "lat": 35.424456,
        "h": 106
      },
      {
        "name": "岐阜中央中学校",
        "address": "岐阜県岐阜市京町3-19",
        "lng": 136.755708,
        "lat": 35.424452,
        "h": 107
      },
      {
        "name": "岐阜羽島衛生施設組合　衛生センター運動広場",
        "address": "岐阜県岐阜市境川5-110",
        "lng": 136.740119,
        "lat": 35.37041,
        "h": 106
      },
      {
        "name": "岐阜羽島衛生施設組合　旧ごみ処理施設跡地",
        "address": "岐阜県岐阜市境川5-147",
        "lng": 136.74011,
        "lat": 35.36968,
        "h": 106
      },
      {
        "name": "岐阜駅北口駅前広場",
        "address": "岐阜県岐阜市橋本町1-100",
        "lng": 136.756776,
        "lat": 35.410145,
        "h": 106
      },
      {
        "name": "橋本緑地",
        "address": "岐阜県岐阜市橋本町2",
        "lng": 136.752337,
        "lat": 35.409751,
        "h": 106
      },
      {
        "name": "菖蒲池公園",
        "address": "岐阜県岐阜市鏡島2970-1",
        "lng": 136.727465,
        "lat": 35.416495,
        "h": 106
      },
      {
        "name": "菖蒲池小公園",
        "address": "岐阜県岐阜市鏡島字辰巳野２９７０地先",
        "lng": 136.728033,
        "lat": 35.417005,
        "h": 106
      },
      {
        "name": "精華中学校",
        "address": "岐阜県岐阜市鏡島精華1-11-27",
        "lng": 136.723021,
        "lat": 35.411808,
        "h": 107
      },
      {
        "name": "鏡島運動場",
        "address": "岐阜県岐阜市鏡島西1-7-1",
        "lng": 136.71298,
        "lat": 35.412912,
        "h": 106
      },
      {
        "name": "鏡島北公園",
        "address": "岐阜県岐阜市鏡島西1-9",
        "lng": 136.713775,
        "lat": 35.411385,
        "h": 106
      },
      {
        "name": "鏡島小学校",
        "address": "岐阜県岐阜市鏡島西2-2-1",
        "lng": 136.716864,
        "lat": 35.410277,
        "h": 107
      },
      {
        "name": "鏡島公民館",
        "address": "岐阜県岐阜市鏡島西2-2-47",
        "lng": 136.716834,
        "lat": 35.410962,
        "h": 107
      },
      {
        "name": "鏡島長瀬公園",
        "address": "岐阜県岐阜市鏡島中2-12-34",
        "lng": 136.717721,
        "lat": 35.414322,
        "h": 106
      },
      {
        "name": "鏡島南公園（南鏡島公園）",
        "address": "岐阜県岐阜市鏡島南1-13",
        "lng": 136.714644,
        "lat": 35.406169,
        "h": 106
      },
      {
        "name": "市立岐阜商業高校",
        "address": "岐阜県岐阜市鏡島南2-7-1",
        "lng": 136.715853,
        "lat": 35.405589,
        "h": 107
      },
      {
        "name": "鏡緑地",
        "address": "岐阜県岐阜市鏡島南4-4-3",
        "lng": 136.712566,
        "lat": 35.402143,
        "h": 106
      },
      {
        "name": "琴塚北公園",
        "address": "岐阜県岐阜市琴塚1-1323-194",
        "lng": 136.809669,
        "lat": 35.419603,
        "h": 105
      },
      {
        "name": "琴塚公園",
        "address": "岐阜県岐阜市琴塚3-3-8",
        "lng": 136.813708,
        "lat": 35.417491,
        "h": 106
      },
      {
        "name": "近島公園",
        "address": "岐阜県岐阜市近島4-5",
        "lng": 136.738398,
        "lat": 35.430721,
        "h": 106
      },
      {
        "name": "金園公園",
        "address": "岐阜県岐阜市金園町8-184-17",
        "lng": 136.774198,
        "lat": 35.417203,
        "h": 43
      },
      {
        "name": "金岡公園",
        "address": "岐阜県岐阜市金岡町13",
        "lng": 136.755572,
        "lat": 35.41591,
        "h": 106
      },
      {
        "name": "金公園",
        "address": "岐阜県岐阜市金町5-5",
        "lng": 136.757477,
        "lat": 35.415752,
        "h": 106
      },
      {
        "name": "徹明公民館",
        "address": "岐阜県岐阜市金宝町4-1",
        "lng": 136.754985,
        "lat": 35.416251,
        "h": 107
      },
      {
        "name": "草潤中学校",
        "address": "岐阜県岐阜市金宝町4-1",
        "lng": 136.754124,
        "lat": 35.415976,
        "h": 107
      },
      {
        "name": "梅林公民館",
        "address": "岐阜県岐阜市金竜町6-6",
        "lng": 136.771011,
        "lat": 35.416122,
        "h": 107
      },
      {
        "name": "梅林小学校",
        "address": "岐阜県岐阜市金竜町6-6",
        "lng": 136.771116,
        "lat": 35.416416,
        "h": 107
      },
      {
        "name": "梅林中学校",
        "address": "岐阜県岐阜市九重町3-8",
        "lng": 136.778639,
        "lat": 35.413109,
        "h": 107
      },
      {
        "name": "月ノ会公園",
        "address": "岐阜県岐阜市月ノ会町1-12-60",
        "lng": 136.779403,
        "lat": 35.419631,
        "h": 42
      },
      {
        "name": "鍵屋西公園",
        "address": "岐阜県岐阜市鍵屋西町2-26",
        "lng": 136.742652,
        "lat": 35.4171,
        "h": 42
      },
      {
        "name": "黒野小学校",
        "address": "岐阜県岐阜市古市場20-1",
        "lng": 136.718977,
        "lat": 35.464335,
        "h": 107
      },
      {
        "name": "五坪町公園",
        "address": "岐阜県岐阜市五坪町1-8-16",
        "lng": 136.771406,
        "lat": 35.408842,
        "h": 107
      },
      {
        "name": "田神公園",
        "address": "岐阜県岐阜市五坪町2-5-7",
        "lng": 136.773694,
        "lat": 35.408192,
        "h": 42
      },
      {
        "name": "御望公園",
        "address": "岐阜県岐阜市御望3-53",
        "lng": 136.706887,
        "lat": 35.473533,
        "h": 107
      },
      {
        "name": "岐北中学校",
        "address": "岐阜県岐阜市御望971-1-2",
        "lng": 136.712372,
        "lat": 35.473947,
        "h": 107
      },
      {
        "name": "光公園",
        "address": "岐阜県岐阜市光町3-9",
        "lng": 136.746715,
        "lat": 35.434997,
        "h": 106
      },
      {
        "name": "江口公園",
        "address": "岐阜県岐阜市江口2-1-2",
        "lng": 136.724624,
        "lat": 35.421587,
        "h": 106
      },
      {
        "name": "江崎公園",
        "address": "岐阜県岐阜市江崎南21",
        "lng": 136.70472,
        "lat": 35.402384,
        "h": 106
      },
      {
        "name": "江崎運動場",
        "address": "岐阜県岐阜市江崎南堤外",
        "lng": 136.703039,
        "lat": 35.401484,
        "h": 106
      },
      {
        "name": "溝旗公園",
        "address": "岐阜県岐阜市溝旗町4-1",
        "lng": 136.764104,
        "lat": 35.413518,
        "h": 106
      },
      {
        "name": "溝口公園",
        "address": "岐阜県岐阜市溝口113-1",
        "lng": 136.837769,
        "lat": 35.476554,
        "h": 43
      },
      {
        "name": "オーキッドパーク（立体駐車場３階）",
        "address": "岐阜県岐阜市香蘭1-12",
        "lng": 136.746554,
        "lat": 35.411067,
        "h": 107
      },
      {
        "name": "香蘭グリーンパーク",
        "address": "岐阜県岐阜市香蘭2-22",
        "lng": 136.745478,
        "lat": 35.411052,
        "h": 42
      },
      {
        "name": "野土島公園",
        "address": "岐阜県岐阜市高田3-5-3",
        "lng": 136.808084,
        "lat": 35.39556,
        "h": 42
      },
      {
        "name": "黒野公園",
        "address": "岐阜県岐阜市黒野字惣門口495",
        "lng": 136.71917,
        "lat": 35.462224,
        "h": 107
      },
      {
        "name": "黒野城南公園",
        "address": "岐阜県岐阜市黒野字村前704",
        "lng": 136.722168,
        "lat": 35.458786,
        "h": 106
      },
      {
        "name": "黒野城跡公園",
        "address": "岐阜県岐阜市黒野城跡297-1",
        "lng": 136.724203,
        "lat": 35.460106,
        "h": 106
      },
      {
        "name": "本荘小学校",
        "address": "岐阜県岐阜市此花町6-29",
        "lng": 136.736939,
        "lat": 35.411396,
        "h": 107
      },
      {
        "name": "本荘公民館",
        "address": "岐阜県岐阜市此花町6-29",
        "lng": 136.737474,
        "lat": 35.411104,
        "h": 106
      },
      {
        "name": "佐野公園",
        "address": "岐阜県岐阜市佐野字中野141",
        "lng": 136.724074,
        "lat": 35.515429,
        "h": 107
      },
      {
        "name": "細畑公園",
        "address": "岐阜県岐阜市細畑6-3-12",
        "lng": 136.786005,
        "lat": 35.403399,
        "h": 106
      },
      {
        "name": "鷺山公民館",
        "address": "岐阜県岐阜市鷺山1401-2",
        "lng": 136.754572,
        "lat": 35.447174,
        "h": 107
      },
      {
        "name": "鷺山北公園",
        "address": "岐阜県岐阜市鷺山新町4-1",
        "lng": 136.751824,
        "lat": 35.452618,
        "h": 106
      },
      {
        "name": "二本松公園",
        "address": "岐阜県岐阜市鷺山中沫1543-46",
        "lng": 136.750946,
        "lat": 35.445898,
        "h": 106
      },
      {
        "name": "若川公園",
        "address": "岐阜県岐阜市鷺山中沫1769-2",
        "lng": 136.755283,
        "lat": 35.445217,
        "h": 106
      },
      {
        "name": "蝉東公園",
        "address": "岐阜県岐阜市鷺山東1-4-7",
        "lng": 136.764032,
        "lat": 35.449463,
        "h": 106
      },
      {
        "name": "蝉西公園",
        "address": "岐阜県岐阜市鷺山東2-8-2",
        "lng": 136.761163,
        "lat": 35.448617,
        "h": 106
      },
      {
        "name": "鷺山小学校",
        "address": "岐阜県岐阜市鷺山北町9-12",
        "lng": 136.752107,
        "lat": 35.451386,
        "h": 107
      },
      {
        "name": "桜木町公園",
        "address": "岐阜県岐阜市桜木町2-21-1",
        "lng": 136.742599,
        "lat": 35.419011,
        "h": 42
      },
      {
        "name": "三笠公園",
        "address": "岐阜県岐阜市三笠町2-14-1",
        "lng": 136.774327,
        "lat": 35.413264,
        "h": 106
      },
      {
        "name": "岐阜城北高等学校",
        "address": "岐阜県岐阜市三田洞465-1",
        "lng": 136.788284,
        "lat": 35.478089,
        "h": 107
      },
      {
        "name": "三田洞自動車学校",
        "address": "岐阜県岐阜市三田洞東1-23-1",
        "lng": 136.796653,
        "lat": 35.479458,
        "h": 105
      },
      {
        "name": "兎ヶ洞中公園",
        "address": "岐阜県岐阜市三田洞東2-101-1",
        "lng": 136.793274,
        "lat": 35.47651,
        "h": 105
      },
      {
        "name": "兎ヶ洞西緑地",
        "address": "岐阜県岐阜市三田洞東2-2-2",
        "lng": 136.793259,
        "lat": 35.47775,
        "h": 105
      },
      {
        "name": "三田洞公園",
        "address": "岐阜県岐阜市三田洞東3-102-1",
        "lng": 136.800048,
        "lat": 35.472041,
        "h": 105
      },
      {
        "name": "兎ケ洞東公園",
        "address": "岐阜県岐阜市三田洞東3-4-1",
        "lng": 136.796348,
        "lat": 35.47418,
        "h": 105
      },
      {
        "name": "坂下公園",
        "address": "岐阜県岐阜市三田洞東5-13-14",
        "lng": 136.792133,
        "lat": 35.476348,
        "h": 105
      },
      {
        "name": "岐阜薬科大学（三田洞キャンパス）",
        "address": "岐阜県岐阜市三田洞東5-6-1",
        "lng": 136.790572,
        "lat": 35.476991,
        "h": 107
      },
      {
        "name": "三輪緑地",
        "address": "岐阜県岐阜市三輪ぷりんとぴあ16",
        "lng": 136.826943,
        "lat": 35.500683,
        "h": 107
      },
      {
        "name": "山先公園",
        "address": "岐阜県岐阜市山先町2",
        "lng": 136.782977,
        "lat": 35.443155,
        "h": 106
      },
      {
        "name": "みんなの広場　カオカオ",
        "address": "岐阜県岐阜市司町40-5",
        "lng": 136.760193,
        "lat": 35.426994,
        "h": 106
      },
      {
        "name": "公園道路（四ツ屋公園）",
        "address": "岐阜県岐阜市四屋堤内",
        "lng": 136.760024,
        "lat": 35.430204,
        "h": 106
      },
      {
        "name": "市橋公民館",
        "address": "岐阜県岐阜市市橋4-10-10",
        "lng": 136.723366,
        "lat": 35.402919,
        "h": 107
      },
      {
        "name": "市橋公園",
        "address": "岐阜県岐阜市市橋6-13",
        "lng": 136.721597,
        "lat": 35.398836,
        "h": 106
      },
      {
        "name": "市橋コミュニティセンター駐車場",
        "address": "岐阜県岐阜市市橋6-13-25",
        "lng": 136.721547,
        "lat": 35.399061,
        "h": 106
      },
      {
        "name": "市橋小学校",
        "address": "岐阜県岐阜市市橋6-6-28",
        "lng": 136.72024,
        "lat": 35.401768,
        "h": 107
      },
      {
        "name": "合渡小学校",
        "address": "岐阜県岐阜市寺田1-1",
        "lng": 136.70717,
        "lat": 35.416813,
        "h": 107
      },
      {
        "name": "寺田公園",
        "address": "岐阜県岐阜市寺田1-37",
        "lng": 136.707925,
        "lat": 35.42186,
        "h": 106
      },
      {
        "name": "合渡公民館",
        "address": "岐阜県岐阜市寺田3-11-1",
        "lng": 136.705879,
        "lat": 35.417349,
        "h": 106
      },
      {
        "name": "若松公園",
        "address": "岐阜県岐阜市若福町16-2",
        "lng": 136.769034,
        "lat": 35.462175,
        "h": 107
      },
      {
        "name": "久保見公園",
        "address": "岐阜県岐阜市守口町2-29",
        "lng": 136.725522,
        "lat": 35.438317,
        "h": 106
      },
      {
        "name": "旦島公園",
        "address": "岐阜県岐阜市守口町4-26",
        "lng": 136.722165,
        "lat": 35.438078,
        "h": 42
      },
      {
        "name": "網代小学校",
        "address": "岐阜県岐阜市秋沢2-156-1",
        "lng": 136.701358,
        "lat": 35.503284,
        "h": 107
      },
      {
        "name": "網代公民館",
        "address": "岐阜県岐阜市秋沢2-297",
        "lng": 136.702826,
        "lat": 35.502709,
        "h": 107
      },
      {
        "name": "鶯谷中学高等学校ミレニアムグランド",
        "address": "岐阜県岐阜市秋津町7",
        "lng": 136.762991,
        "lat": 35.423853,
        "h": 106
      },
      {
        "name": "出屋敷公園",
        "address": "岐阜県岐阜市出屋敷149-1",
        "lng": 136.823418,
        "lat": 35.524943,
        "h": 105
      },
      {
        "name": "福光公園",
        "address": "岐阜県岐阜市初日町2-18",
        "lng": 136.770219,
        "lat": 35.447929,
        "h": 106
      },
      {
        "name": "青山青少年会館広場",
        "address": "岐阜県岐阜市小西郷1-56-2",
        "lng": 136.70132,
        "lat": 35.454522,
        "h": 107
      },
      {
        "name": "岐阜特別支援学校",
        "address": "岐阜県岐阜市小西郷3-120-2",
        "lng": 136.700155,
        "lat": 35.462831,
        "h": 107
      },
      {
        "name": "小野公園",
        "address": "岐阜県岐阜市小野628-81",
        "lng": 136.711711,
        "lat": 35.464558,
        "h": 107
      },
      {
        "name": "粕森公園",
        "address": "岐阜県岐阜市上加納山",
        "lng": 136.764627,
        "lat": 35.418894,
        "h": 105
      },
      {
        "name": "城田寺公園",
        "address": "岐阜県岐阜市上城田寺東92",
        "lng": 136.751765,
        "lat": 35.468558,
        "h": 107
      },
      {
        "name": "上尻毛公園",
        "address": "岐阜県岐阜市上尻毛日吉27",
        "lng": 136.708495,
        "lat": 35.444335,
        "h": 107
      },
      {
        "name": "西郷本郷公園",
        "address": "岐阜県岐阜市上西郷265",
        "lng": 136.69133,
        "lat": 35.476472,
        "h": 107
      },
      {
        "name": "西郷北公園",
        "address": "岐阜県岐阜市上西郷8-96",
        "lng": 136.685663,
        "lat": 35.47896,
        "h": 107
      },
      {
        "name": "厚見小学校",
        "address": "岐阜県岐阜市上川手198-5",
        "lng": 136.771439,
        "lat": 35.397328,
        "h": 107
      },
      {
        "name": "厚見公民館",
        "address": "岐阜県岐阜市上川手198-5",
        "lng": 136.770933,
        "lat": 35.397321,
        "h": 107
      },
      {
        "name": "厚見中学校",
        "address": "岐阜県岐阜市上川手262-1",
        "lng": 136.775211,
        "lat": 35.397985,
        "h": 107
      },
      {
        "name": "岐陽体育館運動場",
        "address": "岐阜県岐阜市上川手735-2",
        "lng": 136.777682,
        "lat": 35.408479,
        "h": 42
      },
      {
        "name": "厚見公園",
        "address": "岐阜県岐阜市上川手字南出190-1",
        "lng": 136.774406,
        "lat": 35.398543,
        "h": 42
      },
      {
        "name": "石田公園",
        "address": "岐阜県岐阜市上土居1-14",
        "lng": 136.765414,
        "lat": 35.455963,
        "h": 106
      },
      {
        "name": "狭間公園",
        "address": "岐阜県岐阜市上土居2-20",
        "lng": 136.758522,
        "lat": 35.455901,
        "h": 106
      },
      {
        "name": "富塚公園",
        "address": "岐阜県岐阜市上土居3-2",
        "lng": 136.762585,
        "lat": 35.45687,
        "h": 106
      },
      {
        "name": "野田公園",
        "address": "岐阜県岐阜市上土居4-14",
        "lng": 136.76692,
        "lat": 35.460236,
        "h": 107
      },
      {
        "name": "常磐公民館",
        "address": "岐阜県岐阜市上土居838",
        "lng": 136.76337,
        "lat": 35.460813,
        "h": 107
      },
      {
        "name": "常磐小学校",
        "address": "岐阜県岐阜市上土居838",
        "lng": 136.763954,
        "lat": 35.460758,
        "h": 107
      },
      {
        "name": "常磐公園",
        "address": "岐阜県岐阜市上土居字上中野747-8",
        "lng": 136.768054,
        "lat": 35.4642,
        "h": 105
      },
      {
        "name": "城田寺緑地",
        "address": "岐阜県岐阜市城田寺字萱野2283-1",
        "lng": 136.74248,
        "lat": 35.46293,
        "h": 106
      },
      {
        "name": "大正公園",
        "address": "岐阜県岐阜市城田寺字大正684-96",
        "lng": 136.745182,
        "lat": 35.468152,
        "h": 106
      },
      {
        "name": "岩戸南公園",
        "address": "岐阜県岐阜市城望町46",
        "lng": 136.786158,
        "lat": 35.421141,
        "h": 106
      },
      {
        "name": "尻毛中央公園",
        "address": "岐阜県岐阜市尻毛1-131-1",
        "lng": 136.713484,
        "lat": 35.439734,
        "h": 106
      },
      {
        "name": "しいのみ公園",
        "address": "岐阜県岐阜市諏訪山2-18",
        "lng": 136.852642,
        "lat": 35.440495,
        "h": 107
      },
      {
        "name": "諏訪山公園（あじさい公園）",
        "address": "岐阜県岐阜市諏訪山2-4",
        "lng": 136.85038,
        "lat": 35.440021,
        "h": 107
      },
      {
        "name": "すぎのこ公園",
        "address": "岐阜県岐阜市諏訪山3-4-14",
        "lng": 136.851305,
        "lat": 35.437877,
        "h": 107
      },
      {
        "name": "まなしだ公園",
        "address": "岐阜県岐阜市諏訪山3-9-4",
        "lng": 136.854092,
        "lat": 35.438305,
        "h": 107
      },
      {
        "name": "岐阜総合学園高等学校",
        "address": "岐阜県岐阜市須賀2-7-25",
        "lng": 136.7209,
        "lat": 35.383959,
        "h": 106
      },
      {
        "name": "須賀公園",
        "address": "岐阜県岐阜市須賀3-12",
        "lng": 136.719076,
        "lat": 35.385444,
        "h": 106
      },
      {
        "name": "本荘公園",
        "address": "岐阜県岐阜市吹上町2",
        "lng": 136.742211,
        "lat": 35.414309,
        "h": 42
      },
      {
        "name": "長森東公民館",
        "address": "岐阜県岐阜市水海道2-10-1",
        "lng": 136.812284,
        "lat": 35.411885,
        "h": 107
      },
      {
        "name": "長森東小学校",
        "address": "岐阜県岐阜市水海道2-10-1",
        "lng": 136.81133,
        "lat": 35.41196,
        "h": 107
      },
      {
        "name": "富田学園第２グランド",
        "address": "岐阜県岐阜市水海道3-20",
        "lng": 136.809046,
        "lat": 35.408331,
        "h": 106
      },
      {
        "name": "菅生公園",
        "address": "岐阜県岐阜市菅生3-5-3",
        "lng": 136.730614,
        "lat": 35.422244,
        "h": 106
      },
      {
        "name": "菅生小公園",
        "address": "岐阜県岐阜市菅生4-101",
        "lng": 136.728391,
        "lat": 35.421231,
        "h": 106
      },
      {
        "name": "島南公園",
        "address": "岐阜県岐阜市菅生8-5",
        "lng": 136.734792,
        "lat": 35.423954,
        "h": 106
      },
      {
        "name": "済美高等学校校庭",
        "address": "岐阜県岐阜市正法寺町33",
        "lng": 136.762585,
        "lat": 35.395439,
        "h": 106
      },
      {
        "name": "正木公園",
        "address": "岐阜県岐阜市正木字古川1978-139",
        "lng": 136.746575,
        "lat": 35.446919,
        "h": 106
      },
      {
        "name": "鷺山公園",
        "address": "岐阜県岐阜市正木字山本１５１９－１外",
        "lng": 136.750955,
        "lat": 35.449839,
        "h": 105
      },
      {
        "name": "正木緑地",
        "address": "岐阜県岐阜市正木字南出口",
        "lng": 136.737448,
        "lat": 35.451169,
        "h": 106
      },
      {
        "name": "正木西公園",
        "address": "岐阜県岐阜市正木西町13-3",
        "lng": 136.741118,
        "lat": 35.453499,
        "h": 106
      },
      {
        "name": "マーサ２１（イオン岐阜店）駐車場（本館立体駐車場含む）",
        "address": "岐阜県岐阜市正木中1-2-1",
        "lng": 136.743906,
        "lat": 35.448616,
        "h": 107
      },
      {
        "name": "正木古川公園",
        "address": "岐阜県岐阜市正木中2-4",
        "lng": 136.742998,
        "lat": 35.448809,
        "h": 106
      },
      {
        "name": "正木中公園",
        "address": "岐阜県岐阜市正木中3-9-1",
        "lng": 136.744,
        "lat": 35.45095,
        "h": 106
      },
      {
        "name": "正木南公園",
        "address": "岐阜県岐阜市正木南1-16",
        "lng": 136.739901,
        "lat": 35.448957,
        "h": 42
      },
      {
        "name": "正木古川西公園",
        "address": "岐阜県岐阜市正木南1-20-1",
        "lng": 136.740944,
        "lat": 35.44941,
        "h": 106
      },
      {
        "name": "正木北公園",
        "address": "岐阜県岐阜市正木北町10-2",
        "lng": 136.747663,
        "lat": 35.453483,
        "h": 106
      },
      {
        "name": "清和公園",
        "address": "岐阜県岐阜市清本町3-1",
        "lng": 136.739582,
        "lat": 35.408394,
        "h": 106
      },
      {
        "name": "旦ノ越公園",
        "address": "岐阜県岐阜市清本町7-26",
        "lng": 136.739074,
        "lat": 35.404415,
        "h": 106
      },
      {
        "name": "七郷公民館",
        "address": "岐阜県岐阜市西改田字川向3",
        "lng": 136.705197,
        "lat": 35.447535,
        "h": 107
      },
      {
        "name": "旧岐阜養護学校小・中学部",
        "address": "岐阜県岐阜市西改田字川向3",
        "lng": 136.70502,
        "lat": 35.447839,
        "h": 107
      },
      {
        "name": "七郷小学校",
        "address": "岐阜県岐阜市西改田字川向94-1",
        "lng": 136.706494,
        "lat": 35.450024,
        "h": 107
      },
      {
        "name": "西改田公園",
        "address": "岐阜県岐阜市西改田上の町114",
        "lng": 136.701721,
        "lat": 35.449635,
        "h": 107
      },
      {
        "name": "せせらぎ広場",
        "address": "岐阜県岐阜市西材木町９地先",
        "lng": 136.765865,
        "lat": 35.4341,
        "h": 107
      },
      {
        "name": "西秋沢公園",
        "address": "岐阜県岐阜市西秋沢2-176",
        "lng": 136.696482,
        "lat": 35.501586,
        "h": 106
      },
      {
        "name": "岐阜本巣特別支援学校",
        "address": "岐阜県岐阜市西秋沢2-363-1",
        "lng": 136.693321,
        "lat": 35.499084,
        "h": 105
      },
      {
        "name": "西川手公園",
        "address": "岐阜県岐阜市西川手9-13",
        "lng": 136.764831,
        "lat": 35.382311,
        "h": 42
      },
      {
        "name": "西荘公園",
        "address": "岐阜県岐阜市西荘2-5",
        "lng": 136.724415,
        "lat": 35.409542,
        "h": 106
      },
      {
        "name": "鏡島大橋北駐車場",
        "address": "岐阜県岐阜市西中島2-3",
        "lng": 136.72064,
        "lat": 35.424034,
        "h": 106
      },
      {
        "name": "西中島南公園",
        "address": "岐阜県岐阜市西中島3-7",
        "lng": 136.722568,
        "lat": 35.426238,
        "h": 106
      },
      {
        "name": "北部プラント多目的グランド",
        "address": "岐阜県岐阜市西中島6-3",
        "lng": 136.719544,
        "lat": 35.429548,
        "h": 106
      },
      {
        "name": "西中島北公園",
        "address": "岐阜県岐阜市西中島7-3",
        "lng": 136.722913,
        "lat": 35.428972,
        "h": 106
      },
      {
        "name": "西島公園",
        "address": "岐阜県岐阜市西島町6-1",
        "lng": 136.73358,
        "lat": 35.42609,
        "h": 106
      },
      {
        "name": "西野町公園",
        "address": "岐阜県岐阜市西野町3-22",
        "lng": 136.757214,
        "lat": 35.427901,
        "h": 42
      },
      {
        "name": "なかよし公園",
        "address": "岐阜県岐阜市西野町7-22",
        "lng": 136.748086,
        "lat": 35.423219,
        "h": 42
      },
      {
        "name": "清水野公園",
        "address": "岐阜県岐阜市西鶉6-45",
        "lng": 136.722102,
        "lat": 35.378307,
        "h": 106
      },
      {
        "name": "華陽フロンティア高等学校",
        "address": "岐阜県岐阜市西鶉6-69",
        "lng": 136.720088,
        "lat": 35.378271,
        "h": 106
      },
      {
        "name": "青柳公園",
        "address": "岐阜県岐阜市青柳町5-1",
        "lng": 136.748727,
        "lat": 35.427855,
        "h": 106
      },
      {
        "name": "三輪中学校",
        "address": "岐阜県岐阜市石原1-12",
        "lng": 136.831282,
        "lat": 35.495723,
        "h": 107
      },
      {
        "name": "八幡公園",
        "address": "岐阜県岐阜市石谷字北山610-2",
        "lng": 136.741482,
        "lat": 35.485118,
        "h": 105
      },
      {
        "name": "石谷公園",
        "address": "岐阜県岐阜市石谷字北山614-149",
        "lng": 136.743041,
        "lat": 35.483077,
        "h": 105
      },
      {
        "name": "長森南中学校",
        "address": "岐阜県岐阜市切通2-11-1",
        "lng": 136.794806,
        "lat": 35.402938,
        "h": 107
      },
      {
        "name": "いりのと緑地",
        "address": "岐阜県岐阜市切通4-136-1",
        "lng": 136.791038,
        "lat": 35.398895,
        "h": 107
      },
      {
        "name": "長森南小学校",
        "address": "岐阜県岐阜市切通5-12-1",
        "lng": 136.798168,
        "lat": 35.396314,
        "h": 107
      },
      {
        "name": "長森南公民館",
        "address": "岐阜県岐阜市切通5-3-14",
        "lng": 136.796573,
        "lat": 35.396053,
        "h": 107
      },
      {
        "name": "陣屋公園",
        "address": "岐阜県岐阜市切通6-15-1",
        "lng": 136.798944,
        "lat": 35.398166,
        "h": 106
      },
      {
        "name": "共和公園",
        "address": "岐阜県岐阜市折立字長瀬524-3",
        "lng": 136.737666,
        "lat": 35.453728,
        "h": 106
      },
      {
        "name": "折立公園",
        "address": "岐阜県岐阜市折立字北浦262-2",
        "lng": 136.73079,
        "lat": 35.459384,
        "h": 106
      },
      {
        "name": "芭蕉公園",
        "address": "岐阜県岐阜市折立字木成683",
        "lng": 136.732831,
        "lat": 35.452586,
        "h": 106
      },
      {
        "name": "北野公園",
        "address": "岐阜県岐阜市千手堂北町2-13",
        "lng": 136.75032,
        "lat": 35.416799,
        "h": 106
      },
      {
        "name": "長良西小学校",
        "address": "岐阜県岐阜市千代田町2-1",
        "lng": 136.769932,
        "lat": 35.44523,
        "h": 107
      },
      {
        "name": "岐阜西中学校",
        "address": "岐阜県岐阜市川部3-30",
        "lng": 136.707703,
        "lat": 35.434424,
        "h": 107
      },
      {
        "name": "長森コミュニティセンター駐車場",
        "address": "岐阜県岐阜市前一色1-2-1",
        "lng": 136.795915,
        "lat": 35.408497,
        "h": 106
      },
      {
        "name": "夕べが池公園",
        "address": "岐阜県岐阜市曽我屋4-138",
        "lng": 136.698827,
        "lat": 35.425906,
        "h": 106
      },
      {
        "name": "北西部運動公園",
        "address": "岐阜県岐阜市曽我屋８地内",
        "lng": 136.711633,
        "lat": 35.431356,
        "h": 42
      },
      {
        "name": "岐阜清流中学校",
        "address": "岐阜県岐阜市早田1901-18",
        "lng": 136.74621,
        "lat": 35.435989,
        "h": 107
      },
      {
        "name": "早田東公園",
        "address": "岐阜県岐阜市早田東町4-40",
        "lng": 136.763616,
        "lat": 35.436486,
        "h": 106
      },
      {
        "name": "早田北公園",
        "address": "岐阜県岐阜市早田東町8-62",
        "lng": 136.762183,
        "lat": 35.439459,
        "h": 106
      },
      {
        "name": "北西部体育館",
        "address": "岐阜県岐阜市則松2-65-2",
        "lng": 136.700915,
        "lat": 35.48529,
        "h": 107
      },
      {
        "name": "からかさ松公園",
        "address": "岐阜県岐阜市則松3-30-1",
        "lng": 136.699166,
        "lat": 35.489973,
        "h": 106
      },
      {
        "name": "則武公民館",
        "address": "岐阜県岐阜市則武209-2",
        "lng": 136.740921,
        "lat": 35.445725,
        "h": 106
      },
      {
        "name": "則武小学校",
        "address": "岐阜県岐阜市則武209-2",
        "lng": 136.741513,
        "lat": 35.44596,
        "h": 107
      },
      {
        "name": "新田南公園",
        "address": "岐阜県岐阜市則武字新屋敷1754-1",
        "lng": 136.748963,
        "lat": 35.439286,
        "h": 106
      },
      {
        "name": "若竹公園",
        "address": "岐阜県岐阜市則武字道甫分",
        "lng": 136.747,
        "lat": 35.443336,
        "h": 106
      },
      {
        "name": "新田北山公園",
        "address": "岐阜県岐阜市則武字北山",
        "lng": 136.750774,
        "lat": 35.442696,
        "h": 106
      },
      {
        "name": "新田中央公園",
        "address": "岐阜県岐阜市則武字北山523-1",
        "lng": 136.748997,
        "lat": 35.442417,
        "h": 106
      },
      {
        "name": "新田東公園",
        "address": "岐阜県岐阜市則武字北山５８５－１５外",
        "lng": 136.752391,
        "lat": 35.440897,
        "h": 106
      },
      {
        "name": "県立岐阜商業高等学校",
        "address": "岐阜県岐阜市則武新屋敷1816-6",
        "lng": 136.752258,
        "lat": 35.439618,
        "h": 107
      },
      {
        "name": "岐阜北高等学校",
        "address": "岐阜県岐阜市則武清水1841-11",
        "lng": 136.748947,
        "lat": 35.437224,
        "h": 107
      },
      {
        "name": "いずみ公園",
        "address": "岐阜県岐阜市則武西1-24-1",
        "lng": 136.73361,
        "lat": 35.44266,
        "h": 106
      },
      {
        "name": "則武南公園",
        "address": "岐阜県岐阜市則武西1-4-1",
        "lng": 136.737414,
        "lat": 35.440243,
        "h": 106
      },
      {
        "name": "城西小学校",
        "address": "岐阜県岐阜市則武西1-8-1",
        "lng": 136.73408,
        "lat": 35.440806,
        "h": 107
      },
      {
        "name": "島中学校",
        "address": "岐阜県岐阜市則武西1-8-2",
        "lng": 136.732919,
        "lat": 35.440958,
        "h": 107
      },
      {
        "name": "萱野公園",
        "address": "岐阜県岐阜市則武西2-4-1",
        "lng": 136.737422,
        "lat": 35.443194,
        "h": 106
      },
      {
        "name": "則武公園",
        "address": "岐阜県岐阜市則武中1-22",
        "lng": 136.74489,
        "lat": 35.43942,
        "h": 106
      },
      {
        "name": "蒲池公園",
        "address": "岐阜県岐阜市則武中2-33",
        "lng": 136.74033,
        "lat": 35.44159,
        "h": 106
      },
      {
        "name": "秋葉公園",
        "address": "岐阜県岐阜市則武中2-9",
        "lng": 136.740259,
        "lat": 35.439221,
        "h": 106
      },
      {
        "name": "宗作公園",
        "address": "岐阜県岐阜市則武中4-9",
        "lng": 136.742321,
        "lat": 35.442612,
        "h": 106
      },
      {
        "name": "村山公園",
        "address": "岐阜県岐阜市村山2",
        "lng": 136.715446,
        "lat": 35.482958,
        "h": 105
      },
      {
        "name": "三輪南小学校",
        "address": "岐阜県岐阜市太郎丸1034",
        "lng": 136.82661,
        "lat": 35.490407,
        "h": 107
      },
      {
        "name": "三輪南公民館",
        "address": "岐阜県岐阜市太郎丸1034",
        "lng": 136.825976,
        "lat": 35.490511,
        "h": 107
      },
      {
        "name": "福丸公園",
        "address": "岐阜県岐阜市太郎丸2174-42",
        "lng": 136.811719,
        "lat": 35.48669,
        "h": 105
      },
      {
        "name": "岐阜女子大学グラウンド",
        "address": "岐阜県岐阜市太郎丸80",
        "lng": 136.805763,
        "lat": 35.501335,
        "h": 105
      },
      {
        "name": "太郎丸諏訪公園",
        "address": "岐阜県岐阜市太郎丸諏訪124",
        "lng": 136.816816,
        "lat": 35.49554,
        "h": 107
      },
      {
        "name": "太郎丸中島公園",
        "address": "岐阜県岐阜市太郎丸中島137",
        "lng": 136.8174,
        "lat": 35.490366,
        "h": 107
      },
      {
        "name": "交人公園",
        "address": "岐阜県岐阜市大学北2-128",
        "lng": 136.729734,
        "lat": 35.472402,
        "h": 106
      },
      {
        "name": "岐阜公園（山地を除く）",
        "address": "岐阜県岐阜市大宮町1",
        "lng": 136.774379,
        "lat": 35.43409,
        "h": 104
      },
      {
        "name": "岐阜小学校",
        "address": "岐阜県岐阜市大工町1",
        "lng": 136.766111,
        "lat": 35.433582,
        "h": 107
      },
      {
        "name": "金華公民館",
        "address": "岐阜県岐阜市大工町1",
        "lng": 136.765621,
        "lat": 35.432876,
        "h": 106
      },
      {
        "name": "伊鳥緑地",
        "address": "岐阜県岐阜市大字城田寺萱野２３４４－１外",
        "lng": 136.743614,
        "lat": 35.457928,
        "h": 106
      },
      {
        "name": "島大橋河川公園",
        "address": "岐阜県岐阜市大字曽我屋柳原外",
        "lng": 136.712746,
        "lat": 35.425083,
        "h": 42
      },
      {
        "name": "つばき公園",
        "address": "岐阜県岐阜市大字椿洞字蔭平425-73",
        "lng": 136.756011,
        "lat": 35.47626,
        "h": 105
      },
      {
        "name": "大菅南公園",
        "address": "岐阜県岐阜市大菅南12",
        "lng": 136.709644,
        "lat": 35.402044,
        "h": 106
      },
      {
        "name": "大菅北公園",
        "address": "岐阜県岐阜市大菅北16-1",
        "lng": 136.709111,
        "lat": 35.407142,
        "h": 106
      },
      {
        "name": "大蔵台公園",
        "address": "岐阜県岐阜市大蔵台4",
        "lng": 136.827248,
        "lat": 35.454136,
        "h": 105
      },
      {
        "name": "清水公園",
        "address": "岐阜県岐阜市大洞1-7-9",
        "lng": 136.870418,
        "lat": 35.45608,
        "h": 107
      },
      {
        "name": "桐ヶ丘公園",
        "address": "岐阜県岐阜市大洞桐が丘3-60",
        "lng": 136.865187,
        "lat": 35.462579,
        "h": 107
      },
      {
        "name": "大洞緑公園",
        "address": "岐阜県岐阜市大洞桐が丘4-4",
        "lng": 136.867929,
        "lat": 35.462241,
        "h": 105
      },
      {
        "name": "藍川東中学校",
        "address": "岐阜県岐阜市大洞紅葉が丘6-22-3",
        "lng": 136.872727,
        "lat": 35.462139,
        "h": 105
      },
      {
        "name": "紅葉ヶ丘公園",
        "address": "岐阜県岐阜市大洞紅葉ヶ丘4-37",
        "lng": 136.870542,
        "lat": 35.462584,
        "h": 107
      },
      {
        "name": "芥見東小学校",
        "address": "岐阜県岐阜市大洞桜台1-2",
        "lng": 136.864214,
        "lat": 35.458541,
        "h": 107
      },
      {
        "name": "芥見東公民館",
        "address": "岐阜県岐阜市大洞桜台1-26-2",
        "lng": 136.863712,
        "lat": 35.459232,
        "h": 105
      },
      {
        "name": "桜台公園",
        "address": "岐阜県岐阜市大洞桜台6-38",
        "lng": 136.866745,
        "lat": 35.46014,
        "h": 107
      },
      {
        "name": "つくし公園",
        "address": "岐阜県岐阜市大洞西4-1",
        "lng": 136.866454,
        "lat": 35.455798,
        "h": 43
      },
      {
        "name": "柏台公園",
        "address": "岐阜県岐阜市大洞柏台6-60-1",
        "lng": 136.871282,
        "lat": 35.459868,
        "h": 107
      },
      {
        "name": "緑山公園",
        "address": "岐阜県岐阜市大洞緑山1-3373-33",
        "lng": 136.86512,
        "lat": 35.453349,
        "h": 105
      },
      {
        "name": "岐阜高等学校",
        "address": "岐阜県岐阜市大縄場3-1",
        "lng": 136.746644,
        "lat": 35.425261,
        "h": 106
      },
      {
        "name": "大縄場公園",
        "address": "岐阜県岐阜市大縄場8-20",
        "lng": 136.745092,
        "lat": 35.423194,
        "h": 106
      },
      {
        "name": "忠節橋下流広場",
        "address": "岐阜県岐阜市大縄場３－１地先",
        "lng": 136.744761,
        "lat": 35.426032,
        "h": 106
      },
      {
        "name": "大福公園",
        "address": "岐阜県岐阜市大福町6-44",
        "lng": 136.739633,
        "lat": 35.436687,
        "h": 106
      },
      {
        "name": "伊自良川緑地",
        "address": "岐阜県岐阜市旦ノ島西１－３５地先",
        "lng": 136.719122,
        "lat": 35.437017,
        "h": 106
      },
      {
        "name": "島西運動場",
        "address": "岐阜県岐阜市旦島2-5",
        "lng": 136.723139,
        "lat": 35.43172,
        "h": 106
      },
      {
        "name": "旦島南公園",
        "address": "岐阜県岐阜市旦島2-7-1",
        "lng": 136.722915,
        "lat": 35.432799,
        "h": 106
      },
      {
        "name": "柳公園",
        "address": "岐阜県岐阜市旦島3-3",
        "lng": 136.720098,
        "lat": 35.431458,
        "h": 106
      },
      {
        "name": "平島公園",
        "address": "岐阜県岐阜市旦島4-11",
        "lng": 136.719565,
        "lat": 35.435195,
        "h": 106
      },
      {
        "name": "萱場西公園",
        "address": "岐阜県岐阜市旦島宮町1-31",
        "lng": 136.72923,
        "lat": 35.436518,
        "h": 106
      },
      {
        "name": "長良川公園",
        "address": "岐阜県岐阜市池ノ上１－１２地先",
        "lng": 136.770943,
        "lat": 35.44077,
        "h": 42
      },
      {
        "name": "池ノ上公園",
        "address": "岐阜県岐阜市池ノ上町2-36",
        "lng": 136.743852,
        "lat": 35.430753,
        "h": 42
      },
      {
        "name": "茶屋新田運動場",
        "address": "岐阜県岐阜市茶屋新田字下村地先",
        "lng": 136.690286,
        "lat": 35.35843,
        "h": 107
      },
      {
        "name": "日置江公園",
        "address": "岐阜県岐阜市茶屋新田上村地先",
        "lng": 136.690821,
        "lat": 35.363314,
        "h": 107
      },
      {
        "name": "西郷中公園",
        "address": "岐阜県岐阜市中1-35-1",
        "lng": 136.705976,
        "lat": 35.466229,
        "h": 106
      },
      {
        "name": "西郷中央公園",
        "address": "岐阜県岐阜市中西郷1-41",
        "lng": 136.701079,
        "lat": 35.464311,
        "h": 106
      },
      {
        "name": "西郷公民館",
        "address": "岐阜県岐阜市中西郷4-236",
        "lng": 136.696117,
        "lat": 35.470672,
        "h": 107
      },
      {
        "name": "西郷小学校",
        "address": "岐阜県岐阜市中西郷4-261",
        "lng": 136.696812,
        "lat": 35.471588,
        "h": 107
      },
      {
        "name": "雄日ケ丘公園",
        "address": "岐阜県岐阜市中川原1-97",
        "lng": 136.798314,
        "lat": 35.443333,
        "h": 106
      },
      {
        "name": "岐阜聖徳学園高等学校校庭",
        "address": "岐阜県岐阜市中鶉1-50",
        "lng": 136.734491,
        "lat": 35.38679,
        "h": 106
      },
      {
        "name": "鶉小学校",
        "address": "岐阜県岐阜市中鶉4-189-1",
        "lng": 136.73347,
        "lat": 35.379162,
        "h": 107
      },
      {
        "name": "鶉公民館",
        "address": "岐阜県岐阜市中鶉7-11",
        "lng": 136.732657,
        "lat": 35.378216,
        "h": 106
      },
      {
        "name": "岩戸公園",
        "address": "岐阜県岐阜市長森岩戸944-5",
        "lng": 136.783547,
        "lat": 35.425552,
        "h": 105
      },
      {
        "name": "川原公園（細畑西公園）",
        "address": "岐阜県岐阜市長森細畑字下川原地内",
        "lng": 136.78258,
        "lat": 35.400068,
        "h": 106
      },
      {
        "name": "沓掛公園",
        "address": "岐阜県岐阜市長森本町1-9-30",
        "lng": 136.797865,
        "lat": 35.420465,
        "h": 107
      },
      {
        "name": "一楽公園",
        "address": "岐阜県岐阜市長良2-1-1",
        "lng": 136.781195,
        "lat": 35.451109,
        "h": 42
      },
      {
        "name": "春田公園",
        "address": "岐阜県岐阜市長良2-151-1",
        "lng": 136.784831,
        "lat": 35.451109,
        "h": 106
      },
      {
        "name": "長良小学校",
        "address": "岐阜県岐阜市長良259",
        "lng": 136.777111,
        "lat": 35.446721,
        "h": 107
      },
      {
        "name": "長良公民館",
        "address": "岐阜県岐阜市長良259",
        "lng": 136.776377,
        "lat": 35.446543,
        "h": 106
      },
      {
        "name": "真福寺中公園",
        "address": "岐阜県岐阜市長良3-61",
        "lng": 136.781896,
        "lat": 35.454066,
        "h": 107
      },
      {
        "name": "長良東公民館",
        "address": "岐阜県岐阜市長良宮路町3-5-1",
        "lng": 136.780864,
        "lat": 35.449798,
        "h": 107
      },
      {
        "name": "海用畑公園",
        "address": "岐阜県岐阜市長良校文町34",
        "lng": 136.778122,
        "lat": 35.446575,
        "h": 106
      },
      {
        "name": "長良公園",
        "address": "岐阜県岐阜市長良字城之内1466-10",
        "lng": 136.783583,
        "lat": 35.446788,
        "h": 107
      },
      {
        "name": "堀田緑地",
        "address": "岐阜県岐阜市長良字東野地先",
        "lng": 136.787319,
        "lat": 35.441756,
        "h": 42
      },
      {
        "name": "鵜飼緑地",
        "address": "岐阜県岐阜市長良字東野地先",
        "lng": 136.786117,
        "lat": 35.440601,
        "h": 106
      },
      {
        "name": "尾花公園",
        "address": "岐阜県岐阜市長良字尾花1246-4",
        "lng": 136.789781,
        "lat": 35.451741,
        "h": 105
      },
      {
        "name": "岐山高等学校",
        "address": "岐阜県岐阜市長良小山田2587-1",
        "lng": 136.780078,
        "lat": 35.457227,
        "h": 105
      },
      {
        "name": "東長良中学校",
        "address": "岐阜県岐阜市長良真生町3-27-4",
        "lng": 136.780755,
        "lat": 35.448228,
        "h": 107
      },
      {
        "name": "長良東小学校",
        "address": "岐阜県岐阜市長良真生町3-9",
        "lng": 136.781507,
        "lat": 35.449061,
        "h": 107
      },
      {
        "name": "長良高等学校",
        "address": "岐阜県岐阜市長良西後町1716-1",
        "lng": 136.780691,
        "lat": 35.447251,
        "h": 107
      },
      {
        "name": "堀田公園",
        "address": "岐阜県岐阜市長良東1-91",
        "lng": 136.786548,
        "lat": 35.44678,
        "h": 106
      },
      {
        "name": "山の下公園",
        "address": "岐阜県岐阜市長良東3-278",
        "lng": 136.790898,
        "lat": 35.448507,
        "h": 105
      },
      {
        "name": "尾花自然公園",
        "address": "岐阜県岐阜市長良東3-95",
        "lng": 136.788875,
        "lat": 35.450259,
        "h": 107
      },
      {
        "name": "松籟公園",
        "address": "岐阜県岐阜市長良洞2435-1",
        "lng": 136.787769,
        "lat": 35.455906,
        "h": 105
      },
      {
        "name": "長良中学校",
        "address": "岐阜県岐阜市長良福光2070",
        "lng": 136.766099,
        "lat": 35.446887,
        "h": 107
      },
      {
        "name": "長良川球技場メドゥ及び駐車場",
        "address": "岐阜県岐阜市長良福光字青襖2070-5",
        "lng": 136.766346,
        "lat": 35.445092,
        "h": 106
      },
      {
        "name": "福光緑地",
        "address": "岐阜県岐阜市長良福光字青襖2070-5",
        "lng": 136.767407,
        "lat": 35.446768,
        "h": 106
      },
      {
        "name": "長良広場",
        "address": "岐阜県岐阜市長良福光南町地内",
        "lng": 136.773859,
        "lat": 35.441332,
        "h": 106
      },
      {
        "name": "津島公園",
        "address": "岐阜県岐阜市津島町5-28",
        "lng": 136.757771,
        "lat": 35.434977,
        "h": 106
      },
      {
        "name": "岐阜市畜産センター公園",
        "address": "岐阜県岐阜市椿洞字中野",
        "lng": 136.764863,
        "lat": 35.486394,
        "h": 107
      },
      {
        "name": "㈱日本キャンパック岐阜工場",
        "address": "岐阜県岐阜市鶴田町3-7-5",
        "lng": 136.770987,
        "lat": 35.413899,
        "h": 107
      },
      {
        "name": "川原町広場",
        "address": "岐阜県岐阜市堤外",
        "lng": 136.772444,
        "lat": 35.436432,
        "h": 42
      },
      {
        "name": "金竜公園",
        "address": "岐阜県岐阜市田端町1-10",
        "lng": 136.769475,
        "lat": 35.416384,
        "h": 106
      },
      {
        "name": "朝日大学ＰＤＩ岐阜歯科診療所",
        "address": "岐阜県岐阜市都通5-15",
        "lng": 136.746782,
        "lat": 35.414594,
        "h": 106
      },
      {
        "name": "亀の渡公園",
        "address": "岐阜県岐阜市島田1-1",
        "lng": 136.73987,
        "lat": 35.42343,
        "h": 106
      },
      {
        "name": "岐阜競輪場駐車場",
        "address": "岐阜県岐阜市東栄町5",
        "lng": 136.783498,
        "lat": 35.412381,
        "h": 106
      },
      {
        "name": "東改田公園",
        "address": "岐阜県岐阜市東改田312",
        "lng": 136.713369,
        "lat": 35.44876,
        "h": 107
      },
      {
        "name": "東島公園",
        "address": "岐阜県岐阜市東島2-7",
        "lng": 136.738421,
        "lat": 35.425359,
        "h": 106
      },
      {
        "name": "東島北公園",
        "address": "岐阜県岐阜市東島4-8-1",
        "lng": 136.737693,
        "lat": 35.428809,
        "h": 106
      },
      {
        "name": "天王公園",
        "address": "岐阜県岐阜市東鶉5-94",
        "lng": 136.743189,
        "lat": 35.377542,
        "h": 106
      },
      {
        "name": "末広公園",
        "address": "岐阜県岐阜市洞字稲木964",
        "lng": 136.716101,
        "lat": 35.469192,
        "h": 107
      },
      {
        "name": "黒野洞公園",
        "address": "岐阜県岐阜市洞字桜池727-2",
        "lng": 136.720578,
        "lat": 35.469738,
        "h": 107
      },
      {
        "name": "蝉丸公園",
        "address": "岐阜県岐阜市南蝉1-29",
        "lng": 136.762851,
        "lat": 35.445935,
        "h": 106
      },
      {
        "name": "池田公園",
        "address": "岐阜県岐阜市南蝉2-89",
        "lng": 136.759633,
        "lat": 35.447331,
        "h": 106
      },
      {
        "name": "すみれ公園",
        "address": "岐阜県岐阜市南鶉3-95-1",
        "lng": 136.736336,
        "lat": 35.374737,
        "h": 106
      },
      {
        "name": "日光コミュニティセンター駐車場",
        "address": "岐阜県岐阜市日光町9-1-3",
        "lng": 136.745511,
        "lat": 35.436369,
        "h": 106
      },
      {
        "name": "日光公園",
        "address": "岐阜県岐阜市日光町9-28",
        "lng": 136.744467,
        "lat": 35.437041,
        "h": 42
      },
      {
        "name": "日置江公民館",
        "address": "岐阜県岐阜市日置江1859-1",
        "lng": 136.70693,
        "lat": 35.37411,
        "h": 106
      },
      {
        "name": "華西公園",
        "address": "岐阜県岐阜市日置江2-19-80",
        "lng": 136.708765,
        "lat": 35.371905,
        "h": 106
      },
      {
        "name": "且格小学校",
        "address": "岐阜県岐阜市日置江3-1859-1",
        "lng": 136.706257,
        "lat": 35.373803,
        "h": 107
      },
      {
        "name": "日野公民館",
        "address": "岐阜県岐阜市日野西4-2-6",
        "lng": 136.803366,
        "lat": 35.43651,
        "h": 106
      },
      {
        "name": "日野堂後公園",
        "address": "岐阜県岐阜市日野中川原3982",
        "lng": 136.811493,
        "lat": 35.444292,
        "h": 106
      },
      {
        "name": "日野坂公園",
        "address": "岐阜県岐阜市日野東8-12-7",
        "lng": 136.817027,
        "lat": 35.428813,
        "h": 107
      },
      {
        "name": "日野中央公園",
        "address": "岐阜県岐阜市日野南1-17",
        "lng": 136.80278,
        "lat": 35.42988,
        "h": 42
      },
      {
        "name": "日野本郷公園",
        "address": "岐阜県岐阜市日野南4-16",
        "lng": 136.809491,
        "lat": 35.430001,
        "h": 106
      },
      {
        "name": "日野橋公園",
        "address": "岐阜県岐阜市日野南6-3",
        "lng": 136.815064,
        "lat": 35.429204,
        "h": 42
      },
      {
        "name": "城美北公園",
        "address": "岐阜県岐阜市日野南8-14-3",
        "lng": 136.809465,
        "lat": 35.428211,
        "h": 107
      },
      {
        "name": "城美南公園",
        "address": "岐阜県岐阜市日野南8-23-1",
        "lng": 136.811105,
        "lat": 35.425536,
        "h": 105
      },
      {
        "name": "城美東公園",
        "address": "岐阜県岐阜市日野南8-37-7",
        "lng": 136.813209,
        "lat": 35.427521,
        "h": 107
      },
      {
        "name": "城美西公園",
        "address": "岐阜県岐阜市日野南8-5-1",
        "lng": 136.80738,
        "lat": 35.427111,
        "h": 107
      },
      {
        "name": "日野小学校",
        "address": "岐阜県岐阜市日野北1-4-1",
        "lng": 136.803423,
        "lat": 35.438297,
        "h": 107
      },
      {
        "name": "清眺台第二公園",
        "address": "岐阜県岐阜市日野北5-21",
        "lng": 136.814922,
        "lat": 35.44069,
        "h": 105
      },
      {
        "name": "清眺台公園",
        "address": "岐阜県岐阜市日野北5-8-1",
        "lng": 136.815676,
        "lat": 35.442318,
        "h": 105
      },
      {
        "name": "うさぎ公園",
        "address": "岐阜県岐阜市日野北7-2-19",
        "lng": 136.821533,
        "lat": 35.443373,
        "h": 104
      },
      {
        "name": "梅林公園（山地を除く）",
        "address": "岐阜県岐阜市梅林南町",
        "lng": 136.771138,
        "lat": 35.418103,
        "h": 104
      },
      {
        "name": "白菊公園",
        "address": "岐阜県岐阜市白菊町6-19",
        "lng": 136.737768,
        "lat": 35.434284,
        "h": 106
      },
      {
        "name": "白山公民館",
        "address": "岐阜県岐阜市白山町2-1",
        "lng": 136.766909,
        "lat": 35.412815,
        "h": 107
      },
      {
        "name": "白山小学校",
        "address": "岐阜県岐阜市白山町2-1-1",
        "lng": 136.766113,
        "lat": 35.412831,
        "h": 107
      },
      {
        "name": "白木町公園",
        "address": "岐阜県岐阜市白木町28-2",
        "lng": 136.765511,
        "lat": 35.428197,
        "h": 106
      },
      {
        "name": "八ッ梅公園",
        "address": "岐阜県岐阜市八ツ梅町3-8",
        "lng": 136.75335,
        "lat": 35.423402,
        "h": 106
      },
      {
        "name": "北部コミュニティセンター駐車場",
        "address": "岐阜県岐阜市八代1-11-13",
        "lng": 136.772719,
        "lat": 35.459516,
        "h": 106
      },
      {
        "name": "ゆずり花公園",
        "address": "岐阜県岐阜市八代2-14",
        "lng": 136.769941,
        "lat": 35.460868,
        "h": 107
      },
      {
        "name": "福光中央公園（市民球場）",
        "address": "岐阜県岐阜市八代2-8",
        "lng": 136.770279,
        "lat": 35.459106,
        "h": 107
      },
      {
        "name": "八代公園",
        "address": "岐阜県岐阜市八代3-14",
        "lng": 136.773126,
        "lat": 35.461199,
        "h": 107
      },
      {
        "name": "美江寺公園",
        "address": "岐阜県岐阜市美江寺町1-1",
        "lng": 136.761458,
        "lat": 35.425658,
        "h": 106
      },
      {
        "name": "美島公園",
        "address": "岐阜県岐阜市美島町3-25",
        "lng": 136.750094,
        "lat": 35.43618,
        "h": 106
      },
      {
        "name": "彦坂公園",
        "address": "岐阜県岐阜市彦坂川北104",
        "lng": 136.742565,
        "lat": 35.498351,
        "h": 105
      },
      {
        "name": "出雲公園",
        "address": "岐阜県岐阜市敷島町10-4",
        "lng": 136.728991,
        "lat": 35.406367,
        "h": 106
      },
      {
        "name": "どんぐり公園",
        "address": "岐阜県岐阜市福光西1-16-3",
        "lng": 136.767704,
        "lat": 35.45279,
        "h": 106
      },
      {
        "name": "お茶の木公園",
        "address": "岐阜県岐阜市福光西3-6",
        "lng": 136.769828,
        "lat": 35.455475,
        "h": 106
      },
      {
        "name": "太田北公園",
        "address": "岐阜県岐阜市福光東1-34",
        "lng": 136.77238,
        "lat": 35.4524,
        "h": 106
      },
      {
        "name": "松原公園",
        "address": "岐阜県岐阜市福光東3-15",
        "lng": 136.775089,
        "lat": 35.456531,
        "h": 107
      },
      {
        "name": "福光東公園",
        "address": "岐阜県岐阜市福光東3-19-1",
        "lng": 136.772599,
        "lat": 35.457003,
        "h": 107
      },
      {
        "name": "太田西公園",
        "address": "岐阜県岐阜市福光南町18-21",
        "lng": 136.767675,
        "lat": 35.44931,
        "h": 42
      },
      {
        "name": "聖マリア女学院高等学校校庭",
        "address": "岐阜県岐阜市福富201",
        "lng": 136.815928,
        "lat": 35.485372,
        "h": 105
      },
      {
        "name": "北東部コミュニティセンター駐車場",
        "address": "岐阜県岐阜市福富迎田6-1",
        "lng": 136.825714,
        "lat": 35.478882,
        "h": 106
      },
      {
        "name": "桜ケ丘公園",
        "address": "岐阜県岐阜市弁天町2-11",
        "lng": 136.747356,
        "lat": 35.419804,
        "h": 42
      },
      {
        "name": "岐阜競輪場東駐車場",
        "address": "岐阜県岐阜市北一色3",
        "lng": 136.785838,
        "lat": 35.41188,
        "h": 106
      },
      {
        "name": "長森西公民館",
        "address": "岐阜県岐阜市北一色5-5-1",
        "lng": 136.788676,
        "lat": 35.412478,
        "h": 107
      },
      {
        "name": "長森西小学校",
        "address": "岐阜県岐阜市北一色5-5-1",
        "lng": 136.789126,
        "lat": 35.412125,
        "h": 107
      },
      {
        "name": "柿ヶ瀬公園",
        "address": "岐阜県岐阜市北柿ケ瀬107",
        "lng": 136.731456,
        "lat": 35.448523,
        "h": 106
      },
      {
        "name": "北山公園",
        "address": "岐阜県岐阜市北山3-2-5",
        "lng": 136.858188,
        "lat": 35.45826,
        "h": 107
      },
      {
        "name": "竜万公園",
        "address": "岐阜県岐阜市北島2-5",
        "lng": 136.7288,
        "lat": 35.427659,
        "h": 106
      },
      {
        "name": "北島公園",
        "address": "岐阜県岐阜市北島6-12",
        "lng": 136.730139,
        "lat": 35.430858,
        "h": 106
      },
      {
        "name": "島公民館",
        "address": "岐阜県岐阜市北島7-6-12",
        "lng": 136.734342,
        "lat": 35.428764,
        "h": 106
      },
      {
        "name": "島小学校",
        "address": "岐阜県岐阜市北島7-6-12",
        "lng": 136.734731,
        "lat": 35.429361,
        "h": 107
      },
      {
        "name": "県立岐阜盲学校",
        "address": "岐阜県岐阜市北野町70-1",
        "lng": 136.75295,
        "lat": 35.427246,
        "h": 106
      },
      {
        "name": "三輪北公民館",
        "address": "岐阜県岐阜市北野東356",
        "lng": 136.832985,
        "lat": 35.503897,
        "h": 107
      },
      {
        "name": "三輪北小学校",
        "address": "岐阜県岐阜市北野東356",
        "lng": 136.833923,
        "lat": 35.504185,
        "h": 107
      },
      {
        "name": "岐阜ファミリーパーク",
        "address": "岐阜県岐阜市北野北",
        "lng": 136.831801,
        "lat": 35.517569,
        "h": 107
      },
      {
        "name": "本郷公園",
        "address": "岐阜県岐阜市本郷町2-1",
        "lng": 136.750003,
        "lat": 35.422064,
        "h": 106
      },
      {
        "name": "本郷公民館",
        "address": "岐阜県岐阜市本郷町3-1",
        "lng": 136.7485,
        "lat": 35.421623,
        "h": 107
      },
      {
        "name": "明郷小学校",
        "address": "岐阜県岐阜市本郷町3-1",
        "lng": 136.748779,
        "lat": 35.422219,
        "h": 107
      },
      {
        "name": "岐南工業高等学校",
        "address": "岐阜県岐阜市本荘3456-19",
        "lng": 136.730586,
        "lat": 35.405223,
        "h": 107
      },
      {
        "name": "八ツ草公園",
        "address": "岐阜県岐阜市本荘3456-6",
        "lng": 136.730714,
        "lat": 35.40272,
        "h": 42
      },
      {
        "name": "本荘西公園",
        "address": "岐阜県岐阜市本荘西1-64",
        "lng": 136.733613,
        "lat": 35.409916,
        "h": 106
      },
      {
        "name": "岐阜県農業技術センター",
        "address": "岐阜県岐阜市又丸729-1",
        "lng": 136.69983,
        "lat": 35.441716,
        "h": 107
      },
      {
        "name": "又丸公園",
        "address": "岐阜県岐阜市又丸津島63",
        "lng": 136.701205,
        "lat": 35.435353,
        "h": 107
      },
      {
        "name": "長良西公民館",
        "address": "岐阜県岐阜市万代町2-5-1",
        "lng": 136.769395,
        "lat": 35.445715,
        "h": 107
      },
      {
        "name": "ポケットパーク名水",
        "address": "岐阜県岐阜市湊町地内",
        "lng": 136.773649,
        "lat": 35.438063,
        "h": 42
      },
      {
        "name": "中央青少年会館・子ども若者総合支援センター・ことばの教室",
        "address": "岐阜県岐阜市明徳町11",
        "lng": 136.757338,
        "lat": 35.423995,
        "h": 107
      },
      {
        "name": "明徳公民館",
        "address": "岐阜県岐阜市明徳町11",
        "lng": 136.757863,
        "lat": 35.423701,
        "h": 106
      },
      {
        "name": "木ノ下公園",
        "address": "岐阜県岐阜市木ノ下町7",
        "lng": 136.7827,
        "lat": 35.40802,
        "h": 106
      },
      {
        "name": "木ノ本公園（木之本公園）",
        "address": "岐阜県岐阜市木ノ本町1-17",
        "lng": 136.749227,
        "lat": 35.414062,
        "h": 42
      },
      {
        "name": "木之本公民館",
        "address": "岐阜県岐阜市木ノ本町1-18",
        "lng": 136.748245,
        "lat": 35.414433,
        "h": 107
      },
      {
        "name": "徹明さくら小学校",
        "address": "岐阜県岐阜市木ノ本町1-18",
        "lng": 136.748107,
        "lat": 35.41487,
        "h": 107
      },
      {
        "name": "木田小学校",
        "address": "岐阜県岐阜市木田2-173",
        "lng": 136.719214,
        "lat": 35.443462,
        "h": 107
      },
      {
        "name": "東木田公園",
        "address": "岐阜県岐阜市木田3-95",
        "lng": 136.722595,
        "lat": 35.44482,
        "h": 42
      },
      {
        "name": "木田公民館",
        "address": "岐阜県岐阜市木田479-5",
        "lng": 136.719481,
        "lat": 35.441894,
        "h": 107
      },
      {
        "name": "板屋テニスコート",
        "address": "岐阜県岐阜市木田5",
        "lng": 136.724359,
        "lat": 35.450913,
        "h": 106
      },
      {
        "name": "西木田公園",
        "address": "岐阜県岐阜市木田字新屋敷1-1",
        "lng": 136.714079,
        "lat": 35.446099,
        "h": 106
      },
      {
        "name": "柿ヶ瀬緑地",
        "address": "岐阜県岐阜市木田字森元2062-1",
        "lng": 136.731941,
        "lat": 35.444508,
        "h": 106
      },
      {
        "name": "門屋公園",
        "address": "岐阜県岐阜市門屋門99-1",
        "lng": 136.833953,
        "lat": 35.497806,
        "h": 107
      },
      {
        "name": "長森北小学校",
        "address": "岐阜県岐阜市野一色3-1-3",
        "lng": 136.799269,
        "lat": 35.415384,
        "h": 107
      },
      {
        "name": "長森中学校",
        "address": "岐阜県岐阜市野一色4-11-1",
        "lng": 136.800054,
        "lat": 35.412573,
        "h": 107
      },
      {
        "name": "長森北公民館",
        "address": "岐阜県岐阜市野一色4-11-3",
        "lng": 136.800876,
        "lat": 35.413196,
        "h": 107
      },
      {
        "name": "野一色公園",
        "address": "岐阜県岐阜市野一色4-14",
        "lng": 136.801771,
        "lat": 35.411865,
        "h": 107
      },
      {
        "name": "学校法人富田学園校庭",
        "address": "岐阜県岐阜市野一色4-17-1",
        "lng": 136.80291,
        "lat": 35.412041,
        "h": 106
      },
      {
        "name": "岐阜大学",
        "address": "岐阜県岐阜市柳戸1-1",
        "lng": 136.737571,
        "lat": 35.465186,
        "h": 107
      },
      {
        "name": "柳森公園",
        "address": "岐阜県岐阜市柳森町2-20",
        "lng": 136.736114,
        "lat": 35.401997,
        "h": 106
      },
      {
        "name": "宮下公園",
        "address": "岐阜県岐阜市柳津町下佐波3-181",
        "lng": 136.721919,
        "lat": 35.359976,
        "h": 106
      },
      {
        "name": "宮下コミュニティ会館",
        "address": "岐阜県岐阜市柳津町下佐波4-37",
        "lng": 136.722125,
        "lat": 35.359523,
        "h": 107
      },
      {
        "name": "もえぎの里・もえぎの里多目的体育館",
        "address": "岐阜県岐阜市柳津町下佐波西1-15",
        "lng": 136.718382,
        "lat": 35.364242,
        "h": 107
      },
      {
        "name": "柳津小学校",
        "address": "岐阜県岐阜市柳津町丸野1-1",
        "lng": 136.730342,
        "lat": 35.368135,
        "h": 107
      },
      {
        "name": "カラフルタウン岐阜駐車場",
        "address": "岐阜県岐阜市柳津町丸野3-3-6",
        "lng": 136.729215,
        "lat": 35.363105,
        "h": 42
      },
      {
        "name": "丸野公園",
        "address": "岐阜県岐阜市柳津町丸野5-99-1",
        "lng": 136.728111,
        "lat": 35.359798,
        "h": 106
      },
      {
        "name": "柳津公民館",
        "address": "岐阜県岐阜市柳津町宮東1-1",
        "lng": 136.737441,
        "lat": 35.366198,
        "h": 107
      },
      {
        "name": "宮東公園",
        "address": "岐阜県岐阜市柳津町宮東2-168",
        "lng": 136.738608,
        "lat": 35.367971,
        "h": 106
      },
      {
        "name": "柳津花木園",
        "address": "岐阜県岐阜市柳津町宮東3-121",
        "lng": 136.739043,
        "lat": 35.369483,
        "h": 106
      },
      {
        "name": "高桑公園",
        "address": "岐阜県岐阜市柳津町高桑3-14",
        "lng": 136.710244,
        "lat": 35.357467,
        "h": 106
      },
      {
        "name": "高桑コミュニティ会館",
        "address": "岐阜県岐阜市柳津町高桑3-28",
        "lng": 136.710714,
        "lat": 35.356807,
        "h": 106
      },
      {
        "name": "岐阜聖徳学園大学",
        "address": "岐阜県岐阜市柳津町高桑西1-1",
        "lng": 136.706694,
        "lat": 35.36195,
        "h": 106
      },
      {
        "name": "高桑運動広場",
        "address": "岐阜県岐阜市柳津町高桑堤外3-102",
        "lng": 136.708308,
        "lat": 35.352871,
        "h": 107
      },
      {
        "name": "坂巻運動広場",
        "address": "岐阜県岐阜市柳津町佐波6397-1",
        "lng": 136.725198,
        "lat": 35.354435,
        "h": 107
      },
      {
        "name": "境川緑道公園",
        "address": "岐阜県岐阜市柳津町佐波字玄番堤外",
        "lng": 136.725024,
        "lat": 35.367396,
        "h": 106
      },
      {
        "name": "宮上公園",
        "address": "岐阜県岐阜市柳津町上佐波2-272",
        "lng": 136.724101,
        "lat": 35.372133,
        "h": 106
      },
      {
        "name": "宮上ふれあい会館",
        "address": "岐阜県岐阜市柳津町上佐波2-326",
        "lng": 136.721421,
        "lat": 35.371268,
        "h": 107
      },
      {
        "name": "上佐波西公園",
        "address": "岐阜県岐阜市柳津町上佐波5-128-5",
        "lng": 136.712862,
        "lat": 35.372521,
        "h": 106
      },
      {
        "name": "境川中学校",
        "address": "岐阜県岐阜市柳津町上佐波東3-70",
        "lng": 136.727534,
        "lat": 35.37046,
        "h": 107
      },
      {
        "name": "東塚南公園",
        "address": "岐阜県岐阜市柳津町東塚2-138",
        "lng": 136.752629,
        "lat": 35.366378,
        "h": 106
      },
      {
        "name": "東栄会館",
        "address": "岐阜県岐阜市柳津町東塚2-151",
        "lng": 136.752858,
        "lat": 35.365791,
        "h": 107
      },
      {
        "name": "東塚公園",
        "address": "岐阜県岐阜市柳津町東塚2-26",
        "lng": 136.752952,
        "lat": 35.367056,
        "h": 106
      },
      {
        "name": "南塚東公園",
        "address": "岐阜県岐阜市柳津町南塚1-82",
        "lng": 136.738443,
        "lat": 35.364185,
        "h": 106
      },
      {
        "name": "南塚会館",
        "address": "岐阜県岐阜市柳津町南塚4-35",
        "lng": 136.733217,
        "lat": 35.362406,
        "h": 107
      },
      {
        "name": "南塚公園",
        "address": "岐阜県岐阜市柳津町南塚4-47",
        "lng": 136.73407,
        "lat": 35.362399,
        "h": 106
      },
      {
        "name": "北塚会館",
        "address": "岐阜県岐阜市柳津町北塚2-60-1",
        "lng": 136.734723,
        "lat": 35.367034,
        "h": 107
      },
      {
        "name": "羽島北高等学校",
        "address": "岐阜県岐阜市柳津町北塚3-110",
        "lng": 136.735199,
        "lat": 35.370435,
        "h": 106
      },
      {
        "name": "柳津運動場",
        "address": "岐阜県岐阜市柳津町北塚4-94",
        "lng": 136.732668,
        "lat": 35.370112,
        "h": 42
      },
      {
        "name": "北塚公園",
        "address": "岐阜県岐阜市柳津町北塚5-1-1",
        "lng": 136.733333,
        "lat": 35.366967,
        "h": 106
      },
      {
        "name": "イオン柳津店駐車場（立体駐車場含む）",
        "address": "岐阜県岐阜市柳津町本郷4-1-1",
        "lng": 136.744128,
        "lat": 35.367844,
        "h": 43
      },
      {
        "name": "流通センター公園",
        "address": "岐阜県岐阜市柳津町流通センター1-13",
        "lng": 136.708446,
        "lat": 35.366034,
        "h": 106
      },
      {
        "name": "ビバホーム屋上駐車場",
        "address": "岐阜県岐阜市柳津町流通センター1-52",
        "lng": 136.710362,
        "lat": 35.369803,
        "h": 107
      },
      {
        "name": "本郷会館",
        "address": "岐阜県岐阜市柳津町蓮池1-78",
        "lng": 136.74485,
        "lat": 35.365296,
        "h": 107
      },
      {
        "name": "蓮池公園",
        "address": "岐阜県岐阜市柳津町蓮池1-80",
        "lng": 136.745382,
        "lat": 35.365293,
        "h": 106
      },
      {
        "name": "ぎふ結のもり",
        "address": "岐阜県岐阜市薮田南2-1-1",
        "lng": 136.72361,
        "lat": 35.3927,
        "h": 106
      },
      {
        "name": "薮田公園",
        "address": "岐阜県岐阜市薮田南5-10",
        "lng": 136.715303,
        "lat": 35.390129,
        "h": 106
      },
      {
        "name": "岐阜県県民ふれあい会館",
        "address": "岐阜県岐阜市薮田南5-14-53",
        "lng": 136.714828,
        "lat": 35.39262,
        "h": 107
      },
      {
        "name": "おぶさ桜公園",
        "address": "岐阜県岐阜市雄総桜町2-15",
        "lng": 136.789612,
        "lat": 35.440935,
        "h": 106
      },
      {
        "name": "荒田公園",
        "address": "岐阜県岐阜市六条大溝4-15-1",
        "lng": 136.72963,
        "lat": 35.38939,
        "h": 106
      },
      {
        "name": "新田公園",
        "address": "岐阜県岐阜市六条大溝4-7-1",
        "lng": 136.73343,
        "lat": 35.39153,
        "h": 106
      },
      {
        "name": "陽南中学校",
        "address": "岐阜県岐阜市六条東1-1-1",
        "lng": 136.745134,
        "lat": 35.404612,
        "h": 107
      },
      {
        "name": "三里公民館",
        "address": "岐阜県岐阜市六条東2-14-9",
        "lng": 136.743607,
        "lat": 35.40269,
        "h": 106
      },
      {
        "name": "福寿公園",
        "address": "岐阜県岐阜市六条南1-7-1",
        "lng": 136.744466,
        "lat": 35.398542,
        "h": 106
      },
      {
        "name": "入の元公園",
        "address": "岐阜県岐阜市六条南2-2-7",
        "lng": 136.740977,
        "lat": 35.399425,
        "h": 106
      },
      {
        "name": "六条中公園",
        "address": "岐阜県岐阜市六条南2-9-10",
        "lng": 136.73972,
        "lat": 35.39642,
        "h": 106
      },
      {
        "name": "空下公園",
        "address": "岐阜県岐阜市六条南3-1-6",
        "lng": 136.74103,
        "lat": 35.39592,
        "h": 106
      },
      {
        "name": "六条南公園",
        "address": "岐阜県岐阜市六条南3-11-1",
        "lng": 136.738563,
        "lat": 35.393883,
        "h": 106
      },
      {
        "name": "三里小学校",
        "address": "岐阜県岐阜市六条北2-5-1",
        "lng": 136.742013,
        "lat": 35.402658,
        "h": 107
      },
      {
        "name": "三里公園",
        "address": "岐阜県岐阜市六条北2-7-11",
        "lng": 136.742747,
        "lat": 35.401416,
        "h": 106
      },
      {
        "name": "希望の森公園",
        "address": "岐阜県岐阜市六条北3-17-1",
        "lng": 136.739418,
        "lat": 35.402577,
        "h": 106
      },
      {
        "name": "六条北公園",
        "address": "岐阜県岐阜市六条北4-18-1",
        "lng": 136.738427,
        "lat": 35.40151,
        "h": 106
      },
      {
        "name": "鶯谷中学高等学校校庭",
        "address": "岐阜県岐阜市鶯谷町7",
        "lng": 136.766819,
        "lat": 35.424198,
        "h": 105
      },
      {
        "name": "鶉緑地",
        "address": "岐阜県岐阜市鶉字堤外17-1",
        "lng": 136.734501,
        "lat": 35.372747,
        "h": 106
      },
      {
        "name": "聖徳学園野球場",
        "address": "岐阜県岐阜市鶉前堤外3-1",
        "lng": 136.73016,
        "lat": 35.371128,
        "h": 107
      }
    ]
  },
  "21202": {
    "source": "国土地理院「指定緊急避難場所データ」",
    "asOf": "2026-06-19",
    "sites": [
      {
        "name": "綾里小学校",
        "address": "岐阜県大垣市綾野5-85",
        "lng": 136.587389,
        "lat": 35.343261,
        "h": 105
      },
      {
        "name": "安井小学校",
        "address": "岐阜県大垣市禾森1-1",
        "lng": 136.626819,
        "lat": 35.353759,
        "h": 105
      },
      {
        "name": "江並中学校",
        "address": "岐阜県大垣市外渕4-66",
        "lng": 136.622697,
        "lat": 35.327693,
        "h": 105
      },
      {
        "name": "星和中学校",
        "address": "岐阜県大垣市楽田町6-60",
        "lng": 136.63004,
        "lat": 35.384409,
        "h": 105
      },
      {
        "name": "西中学校",
        "address": "岐阜県大垣市割田1-601-2",
        "lng": 136.601604,
        "lat": 35.342626,
        "h": 105
      },
      {
        "name": "西小学校",
        "address": "岐阜県大垣市久瀬川町6-110",
        "lng": 136.600977,
        "lat": 35.358189,
        "h": 105
      },
      {
        "name": "静里小学校",
        "address": "岐阜県大垣市久徳町423",
        "lng": 136.589137,
        "lat": 35.360307,
        "h": 105
      },
      {
        "name": "宇留生小学校",
        "address": "岐阜県大垣市熊野町1171",
        "lng": 136.583932,
        "lat": 35.374658,
        "h": 105
      },
      {
        "name": "西部中学校",
        "address": "岐阜県大垣市荒川町337",
        "lng": 136.578089,
        "lat": 35.364888,
        "h": 105
      },
      {
        "name": "東中学校",
        "address": "岐阜県大垣市三塚町1169",
        "lng": 136.631073,
        "lat": 35.363159,
        "h": 105
      },
      {
        "name": "東小学校",
        "address": "岐阜県大垣市三塚町1180",
        "lng": 136.629145,
        "lat": 35.363424,
        "h": 105
      },
      {
        "name": "小野小学校",
        "address": "岐阜県大垣市小野1-171",
        "lng": 136.647236,
        "lat": 35.371212,
        "h": 105
      },
      {
        "name": "上石津学園",
        "address": "岐阜県大垣市上石津町一之瀬100",
        "lng": 136.478907,
        "lat": 35.311941,
        "h": 40
      },
      {
        "name": "旧　一之瀬小学校",
        "address": "岐阜県大垣市上石津町一之瀬1590",
        "lng": 136.482076,
        "lat": 35.316094,
        "h": 107
      },
      {
        "name": "えぼしふれあい会館",
        "address": "岐阜県大垣市上石津町下山2860",
        "lng": 136.462409,
        "lat": 35.248676,
        "h": 107
      },
      {
        "name": "農村環境改善サブセンター",
        "address": "岐阜県大垣市上石津町下山2864-2",
        "lng": 136.462774,
        "lat": 35.248913,
        "h": 107
      },
      {
        "name": "旧　多良小学校",
        "address": "岐阜県大垣市上石津町宮38",
        "lng": 136.462698,
        "lat": 35.281873,
        "h": 107
      },
      {
        "name": "旧　牧田小学校",
        "address": "岐阜県大垣市上石津町牧田2672",
        "lng": 136.496236,
        "lat": 35.339717,
        "h": 107
      },
      {
        "name": "興文小学校",
        "address": "岐阜県大垣市西外側町1-34",
        "lng": 136.611505,
        "lat": 35.361732,
        "h": 105
      },
      {
        "name": "興文中学校",
        "address": "岐阜県大垣市西崎町1-82",
        "lng": 136.60742,
        "lat": 35.362752,
        "h": 105
      },
      {
        "name": "青墓小学校",
        "address": "岐阜県大垣市青墓町1-787",
        "lng": 136.562745,
        "lat": 35.384842,
        "h": 107
      },
      {
        "name": "赤坂小学校",
        "address": "岐阜県大垣市赤坂新町1-49",
        "lng": 136.588782,
        "lat": 35.3929,
        "h": 105
      },
      {
        "name": "赤坂中学校",
        "address": "岐阜県大垣市赤坂町3421",
        "lng": 136.578762,
        "lat": 35.389002,
        "h": 107
      },
      {
        "name": "中川小学校",
        "address": "岐阜県大垣市中川町2-460",
        "lng": 136.615861,
        "lat": 35.384308,
        "h": 105
      },
      {
        "name": "荒崎小学校",
        "address": "岐阜県大垣市長松町789",
        "lng": 136.568966,
        "lat": 35.36476,
        "h": 105
      },
      {
        "name": "江東小学校",
        "address": "岐阜県大垣市内原3-135",
        "lng": 136.614155,
        "lat": 35.314334,
        "h": 105
      },
      {
        "name": "南中学校",
        "address": "岐阜県大垣市南頬町4-141",
        "lng": 136.619554,
        "lat": 35.353954,
        "h": 105
      },
      {
        "name": "日新小学校",
        "address": "岐阜県大垣市入方1-34",
        "lng": 136.600532,
        "lat": 35.332344,
        "h": 105
      },
      {
        "name": "川並小学校",
        "address": "岐阜県大垣市馬の瀬町1500",
        "lng": 136.638815,
        "lat": 35.337618,
        "h": 105
      },
      {
        "name": "北中学校",
        "address": "岐阜県大垣市八島町2290",
        "lng": 136.615563,
        "lat": 35.374318,
        "h": 105
      },
      {
        "name": "北小学校",
        "address": "岐阜県大垣市八島町2302",
        "lng": 136.61397,
        "lat": 35.374318,
        "h": 105
      },
      {
        "name": "南小学校",
        "address": "岐阜県大垣市美和町1871",
        "lng": 136.619387,
        "lat": 35.352659,
        "h": 105
      },
      {
        "name": "墨俣小学校",
        "address": "岐阜県大垣市墨俣町墨俣242-1",
        "lng": 136.684721,
        "lat": 35.363284,
        "h": 105
      }
    ]
  },
  "21203": {
    "source": "国土地理院「指定緊急避難場所データ」",
    "asOf": "2026-06-19",
    "sites": [
      {
        "name": "宮中学校",
        "address": "岐阜県高山市一之宮町3072",
        "lng": 137.238584,
        "lat": 36.082205,
        "h": 75
      },
      {
        "name": "一之宮公民館",
        "address": "岐阜県高山市一之宮町3087",
        "lng": 137.239821,
        "lat": 36.082554,
        "h": 75
      },
      {
        "name": "モンデウス飛騨位山交流促進センター",
        "address": "岐阜県高山市一之宮町7846-1",
        "lng": 137.226281,
        "lat": 36.061588,
        "h": 75
      },
      {
        "name": "奥飛驒ビジターセンター",
        "address": "岐阜県高山市奥飛騨温泉郷763-12",
        "lng": 137.551679,
        "lat": 36.190066,
        "h": 139
      },
      {
        "name": "奥飛騨総合文化センター",
        "address": "岐阜県高山市奥飛騨温泉郷村上1480",
        "lng": 137.514437,
        "lat": 36.246402,
        "h": 75
      },
      {
        "name": "栃尾小学校",
        "address": "岐阜県高山市奥飛騨温泉郷栃尾350",
        "lng": 137.514117,
        "lat": 36.249258,
        "h": 73
      },
      {
        "name": "南小学校",
        "address": "岐阜県高山市岡本町1-18",
        "lng": 137.24734,
        "lat": 36.140304,
        "h": 75
      },
      {
        "name": "岡本保育園",
        "address": "岐阜県高山市岡本町3-53-10",
        "lng": 137.246937,
        "lat": 36.147575,
        "h": 75
      },
      {
        "name": "飛騨高山高校岡本校舎",
        "address": "岐阜県高山市下岡本町2000-30",
        "lng": 137.241304,
        "lat": 36.147683,
        "h": 75
      },
      {
        "name": "中山中学校",
        "address": "岐阜県高山市下岡本町2663",
        "lng": 137.239392,
        "lat": 36.155791,
        "h": 75
      },
      {
        "name": "高山西高校",
        "address": "岐阜県高山市下林町353",
        "lng": 137.224932,
        "lat": 36.153848,
        "h": 10
      },
      {
        "name": "高山市役所",
        "address": "岐阜県高山市花岡町2-18",
        "lng": 137.251931,
        "lat": 36.146145,
        "h": 75
      },
      {
        "name": "花里小学校",
        "address": "岐阜県高山市花里町1-54",
        "lng": 137.253034,
        "lat": 36.13295,
        "h": 75
      },
      {
        "name": "崇教眞光青年会館",
        "address": "岐阜県高山市久々野町久々野111-1",
        "lng": 137.258771,
        "lat": 36.063165,
        "h": 73
      },
      {
        "name": "久々野公民館",
        "address": "岐阜県高山市久々野町久々野1505-4",
        "lng": 137.276654,
        "lat": 36.053247,
        "h": 75
      },
      {
        "name": "久々野小学校",
        "address": "岐阜県高山市久々野町久々野1772",
        "lng": 137.275574,
        "lat": 36.051733,
        "h": 73
      },
      {
        "name": "久々野中学校",
        "address": "岐阜県高山市久々野町久々野2319",
        "lng": 137.280092,
        "lat": 36.055732,
        "h": 73
      },
      {
        "name": "道の駅飛騨街道なぎさ",
        "address": "岐阜県高山市久々野町渚2685",
        "lng": 137.291667,
        "lat": 36.006822,
        "h": 75
      },
      {
        "name": "小屋名活性化施設",
        "address": "岐阜県高山市久々野町小屋名1094-2",
        "lng": 137.306298,
        "lat": 36.089976,
        "h": 75
      },
      {
        "name": "久々野多目的センター",
        "address": "岐阜県高山市久々野町無数河580-1",
        "lng": 137.275268,
        "lat": 36.048463,
        "h": 75
      },
      {
        "name": "北小学校",
        "address": "岐阜県高山市桐生町2-21",
        "lng": 137.252967,
        "lat": 36.152869,
        "h": 75
      },
      {
        "name": "江名子小学校",
        "address": "岐阜県高山市江名子町2838",
        "lng": 137.279645,
        "lat": 36.135778,
        "h": 75
      },
      {
        "name": "上江ふれあいセンター",
        "address": "岐阜県高山市江名子町4198",
        "lng": 137.287576,
        "lat": 36.13007,
        "h": 75
      },
      {
        "name": "高根多目的センター",
        "address": "岐阜県高山市高根町上ケ洞481",
        "lng": 137.48378,
        "lat": 36.03642,
        "h": 11
      },
      {
        "name": "飛騨高山御嶽トレ－ニングセンター",
        "address": "岐阜県高山市高根町日和田1180",
        "lng": 137.532858,
        "lat": 36.001443,
        "h": 203
      },
      {
        "name": "宇津江公民館",
        "address": "岐阜県高山市国府町宇津江1804-1",
        "lng": 137.192793,
        "lat": 36.206511,
        "h": 75
      },
      {
        "name": "金桶地区多目的集会所",
        "address": "岐阜県高山市国府町金桶104",
        "lng": 137.224245,
        "lat": 36.202425,
        "h": 75
      },
      {
        "name": "国府Ｂ＆Ｇ海洋センター体育館",
        "address": "岐阜県高山市国府町広瀬町2567-1",
        "lng": 137.215429,
        "lat": 36.212475,
        "h": 73
      },
      {
        "name": "国府小学校",
        "address": "岐阜県高山市国府町広瀬町2586-6",
        "lng": 137.215333,
        "lat": 36.213573,
        "h": 73
      },
      {
        "name": "こくふ交流センター",
        "address": "岐阜県高山市国府町広瀬町880-1",
        "lng": 137.214854,
        "lat": 36.211447,
        "h": 75
      },
      {
        "name": "三川公民館",
        "address": "岐阜県高山市国府町三川514-1",
        "lng": 137.259413,
        "lat": 36.187894,
        "h": 75
      },
      {
        "name": "こくふ保育園",
        "address": "岐阜県高山市国府町三日町380-1",
        "lng": 137.215681,
        "lat": 36.215948,
        "h": 75
      },
      {
        "name": "国府中学校",
        "address": "岐阜県高山市国府町三日町450",
        "lng": 137.213892,
        "lat": 36.215673,
        "h": 75
      },
      {
        "name": "荒城農業体験交流館",
        "address": "岐阜県高山市国府町八日町651-2",
        "lng": 137.24078,
        "lat": 36.222667,
        "h": 75
      },
      {
        "name": "国府町福祉の里",
        "address": "岐阜県高山市国府町木曽垣内650",
        "lng": 137.211934,
        "lat": 36.220597,
        "h": 10
      },
      {
        "name": "高山市資源リサイクルセンター",
        "address": "岐阜県高山市三福寺町1800",
        "lng": 137.267748,
        "lat": 36.156861,
        "h": 75
      },
      {
        "name": "斐太高校",
        "address": "岐阜県高山市三福寺町736",
        "lng": 137.258365,
        "lat": 36.157073,
        "h": 73
      },
      {
        "name": "崇教眞光世界総本山",
        "address": "岐阜県高山市山田町1515-1",
        "lng": 137.230097,
        "lat": 36.137975,
        "h": 75
      },
      {
        "name": "飛騨高山高校山田校舎",
        "address": "岐阜県高山市山田町711",
        "lng": 137.229825,
        "lat": 36.145508,
        "h": 75
      },
      {
        "name": "県立木工芸術スク－ル",
        "address": "岐阜県高山市匠ケ丘町1-123",
        "lng": 137.221427,
        "lat": 36.13777,
        "h": 67
      },
      {
        "name": "高山市民文化会館",
        "address": "岐阜県高山市昭和町1-188-1",
        "lng": 137.248584,
        "lat": 36.140207,
        "h": 75
      },
      {
        "name": "総合福祉センター",
        "address": "岐阜県高山市昭和町2-224",
        "lng": 137.249515,
        "lat": 36.143631,
        "h": 75
      },
      {
        "name": "東山中学校",
        "address": "岐阜県高山市松之木町262",
        "lng": 137.274196,
        "lat": 36.151604,
        "h": 75
      },
      {
        "name": "東小学校",
        "address": "岐阜県高山市松之木町2962-1",
        "lng": 137.272224,
        "lat": 36.149056,
        "h": 75
      },
      {
        "name": "松倉中学校",
        "address": "岐阜県高山市上岡本町4-119",
        "lng": 137.240929,
        "lat": 36.138843,
        "h": 75
      },
      {
        "name": "本郷小学校",
        "address": "岐阜県高山市上宝町在家1642",
        "lng": 137.368005,
        "lat": 36.286382,
        "h": 203
      },
      {
        "name": "蔵柱公民館",
        "address": "岐阜県高山市上宝町蔵柱1209",
        "lng": 137.318167,
        "lat": 36.280872,
        "h": 75
      },
      {
        "name": "高山市上宝支所",
        "address": "岐阜県高山市上宝町本郷540",
        "lng": 137.363452,
        "lat": 36.286401,
        "h": 75
      },
      {
        "name": "北稜中学校",
        "address": "岐阜県高山市上宝町本郷652",
        "lng": 137.362175,
        "lat": 36.285683,
        "h": 203
      },
      {
        "name": "新宮小学校",
        "address": "岐阜県高山市新宮町2635-2",
        "lng": 137.21219,
        "lat": 36.143014,
        "h": 75
      },
      {
        "name": "日枝中学校",
        "address": "岐阜県高山市森下町1-200-1",
        "lng": 137.259111,
        "lat": 36.131575,
        "h": 75
      },
      {
        "name": "山王保育園",
        "address": "岐阜県高山市森下町1-401",
        "lng": 137.256776,
        "lat": 36.131963,
        "h": 75
      },
      {
        "name": "小鳥体育館",
        "address": "岐阜県高山市清見町夏厩442",
        "lng": 137.076505,
        "lat": 36.141577,
        "h": 75
      },
      {
        "name": "坂下公民館",
        "address": "岐阜県高山市清見町坂下491-1",
        "lng": 137.134568,
        "lat": 36.100696,
        "h": 75
      },
      {
        "name": "清見小学校",
        "address": "岐阜県高山市清見町三日町112",
        "lng": 137.180176,
        "lat": 36.120438,
        "h": 11
      },
      {
        "name": "高山市清見支所",
        "address": "岐阜県高山市清見町三日町305",
        "lng": 137.186754,
        "lat": 36.128663,
        "h": 73
      },
      {
        "name": "清見中学校",
        "address": "岐阜県高山市清見町三日町477-1",
        "lng": 137.183354,
        "lat": 36.129629,
        "h": 10
      },
      {
        "name": "おっぱら自然体験センター",
        "address": "岐阜県高山市清見町大原600",
        "lng": 137.083701,
        "lat": 35.947965,
        "h": 67
      },
      {
        "name": "南保育園",
        "address": "岐阜県高山市西之一色町1-31-3",
        "lng": 137.250693,
        "lat": 36.133922,
        "h": 75
      },
      {
        "name": "石浦公民館",
        "address": "岐阜県高山市石浦町5-102",
        "lng": 137.263309,
        "lat": 36.116069,
        "h": 75
      },
      {
        "name": "龍華保育園",
        "address": "岐阜県高山市石浦町7-345",
        "lng": 137.261186,
        "lat": 36.119857,
        "h": 75
      },
      {
        "name": "高山工業高校",
        "address": "岐阜県高山市千島町291",
        "lng": 137.253805,
        "lat": 36.129638,
        "h": 75
      },
      {
        "name": "飛騨・世界生活文化センター",
        "address": "岐阜県高山市千島町900-1",
        "lng": 137.254244,
        "lat": 36.121631,
        "h": 107
      },
      {
        "name": "西小学校",
        "address": "岐阜県高山市総和町2-18-1",
        "lng": 137.254681,
        "lat": 36.146606,
        "h": 75
      },
      {
        "name": "荘川体育館・黒谷公民館",
        "address": "岐阜県高山市荘川町黒谷100",
        "lng": 136.984724,
        "lat": 36.016538,
        "h": 75
      },
      {
        "name": "荘川福祉センター・荘川総合センター",
        "address": "岐阜県高山市荘川町新渕430-1",
        "lng": 136.956331,
        "lat": 36.032753,
        "h": 75
      },
      {
        "name": "下野々俣公民館",
        "address": "岐阜県高山市荘川町野々俣568",
        "lng": 136.93584,
        "lat": 36.032572,
        "h": 67
      },
      {
        "name": "六厩公民館",
        "address": "岐阜県高山市荘川町六厩532-1",
        "lng": 137.03591,
        "lat": 36.061661,
        "h": 75
      },
      {
        "name": "岩滝小学校",
        "address": "岐阜県高山市滝町220",
        "lng": 137.348649,
        "lat": 36.136175,
        "h": 75
      },
      {
        "name": "旗鉾地区多目的集会所",
        "address": "岐阜県高山市丹生川町旗鉾465",
        "lng": 137.455666,
        "lat": 36.17611,
        "h": 203
      },