{
  "10201": {
    "source": "国土地理院「指定緊急避難場所データ」",
    "asOf": "2026-06-19",
    "sites": [
      {
        "name": "荻窪南公園",
        "address": "群馬県前橋市荻窪町953",
        "lng": 139.132399,
        "lat": 36.415923,
        "h": 40
      },
      {
        "name": "県立前橋高等学校",
        "address": "群馬県前橋市下沖町321-1",
        "lng": 139.096237,
        "lat": 36.396892,
        "h": 40
      },
      {
        "name": "細井小学校",
        "address": "群馬県前橋市下細井町67-1",
        "lng": 139.076046,
        "lat": 36.415994,
        "h": 40
      },
      {
        "name": "下小出中央公園",
        "address": "群馬県前橋市下小出町2-15",
        "lng": 139.067492,
        "lat": 36.411163,
        "h": 40
      },
      {
        "name": "大利根緑地多目的広場",
        "address": "群馬県前橋市下新田町460-1",
        "lng": 139.070311,
        "lat": 36.352926,
        "h": 40
      },
      {
        "name": "下増田運動場",
        "address": "群馬県前橋市下増田町277",
        "lng": 139.164743,
        "lat": 36.338526,
        "h": 40
      },
      {
        "name": "大胡体育館",
        "address": "群馬県前橋市河原浜町478",
        "lng": 139.163984,
        "lat": 36.423621,
        "h": 40
      },
      {
        "name": "大胡公民館",
        "address": "群馬県前橋市河原浜町480",
        "lng": 139.164054,
        "lat": 36.423302,
        "h": 43
      },
      {
        "name": "大胡東小学校",
        "address": "群馬県前橋市河原浜町870-1",
        "lng": 139.165993,
        "lat": 36.419367,
        "h": 41
      },
      {
        "name": "関根公園",
        "address": "群馬県前橋市関根町3-7",
        "lng": 139.042218,
        "lat": 36.432843,
        "h": 40
      },
      {
        "name": "岩神小学校",
        "address": "群馬県前橋市岩神町4-4-1",
        "lng": 139.056113,
        "lat": 36.407646,
        "h": 40
      },
      {
        "name": "県立前橋南高等学校",
        "address": "群馬県前橋市亀里町1",
        "lng": 139.083353,
        "lat": 36.351056,
        "h": 40
      },
      {
        "name": "県立群馬産業技術センター",
        "address": "群馬県前橋市亀里町884-1",
        "lng": 139.087133,
        "lat": 36.334445,
        "h": 40
      },
      {
        "name": "第七中学校",
        "address": "群馬県前橋市宮地町260-1",
        "lng": 139.104102,
        "lat": 36.340425,
        "h": 41
      },
      {
        "name": "駒形小学校",
        "address": "群馬県前橋市駒形町1172",
        "lng": 139.136352,
        "lat": 36.34725,
        "h": 40
      },
      {
        "name": "明神東公園",
        "address": "群馬県前橋市元総社町1-26",
        "lng": 139.04023,
        "lat": 36.387099,
        "h": 40
      },
      {
        "name": "元総社小学校",
        "address": "群馬県前橋市元総社町1-33-11",
        "lng": 139.038665,
        "lat": 36.38643,
        "h": 40
      },
      {
        "name": "元総社公民館",
        "address": "群馬県前橋市元総社町3-1-1",
        "lng": 139.037134,
        "lat": 36.392016,
        "h": 41
      },
      {
        "name": "利根川ダム統合管理事務所",
        "address": "群馬県前橋市元総社町593-1",
        "lng": 139.039449,
        "lat": 36.379579,
        "h": 40
      },
      {
        "name": "元総社南小学校",
        "address": "群馬県前橋市元総社町80-2",
        "lng": 139.042971,
        "lat": 36.382836,
        "h": 41
      },
      {
        "name": "上川淵公民館",
        "address": "群馬県前橋市後閑町35",
        "lng": 139.100804,
        "lat": 36.363043,
        "h": 41
      },
      {
        "name": "明桜中学校",
        "address": "群馬県前橋市後閑町50-4",
        "lng": 139.099119,
        "lat": 36.36274,
        "h": 41
      },
      {
        "name": "東中学校",
        "address": "群馬県前橋市光が丘町3",
        "lng": 139.05598,
        "lat": 36.372129,
        "h": 41
      },
      {
        "name": "ひろせ老人福祉センター",
        "address": "群馬県前橋市広瀬町2-16",
        "lng": 139.110429,
        "lat": 36.359583,
        "h": 40
      },
      {
        "name": "広瀬小学校",
        "address": "群馬県前橋市広瀬町3-19",
        "lng": 139.113705,
        "lat": 36.357168,
        "h": 41
      },
      {
        "name": "県立前橋東高等学校",
        "address": "群馬県前橋市江木町800",
        "lng": 139.137223,
        "lat": 36.376605,
        "h": 40
      },
      {
        "name": "県立前橋女子高等学校",
        "address": "群馬県前橋市紅雲町2-19-1",
        "lng": 139.064864,
        "lat": 36.384038,
        "h": 40
      },
      {
        "name": "前橋総合運動公園",
        "address": "群馬県前橋市荒口町437-2",
        "lng": 139.160895,
        "lat": 36.376887,
        "h": 40
      },
      {
        "name": "荒子小学校",
        "address": "群馬県前橋市荒子町1240",
        "lng": 139.164739,
        "lat": 36.388132,
        "h": 40
      },
      {
        "name": "荒砥中学校",
        "address": "群馬県前橋市荒子町1338",
        "lng": 139.16479,
        "lat": 36.381481,
        "h": 41
      },
      {
        "name": "桃川小学校",
        "address": "群馬県前橋市荒牧町1-46-11",
        "lng": 139.054853,
        "lat": 36.430488,
        "h": 41
      },
      {
        "name": "しきしま老人福祉センター",
        "address": "群馬県前橋市荒牧町1154-1",
        "lng": 139.050629,
        "lat": 36.421813,
        "h": 40
      },
      {
        "name": "群馬大学",
        "address": "群馬県前橋市荒牧町4-2",
        "lng": 139.043834,
        "lat": 36.430536,
        "h": 40
      },
      {
        "name": "荒牧小学校",
        "address": "群馬県前橋市荒牧町4-9-2",
        "lng": 139.047872,
        "lat": 36.428166,
        "h": 40
      },
      {
        "name": "南橘中学校",
        "address": "群馬県前橋市荒牧町975",
        "lng": 139.060415,
        "lat": 36.424246,
        "h": 40
      },
      {
        "name": "総社町５号公園",
        "address": "群馬県前橋市高井町1-5",
        "lng": 139.028596,
        "lat": 36.408641,
        "h": 40
      },
      {
        "name": "中川小学校",
        "address": "群馬県前橋市三河町2-1-3",
        "lng": 139.078661,
        "lat": 36.38684,
        "h": 41
      },
      {
        "name": "山形公園",
        "address": "群馬県前橋市三俣町3-1",
        "lng": 139.079587,
        "lat": 36.406218,
        "h": 40
      },
      {
        "name": "山王小学校",
        "address": "群馬県前橋市山王町160-1",
        "lng": 139.12452,
        "lat": 36.348859,
        "h": 41
      },
      {
        "name": "若宮小学校",
        "address": "群馬県前橋市若宮町4-12-24",
        "lng": 139.070792,
        "lat": 36.40594,
        "h": 41
      },
      {
        "name": "芳賀小学校",
        "address": "群馬県前橋市勝沢町719",
        "lng": 139.105048,
        "lat": 36.423083,
        "h": 40
      },
      {
        "name": "木瀬中学校",
        "address": "群馬県前橋市小屋原町1811-1",
        "lng": 139.129328,
        "lat": 36.363355,
        "h": 41
      },
      {
        "name": "芳賀公園",
        "address": "群馬県前橋市小坂子町920",
        "lng": 139.110701,
        "lat": 36.420605,
        "h": 40
      },
      {
        "name": "敷島小学校",
        "address": "群馬県前橋市昭和町1-22-8",
        "lng": 139.065572,
        "lat": 36.402886,
        "h": 40
      },
      {
        "name": "桃木小学校",
        "address": "群馬県前橋市上沖町732-1",
        "lng": 139.090704,
        "lat": 36.403689,
        "h": 40
      },
      {
        "name": "前橋工科大学",
        "address": "群馬県前橋市上佐鳥町460-1",
        "lng": 139.081436,
        "lat": 36.363835,
        "h": 40
      },
      {
        "name": "前橋工科大学グラウンド",
        "address": "群馬県前橋市上佐鳥町460-1",
        "lng": 139.079835,
        "lat": 36.36334,
        "h": 40
      },
      {
        "name": "前橋市民体育館",
        "address": "群馬県前橋市上佐鳥町460-7",
        "lng": 139.079521,
        "lat": 36.365066,
        "h": 40
      },
      {
        "name": "北部運動場",
        "address": "群馬県前橋市上細井町2127-4",
        "lng": 139.082489,
        "lat": 36.413913,
        "h": 40
      },
      {
        "name": "鎌倉中学校",
        "address": "群馬県前橋市上細井町2130",
        "lng": 139.083298,
        "lat": 36.415262,
        "h": 41
      },
      {
        "name": "市立前橋高等学校",
        "address": "群馬県前橋市上細井町2211-3",
        "lng": 139.084683,
        "lat": 36.415896,
        "h": 40
      },
      {
        "name": "上小出国体公園",
        "address": "群馬県前橋市上小出町2-20",
        "lng": 139.056828,
        "lat": 36.414393,
        "h": 40
      },
      {
        "name": "新田小学校",
        "address": "群馬県前橋市上新田町1160",
        "lng": 139.067096,
        "lat": 36.362112,
        "h": 40
      },
      {
        "name": "桂萱公民館",
        "address": "群馬県前橋市上泉町141-3",
        "lng": 139.104409,
        "lat": 36.393863,
        "h": 41
      },
      {
        "name": "桂萱中学校",
        "address": "群馬県前橋市上泉町175",
        "lng": 139.103233,
        "lat": 36.396062,
        "h": 41
      },
      {
        "name": "桂萱小学校",
        "address": "群馬県前橋市上泉町178",
        "lng": 139.104786,
        "lat": 36.396501,
        "h": 40
      },
      {
        "name": "永明小学校",
        "address": "群馬県前橋市上大島町655",
        "lng": 139.1223,
        "lat": 36.369109,
        "h": 40
      },
      {
        "name": "永明公民館",
        "address": "群馬県前橋市上大島町930",
        "lng": 139.122754,
        "lat": 36.367374,
        "h": 41
      },
      {
        "name": "城東小学校",
        "address": "群馬県前橋市城東町1-35-7",
        "lng": 139.080126,
        "lat": 36.394658,
        "h": 40
      },
      {
        "name": "新前橋公園",
        "address": "群馬県前橋市新前橋町20",
        "lng": 139.049033,
        "lat": 36.380052,
        "h": 40
      },
      {
        "name": "神沢の森公園",
        "address": "群馬県前橋市神沢の森1-13",
        "lng": 139.178532,
        "lat": 36.402212,
        "h": 40
      },
      {
        "name": "県立前橋西高等学校",
        "address": "群馬県前橋市清野町180",
        "lng": 139.007642,
        "lat": 36.418693,
        "h": 40
      },
      {
        "name": "大室公園",
        "address": "群馬県前橋市西大室町2545",
        "lng": 139.195724,
        "lat": 36.388788,
        "h": 40
      },
      {
        "name": "大室小学校",
        "address": "群馬県前橋市西大室町2817",
        "lng": 139.192315,
        "lat": 36.384086,
        "h": 41
      },
      {
        "name": "桃瀬小学校",
        "address": "群馬県前橋市西片貝町3-343",
        "lng": 139.100946,
        "lat": 36.386254,
        "h": 40
      },
      {
        "name": "前橋こども公園",
        "address": "群馬県前橋市西片貝町5-8",
        "lng": 139.083925,
        "lat": 36.390023,
        "h": 40
      },
      {
        "name": "清里公民館",
        "address": "群馬県前橋市青梨子町339",
        "lng": 139.013262,
        "lat": 36.417914,
        "h": 41
      },
      {
        "name": "清里小学校",
        "address": "群馬県前橋市青梨子町446",
        "lng": 139.012419,
        "lat": 36.417275,
        "h": 40
      },
      {
        "name": "清里方面運動場",
        "address": "群馬県前橋市青梨子町591",
        "lng": 139.015525,
        "lat": 36.414194,
        "h": 40
      },
      {
        "name": "県立前橋工業高等学校",
        "address": "群馬県前橋市石関町137-1",
        "lng": 139.118688,
        "lat": 36.389068,
        "h": 40
      },
      {
        "name": "箱田中学校",
        "address": "群馬県前橋市前箱田町396-1",
        "lng": 139.048447,
        "lat": 36.360704,
        "h": 41
      },
      {
        "name": "総社２号団地公園",
        "address": "群馬県前橋市総社町1-6",
        "lng": 139.044625,
        "lat": 36.399816,
        "h": 40
      },
      {
        "name": "王山運動場",
        "address": "群馬県前橋市総社町1-8-2",
        "lng": 139.044067,
        "lat": 36.398347,
        "h": 40
      },
      {
        "name": "勝山小学校",
        "address": "群馬県前橋市総社町植野123",
        "lng": 139.041545,
        "lat": 36.414333,
        "h": 40
      },
      {
        "name": "総社公民館",
        "address": "群馬県前橋市総社町総社1583-2",
        "lng": 139.039698,
        "lat": 36.407584,
        "h": 43
      },
      {
        "name": "総社小学校",
        "address": "群馬県前橋市総社町総社1625",
        "lng": 139.037908,
        "lat": 36.40909,
        "h": 40
      },
      {
        "name": "第六中学校",
        "address": "群馬県前橋市総社町総社1762-1",
        "lng": 139.034974,
        "lat": 36.410138,
        "h": 41
      },
      {
        "name": "元総社中学校",
        "address": "群馬県前橋市総社町総社3060",
        "lng": 139.035131,
        "lat": 36.395159,
        "h": 41
      },
      {
        "name": "元総社北小学校",
        "address": "群馬県前橋市総社町総社3149",
        "lng": 139.033889,
        "lat": 36.395043,
        "h": 40
      },
      {
        "name": "桃井小学校",
        "address": "群馬県前橋市大手町2-16-4",
        "lng": 139.063931,
        "lat": 36.388803,
        "h": 41
      },
      {
        "name": "前橋公園",
        "address": "群馬県前橋市大手町3-13",
        "lng": 139.062049,
        "lat": 36.393927,
        "h": 40
      },
      {
        "name": "大渡公園",
        "address": "群馬県前橋市大渡町2-1",
        "lng": 139.045843,
        "lat": 36.394906,
        "h": 40
      },
      {
        "name": "おおとも老人福祉センター",
        "address": "群馬県前橋市大友町1-12-10",
        "lng": 139.048533,
        "lat": 36.388583,
        "h": 40
      },
      {
        "name": "さくら公園",
        "address": "群馬県前橋市大友町1-8",
        "lng": 139.046631,
        "lat": 36.388372,
        "h": 40
      },
      {
        "name": "大利根中央公園",
        "address": "群馬県前橋市大利根町1-29",
        "lng": 139.060289,
        "lat": 36.362654,
        "h": 40
      },
      {
        "name": "大利根小学校",
        "address": "群馬県前橋市大利根町2-12-1",
        "lng": 139.058972,
        "lat": 36.36041,
        "h": 40
      },
      {
        "name": "滝窪小学校",
        "address": "群馬県前橋市滝窪町185-1",
        "lng": 139.13824,
        "lat": 36.435606,
        "h": 40
      },
      {
        "name": "わかば小学校",
        "address": "群馬県前橋市朝倉町165-1",
        "lng": 139.096274,
        "lat": 36.366859,
        "h": 41
      },
      {
        "name": "八幡山公園",
        "address": "群馬県前橋市朝倉町4-9",
        "lng": 139.102225,
        "lat": 36.366632,
        "h": 40
      },
      {
        "name": "上川淵小学校",
        "address": "群馬県前橋市朝倉町466",
        "lng": 139.090372,
        "lat": 36.358262,
        "h": 40
      },
      {
        "name": "保健センター",
        "address": "群馬県前橋市朝日町3-36-17",
        "lng": 139.089913,
        "lat": 36.386523,
        "h": 40
      },
      {
        "name": "群馬工業高等専門学校",
        "address": "群馬県前橋市鳥羽町580",
        "lng": 139.024196,
        "lat": 36.377096,
        "h": 40
      },
      {
        "name": "芳賀中学校",
        "address": "群馬県前橋市鳥取町796",
        "lng": 139.110351,
        "lat": 36.425363,
        "h": 40
      },
      {
        "name": "芳賀公民館",
        "address": "群馬県前橋市鳥取町817",
        "lng": 139.108123,
        "lat": 36.426623,
        "h": 43
      },
      {
        "name": "下川淵小学校",
        "address": "群馬県前橋市鶴光路町38-1",
        "lng": 139.094655,
        "lat": 36.335987,
        "h": 40
      },
      {
        "name": "下川淵公民館",
        "address": "群馬県前橋市鶴光路町701",
        "lng": 139.092677,
        "lat": 36.334149,
        "h": 40
      },
      {
        "name": "桂萱東小学校",
        "address": "群馬県前橋市堤町471",
        "lng": 139.129786,
        "lat": 36.397873,
        "h": 41
      },
      {
        "name": "大島公園",
        "address": "群馬県前橋市天川大島町1198",
        "lng": 139.107884,
        "lat": 36.370984,
        "h": 40
      },
      {
        "name": "道の駅「まえばし赤城」",
        "address": "群馬県前橋市田口町36",
        "lng": 139.054005,
        "lat": 36.438424,
        "h": 40
      },
      {
        "name": "滝窪小学校金丸分校",
        "address": "群馬県前橋市東金丸町136-1",
        "lng": 139.133775,
        "lat": 36.465962,
        "h": 40
      },
      {
        "name": "市立前橋特別支援学校",
        "address": "群馬県前橋市東上野町459-1",
        "lng": 139.116724,
        "lat": 36.387104,
        "h": 40
      },
      {
        "name": "城南工業団地公園",
        "address": "群馬県前橋市東大室町164-1",
        "lng": 139.186077,
        "lat": 36.370175,
        "h": 40
      },
      {
        "name": "桃ノ木川グランド",
        "address": "群馬県前橋市東片貝町417-4",
        "lng": 139.113568,
        "lat": 36.385844,
        "h": 40
      },
      {
        "name": "第一中学校",
        "address": "群馬県前橋市南町1-20-5",
        "lng": 139.065286,
        "lat": 36.380553,
        "h": 41
      },
      {
        "name": "市民文化会館",
        "address": "群馬県前橋市南町3-62-1",
        "lng": 139.070931,
        "lat": 36.379936,
        "h": 40
      },
      {
        "name": "県立前橋商業高等学校",
        "address": "群馬県前橋市南町4-35-1",
        "lng": 139.074584,
        "lat": 36.376713,
        "h": 40
      },
      {
        "name": "城南公民館",
        "address": "群馬県前橋市二之宮町1320",
        "lng": 139.157997,
        "lat": 36.36927,
        "h": 41
      },
      {
        "name": "二之宮小学校",
        "address": "群馬県前橋市二之宮町1841",
        "lng": 139.167902,
        "lat": 36.362514,
        "h": 41
      },
      {
        "name": "日吉町１号公園",
        "address": "群馬県前橋市日吉町1-10-2",
        "lng": 139.076261,
        "lat": 36.397748,
        "h": 40
      },
      {
        "name": "前橋市総合福祉会館",
        "address": "群馬県前橋市日吉町2-17-10",
        "lng": 139.079755,
        "lat": 36.398292,
        "h": 40
      },
      {
        "name": "県立勢多農林高等学校",
        "address": "群馬県前橋市日吉町2-25-1",
        "lng": 139.082287,
        "lat": 36.394958,
        "h": 40
      },
      {
        "name": "みずき中学校",
        "address": "群馬県前橋市日吉町3-9-2",
        "lng": 139.076427,
        "lat": 36.400596,
        "h": 41
      },
      {
        "name": "南橘公民館",
        "address": "群馬県前橋市日輪寺町158",
        "lng": 139.063551,
        "lat": 36.428412,
        "h": 43
      },
      {
        "name": "月田小学校",
        "address": "群馬県前橋市粕川町月田273-1",
        "lng": 139.211226,
        "lat": 36.433032,
        "h": 40
      },
      {
        "name": "粕川小学校",
        "address": "群馬県前橋市粕川町女渕521-2",
        "lng": 139.209654,
        "lat": 36.411689,
        "h": 40
      },
      {
        "name": "消防団第１８分団４部",
        "address": "群馬県前橋市粕川町新屋350",
        "lng": 139.196293,
        "lat": 36.416847,
        "h": 40
      },
      {
        "name": "粕川中学校",
        "address": "群馬県前橋市粕川町西田面138",
        "lng": 139.214065,
        "lat": 36.411552,
        "h": 40
      },
      {
        "name": "粕川支所",
        "address": "群馬県前橋市粕川町西田面216-1",
        "lng": 139.210492,
        "lat": 36.41416,
        "h": 43
      },
      {
        "name": "かすかわ老人福祉センター",
        "address": "群馬県前橋市粕川町前皆戸189-1",
        "lng": 139.213994,
        "lat": 36.41491,
        "h": 40
      },
      {
        "name": "膳城跡公園",
        "address": "群馬県前橋市粕川町膳33-3",
        "lng": 139.222286,
        "lat": 36.423484,
        "h": 40
      },
      {
        "name": "東小学校",
        "address": "群馬県前橋市箱田町1452-1",
        "lng": 139.052605,
        "lat": 36.365827,
        "h": 40
      },
      {
        "name": "東公民館",
        "address": "群馬県前橋市箱田町543-1",
        "lng": 139.051665,
        "lat": 36.373137,
        "h": 40
      },
      {
        "name": "東ふれあい公園",
        "address": "群馬県前橋市箱田町545-1",
        "lng": 139.051386,
        "lat": 36.373953,
        "h": 40
      },
      {
        "name": "宮城小学校",
        "address": "群馬県前橋市鼻毛石町1507-1",
        "lng": 139.178455,
        "lat": 36.439192,
        "h": 40
      },
      {
        "name": "宮城体育館",
        "address": "群馬県前橋市鼻毛石町1561",
        "lng": 139.176203,
        "lat": 36.442672,
        "h": 40
      },
      {
        "name": "宮城中学校",
        "address": "群馬県前橋市鼻毛石町1564-1",
        "lng": 139.177856,
        "lat": 36.442747,
        "h": 40
      },
      {
        "name": "宮城公民館",
        "address": "群馬県前橋市鼻毛石町1711-8",
        "lng": 139.17862,
        "lat": 36.441324,
        "h": 43
      },
      {
        "name": "原小学校",
        "address": "群馬県前橋市富士見町原之郷1933-1",
        "lng": 139.066455,
        "lat": 36.446457,
        "h": 40
      },
      {
        "name": "時沢小学校",
        "address": "群馬県前橋市富士見町時沢3164-1",
        "lng": 139.093281,
        "lat": 36.440498,
        "h": 41
      },
      {
        "name": "富士見地区農村環境改善センター",
        "address": "群馬県前橋市富士見町小暮104-1",
        "lng": 139.087587,
        "lat": 36.451725,
        "h": 40
      },
      {
        "name": "白川小学校",
        "address": "群馬県前橋市富士見町小暮2425-63",
        "lng": 139.108505,
        "lat": 36.468472,
        "h": 40
      },
      {
        "name": "石井小学校",
        "address": "群馬県前橋市富士見町石井546-1",
        "lng": 139.083419,
        "lat": 36.467807,
        "h": 40
      },
      {
        "name": "前橋市赤城少年自然の家",
        "address": "群馬県前橋市富士見町赤城山1-2",
        "lng": 139.177837,
        "lat": 36.550665,
        "h": 42
      },
      {
        "name": "群馬県立森林公園赤城ふれあいの森",
        "address": "群馬県前橋市富士見町赤城山1-2",
        "lng": 139.144571,
        "lat": 36.522769,
        "h": 42
      },
      {
        "name": "国立赤城青少年交流の家",
        "address": "群馬県前橋市富士見町赤城山27",
        "lng": 139.126201,
        "lat": 36.482289,
        "h": 40
      },
      {
        "name": "富士見公民館",
        "address": "群馬県前橋市富士見町田島866-1",
        "lng": 139.079141,
        "lat": 36.459104,
        "h": 43
      },
      {
        "name": "ふじみ老人福祉センター",
        "address": "群馬県前橋市富士見町田島866-1",
        "lng": 139.078796,
        "lat": 36.45903,
        "h": 40
      },
      {
        "name": "富士見中学校",
        "address": "群馬県前橋市富士見町田島954-1",
        "lng": 139.08163,
        "lat": 36.45615,
        "h": 40
      },
      {
        "name": "敷島公園",
        "address": "群馬県前橋市敷島町262",
        "lng": 139.051244,
        "lat": 36.417499,
        "h": 40
      },
      {
        "name": "県立前橋清陵高等学校",
        "address": "群馬県前橋市文京町2-20-3",
        "lng": 139.082626,
        "lat": 36.377171,
        "h": 40
      },
      {
        "name": "天川小学校",
        "address": "群馬県前橋市文京町3-18-4",
        "lng": 139.085411,
        "lat": 36.378743,
        "h": 41
      },
      {
        "name": "第五中学校",
        "address": "群馬県前橋市文京町3-20-5",
        "lng": 139.087944,
        "lat": 36.379225,
        "h": 41
      },
      {
        "name": "第三中学校",
        "address": "群馬県前橋市平和町2-13-24",
        "lng": 139.062054,
        "lat": 36.400418,
        "h": 41
      },
      {
        "name": "大胡中学校",
        "address": "群馬県前橋市堀越町1152",
        "lng": 139.156344,
        "lat": 36.41877,
        "h": 40
      },
      {
        "name": "大胡小学校",
        "address": "群馬県前橋市堀越町1161",
        "lng": 139.156801,
        "lat": 36.416825,
        "h": 41
      },
      {
        "name": "城南小学校",
        "address": "群馬県前橋市六供町1-13-2",
        "lng": 139.074253,
        "lat": 36.375581,
        "h": 40
      },
      {
        "name": "笂井小学校",
        "address": "群馬県前橋市笂井町1160",
        "lng": 139.139078,
        "lat": 36.361047,
        "h": 40
      }
    ]
  },
  "10202": {
    "source": "国土地理院「指定緊急避難場所データ」",
    "asOf": "2026-06-19",
    "sites": [
      {
        "name": "群馬医療福祉大学",
        "address": "群馬県前橋市川曲町191-1",
        "lng": 139.048336,
        "lat": 36.35642,
        "h": 40
      },
      {
        "name": "塚沢小学校一帯",
        "address": "群馬県高崎市稲荷町20",
        "lng": 139.016691,
        "lat": 36.339565,
        "h": 107
      },
      {
        "name": "下室田小学校",
        "address": "群馬県高崎市下室田町1206",
        "lng": 138.887851,
        "lat": 36.386226,
        "h": 235
      },
      {
        "name": "北部小学校",
        "address": "群馬県高崎市下小塙町719-1",
        "lng": 138.97387,
        "lat": 36.351168,
        "h": 234
      },
      {
        "name": "滝川小学校",
        "address": "群馬県高崎市下滝町585-2",
        "lng": 139.083912,
        "lat": 36.31177,
        "h": 234
      },
      {
        "name": "下里見小学校",
        "address": "群馬県高崎市下里見町380",
        "lng": 138.919019,
        "lat": 36.363466,
        "h": 235
      },
      {
        "name": "城南運動公園",
        "address": "群馬県高崎市下和田町2-12",
        "lng": 139.008448,
        "lat": 36.313639,
        "h": 105
      },
      {
        "name": "群馬コンベンションセンター（Ｇメッセ群馬）",
        "address": "群馬県高崎市岩押町12-24",
        "lng": 139.021736,
        "lat": 36.318518,
        "h": 235
      },
      {
        "name": "多胡小学校",
        "address": "群馬県高崎市吉井町塩24-3",
        "lng": 138.977185,
        "lat": 36.236638,
        "h": 235
      },
      {
        "name": "岩平小学校",
        "address": "群馬県高崎市吉井町下奥平205-1",
        "lng": 138.966633,
        "lat": 36.273016,
        "h": 235
      },
      {
        "name": "吉井中央公園",
        "address": "群馬県高崎市吉井町下長根50-1",
        "lng": 138.977011,
        "lat": 36.252612,
        "h": 235
      },
      {
        "name": "吉井小学校",
        "address": "群馬県高崎市吉井町吉井235-1",
        "lng": 138.983194,
        "lat": 36.255403,
        "h": 235
      },
      {
        "name": "吉井文化会館",
        "address": "群馬県高崎市吉井町吉井285-2",
        "lng": 138.985189,
        "lat": 36.253019,
        "h": 235
      },
      {
        "name": "吉井中央中学校",
        "address": "群馬県高崎市吉井町吉井川581",
        "lng": 138.988984,
        "lat": 36.248866,
        "h": 235
      },
      {
        "name": "入野小学校",
        "address": "群馬県高崎市吉井町小串130",
        "lng": 139.014215,
        "lat": 36.256074,
        "h": 235
      },
      {
        "name": "吉井東コミュニティセンター",
        "address": "群馬県高崎市吉井町小串336-1",
        "lng": 139.014443,
        "lat": 36.253699,
        "h": 235
      },
      {
        "name": "仁叟寺",
        "address": "群馬県高崎市吉井町神保1295",
        "lng": 138.984432,
        "lat": 36.246679,
        "h": 235
      },
      {
        "name": "入野中学校",
        "address": "群馬県高崎市吉井町石神321-1",
        "lng": 139.004442,
        "lat": 36.25075,
        "h": 235
      },
      {
        "name": "多比良文化財保管庫本館（旧多比良分校）",
        "address": "群馬県高崎市吉井町多比良2637-1",
        "lng": 139.005939,
        "lat": 36.233553,
        "h": 235
      },
      {
        "name": "吉井西小学校",
        "address": "群馬県高崎市吉井町長根1930-1",
        "lng": 138.968885,
        "lat": 36.255006,
        "h": 235
      },
      {
        "name": "吉井西コミュニティセンター",
        "address": "群馬県高崎市吉井町長根525",
        "lng": 138.968326,
        "lat": 36.249048,
        "h": 235
      },
      {
        "name": "南陽台小学校",
        "address": "群馬県高崎市吉井町南陽台3-16-1",
        "lng": 139.000409,
        "lat": 36.27359,
        "h": 235
      },
      {
        "name": "馬庭小学校",
        "address": "群馬県高崎市吉井町馬庭1033-1",
        "lng": 139.013111,
        "lat": 36.26689,
        "h": 235
      },
      {
        "name": "吉井西中学校",
        "address": "群馬県高崎市吉井町本郷45",
        "lng": 138.971822,
        "lat": 36.258671,
        "h": 235
      },
      {
        "name": "宮沢小学校",
        "address": "群馬県高崎市宮沢町1100-1",
        "lng": 138.914017,
        "lat": 36.398581,
        "h": 235
      },
      {
        "name": "東小学校",
        "address": "群馬県高崎市弓町121-1",
        "lng": 139.010215,
        "lat": 36.329604,
        "h": 235
      },
      {
        "name": "京ケ島小学校",
        "address": "群馬県高崎市京目町44-1",
        "lng": 139.064138,
        "lat": 36.340387,
        "h": 234
      },
      {
        "name": "金古小学校",
        "address": "群馬県高崎市金古町1271-1",
        "lng": 138.999344,
        "lat": 36.407181,
        "h": 235
      },
      {
        "name": "群馬中央中学校",
        "address": "群馬県高崎市金古町352-1",
        "lng": 139.003887,
        "lat": 36.402989,
        "h": 235
      },
      {
        "name": "金古南小学校",
        "address": "群馬県高崎市金古町658",
        "lng": 138.994269,
        "lat": 36.401741,
        "h": 235
      },
      {
        "name": "国府小学校",
        "address": "群馬県高崎市後疋間町184-1",
        "lng": 139.016753,
        "lat": 36.395039,
        "h": 235
      },
      {
        "name": "城東小学校",
        "address": "群馬県高崎市江木町128-1",
        "lng": 139.021123,
        "lat": 36.326612,
        "h": 235
      },
      {
        "name": "県立高崎工業高等学校",
        "address": "群馬県高崎市江木町700",
        "lng": 139.018499,
        "lat": 36.336379,
        "h": 235
      },
      {
        "name": "城址一帯",
        "address": "群馬県高崎市高松町1",
        "lng": 139.004205,
        "lat": 36.324168,
        "h": 107
      },
      {
        "name": "高松中学校",
        "address": "群馬県高崎市高松町5-3",
        "lng": 139.001855,
        "lat": 36.326335,
        "h": 235
      },
      {
        "name": "久留馬小学校",
        "address": "群馬県高崎市高浜町2321-1",
        "lng": 138.931998,
        "lat": 36.369634,
        "h": 235
      },
      {
        "name": "群馬南中学校",
        "address": "群馬県高崎市三ツ寺町712",
        "lng": 138.995115,
        "lat": 36.374327,
        "h": 235
      },
      {
        "name": "南八幡小学校",
        "address": "群馬県高崎市山名町24-1",
        "lng": 139.039115,
        "lat": 36.281021,
        "h": 235
      },
      {
        "name": "南八幡中学校",
        "address": "群馬県高崎市山名町30-1",
        "lng": 139.037862,
        "lat": 36.281339,
        "h": 235
      },
      {
        "name": "寺尾中学校",
        "address": "群馬県高崎市寺尾町2710",
        "lng": 139.009521,
        "lat": 36.303013,
        "h": 234
      },
      {
        "name": "寺尾小学校",
        "address": "群馬県高崎市寺尾町290",
        "lng": 139.007626,
        "lat": 36.302671,
        "h": 234
      },
      {
        "name": "中川小学校",
        "address": "群馬県高崎市小八木町1860-1",
        "lng": 139.015574,
        "lat": 36.364483,
        "h": 235
      },
      {
        "name": "新島学園短期大学",
        "address": "群馬県高崎市昭和町53",
        "lng": 139.004541,
        "lat": 36.337117,
        "h": 235
      },
      {
        "name": "佐野小学校",
        "address": "群馬県高崎市上佐野町918-2",
        "lng": 139.024622,
        "lat": 36.308484,
        "h": 235
      },
      {
        "name": "上室田小学校",
        "address": "群馬県高崎市上室田町4210",
        "lng": 138.839889,
        "lat": 36.403473,
        "h": 235
      },
      {
        "name": "長野郷中学校",
        "address": "群馬県高崎市上小塙町325-1",
        "lng": 138.973282,
        "lat": 36.357412,
        "h": 235
      },
      {
        "name": "東部小学校",
        "address": "群馬県高崎市上大類町1372",
        "lng": 139.031015,
        "lat": 36.342365,
        "h": 234
      },
      {
        "name": "高南中学校",
        "address": "群馬県高崎市上滝町1032-2",
        "lng": 139.070707,
        "lat": 36.322086,
        "h": 234
      },
      {
        "name": "佐野中学校",
        "address": "群馬県高崎市上中居町345",
        "lng": 139.025266,
        "lat": 36.316735,
        "h": 235
      },
      {
        "name": "上並榎庭球場一帯",
        "address": "群馬県高崎市上並榎町1590",
        "lng": 138.986175,
        "lat": 36.338251,
        "h": 42
      },
      {
        "name": "榛名文化会館",
        "address": "群馬県高崎市上里見町1072-1",
        "lng": 138.893759,
        "lat": 36.373577,
        "h": 235
      },
      {
        "name": "里見小学校",
        "address": "群馬県高崎市上里見町42-2",
        "lng": 138.897226,
        "lat": 36.37467,
        "h": 235
      },
      {
        "name": "榛名中学校",
        "address": "群馬県高崎市上里見町430",
        "lng": 138.892624,
        "lat": 36.380505,
        "h": 234
      },
      {
        "name": "第一中学校",
        "address": "群馬県高崎市上和田町16-1",
        "lng": 138.996667,
        "lat": 36.333242,
        "h": 235
      },
      {
        "name": "乗附小学校",
        "address": "群馬県高崎市乗附町155-1",
        "lng": 138.985279,
        "lat": 36.326925,
        "h": 234
      },
      {
        "name": "城山小学校",
        "address": "群馬県高崎市城山町2-16-1",
        "lng": 139.013661,
        "lat": 36.285715,
        "h": 235
      },
      {
        "name": "中央小学校",
        "address": "群馬県高崎市常盤町48-1",
        "lng": 138.999031,
        "lat": 36.328044,
        "h": 235
      },
      {
        "name": "城南小学校",
        "address": "群馬県高崎市新後閑町301-1",
        "lng": 139.011751,
        "lat": 36.310841,
        "h": 235
      },
      {
        "name": "新町児童体育館",
        "address": "群馬県高崎市新町1497",
        "lng": 139.106092,
        "lat": 36.267228,
        "h": 234
      },
      {
        "name": "新町南コミュニティセンター",
        "address": "群馬県高崎市新町1498-7",
        "lng": 139.106699,
        "lat": 36.267216,
        "h": 234
      },
      {
        "name": "新町第二小学校",
        "address": "群馬県高崎市新町2010-1",
        "lng": 139.102256,
        "lat": 36.264969,
        "h": 234
      },
      {
        "name": "新町公民館",
        "address": "群馬県高崎市新町2271-1",
        "lng": 139.106806,
        "lat": 36.27534,
        "h": 234
      },
      {
        "name": "新町防災アリーナ",
        "address": "群馬県高崎市新町2330-40",
        "lng": 139.104312,
        "lat": 36.27753,
        "h": 234
      },
      {
        "name": "新町東コミュニティセンター",
        "address": "群馬県高崎市新町2703",
        "lng": 139.1114,
        "lat": 36.273106,
        "h": 234
      },
      {
        "name": "新町文化ホール",
        "address": "群馬県高崎市新町3190-1",
        "lng": 139.115288,
        "lat": 36.277646,
        "h": 234
      },
      {
        "name": "新町第一小学校",
        "address": "群馬県高崎市新町345-1",
        "lng": 139.111563,
        "lat": 36.276824,
        "h": 234
      },
      {
        "name": "新町中学校",
        "address": "群馬県高崎市新町361-1",
        "lng": 139.11285,
        "lat": 36.27596,
        "h": 234
      },
      {
        "name": "榛名湖温泉ゆうすげ",
        "address": "群馬県高崎市榛名湖町846-3",
        "lng": 138.873359,
        "lat": 36.481127,
        "h": 233
      },
      {
        "name": "榛名歴史民俗資料館",
        "address": "群馬県高崎市榛名山町138-1",
        "lng": 138.848374,
        "lat": 36.452958,
        "h": 233
      },
      {
        "name": "北小学校",
        "address": "群馬県高崎市請地町20-2",
        "lng": 139.002398,
        "lat": 36.333123,
        "h": 235
      },
      {
        "name": "東京農業大学第二高等学校",
        "address": "群馬県高崎市石原町3430",
        "lng": 139.000962,
        "lat": 36.301022,
        "h": 235
      },
      {
        "name": "武道館",
        "address": "群馬県高崎市石原町3892-7",
        "lng": 139.002798,
        "lat": 36.302234,
        "h": 235
      },
      {
        "name": "倉賀野中学校",
        "address": "群馬県高崎市倉賀野町1270",
        "lng": 139.04265,
        "lat": 36.295079,
        "h": 235
      },
      {
        "name": "倉賀野小学校",
        "address": "群馬県高崎市倉賀野町1744",
        "lng": 139.048402,
        "lat": 36.299898,
        "h": 235
      },
      {
        "name": "倉賀野避難地",
        "address": "群馬県高崎市倉賀野町4655-1",
        "lng": 139.057261,
        "lat": 36.302226,
        "h": 107
      },
      {
        "name": "倉渕中学校",
        "address": "群馬県高崎市倉渕町岩氷215-1",
        "lng": 138.784537,
        "lat": 36.429941,
        "h": 232
      },
      {
        "name": "倉渕体育館",
        "address": "群馬県高崎市倉渕町岩氷610",
        "lng": 138.774921,
        "lat": 36.43819,
        "h": 235
      },
      {
        "name": "倉渕第八区公民館",
        "address": "群馬県高崎市倉渕町権田2352-1",
        "lng": 138.777881,
        "lat": 36.456617,
        "h": 235
      },
      {
        "name": "倉渕小学校",
        "address": "群馬県高崎市倉渕町権田314-1",
        "lng": 138.772524,
        "lat": 36.447247,
        "h": 233
      },
      {
        "name": "倉渕第一区公民館",
        "address": "群馬県高崎市倉渕町三ノ倉1813-2",
        "lng": 138.815614,
        "lat": 36.400044,
        "h": 235
      },
      {
        "name": "高崎市くらぶち小栗の里",
        "address": "群馬県高崎市倉渕町三ノ倉296-1",
        "lng": 138.793229,
        "lat": 36.42452,
        "h": 233
      },
      {
        "name": "三ノ倉会館",
        "address": "群馬県高崎市倉渕町三ノ倉814-1",
        "lng": 138.799327,
        "lat": 36.416366,
        "h": 235
      },
      {
        "name": "川浦公民館",
        "address": "群馬県高崎市倉渕町川浦1186-2",
        "lng": 138.748021,
        "lat": 36.460386,
        "h": 233
      },
      {
        "name": "群馬体育館",
        "address": "群馬県高崎市足門町1449-1",
        "lng": 138.992942,
        "lat": 36.401135,
        "h": 235
      },
      {
        "name": "岩鼻小学校",
        "address": "群馬県高崎市台新田町1",
        "lng": 139.069509,
        "lat": 36.302662,
        "h": 235
      },
      {
        "name": "六郷小学校",
        "address": "群馬県高崎市筑縄町32-2",
        "lng": 138.987495,
        "lat": 36.353308,
        "h": 235
      },
      {
        "name": "中居小学校",
        "address": "群馬県高崎市中居町3-28-1",
        "lng": 139.041243,
        "lat": 36.316584,
        "h": 235
      },
      {
        "name": "中室田小学校",
        "address": "群馬県高崎市中室田町1561-1",
        "lng": 138.869419,
        "lat": 36.393377,
        "h": 235
      },
      {
        "name": "中尾中学校",
        "address": "群馬県高崎市中尾町791",
        "lng": 139.027996,
        "lat": 36.36185,
        "h": 235
      },
      {
        "name": "豊岡小学校",
        "address": "群馬県高崎市中豊岡町24",
        "lng": 138.974958,
        "lat": 36.334645,
        "h": 234
      },
      {
        "name": "豊岡中学校",
        "address": "群馬県高崎市中豊岡町350-2",
        "lng": 138.969718,
        "lat": 36.336524,
        "h": 234
      },
      {
        "name": "県立高崎商業高等学校",
        "address": "群馬県高崎市東貝沢町3-4",
        "lng": 139.033932,
        "lat": 36.347384,
        "h": 234
      },
      {
        "name": "堤ヶ岡小学校",
        "address": "群馬県高崎市棟高町2227-1",
        "lng": 139.002166,
        "lat": 36.378932,
        "h": 235
      },
      {
        "name": "桜山小学校",
        "address": "群馬県高崎市棟高町2489-1",
        "lng": 139.006439,
        "lat": 36.372497,
        "h": 235
      },
      {
        "name": "長野小学校",
        "address": "群馬県高崎市南新波町77",
        "lng": 138.971539,
        "lat": 36.363722,
        "h": 235
      },
      {
        "name": "大類中学校",
        "address": "群馬県高崎市南大類町1455",
        "lng": 139.035564,
        "lat": 36.329482,
        "h": 235
      },
      {
        "name": "大類小学校",
        "address": "群馬県高崎市南大類町543-1",
        "lng": 139.045972,
        "lat": 36.324121,
        "h": 235
      },
      {
        "name": "新高尾小学校",
        "address": "群馬県高崎市日高町592-1",
        "lng": 139.036496,
        "lat": 36.364487,
        "h": 235
      },
      {
        "name": "県立高崎高等学校",
        "address": "群馬県高崎市八千代町2-4-1",
        "lng": 138.987078,
        "lat": 36.31907,
        "h": 235
      },
      {
        "name": "南小学校",
        "address": "群馬県高崎市八島町70-1",
        "lng": 139.00967,
        "lat": 36.321488,
        "h": 235
      },
      {
        "name": "八幡中学校",
        "address": "群馬県高崎市八幡町1300-1",
        "lng": 138.943582,
        "lat": 36.34419,
        "h": 235
      },
      {
        "name": "西部小学校",
        "address": "群馬県高崎市八幡町1414",
        "lng": 138.943647,
        "lat": 36.347952,
        "h": 235
      },
      {
        "name": "八幡小学校",
        "address": "群馬県高崎市八幡町179-1",
        "lng": 138.951628,
        "lat": 36.336144,
        "h": 234
      },
      {
        "name": "塚沢中学校",
        "address": "群馬県高崎市飯玉町109",
        "lng": 139.016637,
        "lat": 36.339159,
        "h": 235
      },
      {
        "name": "塚沢小学校",
        "address": "群馬県高崎市飯玉町134-1",
        "lng": 139.016709,
        "lat": 36.340127,
        "h": 235
      },
      {
        "name": "鼻高小学校",
        "address": "群馬県高崎市鼻高町58-2",
        "lng": 138.939495,
        "lat": 36.332398,
        "h": 234
      },
      {
        "name": "浜尻小学校",
        "address": "群馬県高崎市浜尻町210-1",
        "lng": 139.014383,
        "lat": 36.350606,
        "h": 235
      },
      {
        "name": "浜川総合運動公園一帯",
        "address": "群馬県高崎市浜川町1487",
        "lng": 138.988748,
        "lat": 36.365347,
        "h": 107
      },
      {
        "name": "高崎市立高崎経済大学附属高等学校",
        "address": "群馬県高崎市浜川町1650-1",
        "lng": 138.990743,
        "lat": 36.3619,
        "h": 235
      },
      {
        "name": "西小学校",
        "address": "群馬県高崎市並榎町109-1",
        "lng": 138.994264,
        "lat": 36.339495,
        "h": 235
      },
      {
        "name": "並榎中学校",
        "address": "群馬県高崎市並榎町60",
        "lng": 138.994343,
        "lat": 36.342225,
        "h": 235
      },
      {
        "name": "片岡中学校",
        "address": "群馬県高崎市片岡町1-14-1",
        "lng": 138.99395,
        "lat": 36.320328,
        "h": 234
      },
      {
        "name": "和田橋運動場広場一帯",
        "address": "群馬県高崎市片岡町1-171",
        "lng": 138.997936,
        "lat": 36.32141,
        "h": 42
      },
      {
        "name": "片岡小学校",
        "address": "群馬県高崎市片岡町2-12-1",
        "lng": 138.997734,
        "lat": 36.315661,
        "h": 234
      },
      {
        "name": "上郊小学校",
        "address": "群馬県高崎市保渡田町2107-1",
        "lng": 138.983545,
        "lat": 36.388127,
        "h": 235
      },
      {
        "name": "総合文化センター",
        "address": "群馬県高崎市末広町23-1",
        "lng": 139.006562,
        "lat": 36.333097,
        "h": 235
      },
      {
        "name": "箕郷第五保育園",
        "address": "群馬県高崎市箕郷町下芝66-1",
        "lng": 138.957696,
        "lat": 36.376707,
        "h": 235
      },
      {
        "name": "箕郷第一保育園",
        "address": "群馬県高崎市箕郷町上芝1063-1",
        "lng": 138.956211,
        "lat": 36.399436,
        "h": 235
      },
      {
        "name": "箕郷中学校",
        "address": "群馬県高崎市箕郷町生原654",
        "lng": 138.963873,
        "lat": 36.396634,
        "h": 235
      },
      {
        "name": "さわやか交流館",
        "address": "群馬県高崎市箕郷町生原88",
        "lng": 138.965193,
        "lat": 36.389083,
        "h": 235
      },
      {
        "name": "箕郷文化会館",
        "address": "群馬県高崎市箕郷町生原922-1",
        "lng": 138.968979,
        "lat": 36.400941,
        "h": 235
      },
      {
        "name": "箕郷東小学校",
        "address": "群馬県高崎市箕郷町生原922-2",
        "lng": 138.968668,
        "lat": 36.401658,
        "h": 235
      },
      {
        "name": "県立農林大学校",
        "address": "群馬県高崎市箕郷町西明屋1005",
        "lng": 138.945516,
        "lat": 36.412715,
        "h": 235
      },
      {
        "name": "箕輪小学校",
        "address": "群馬県高崎市箕郷町西明屋196-1",
        "lng": 138.954674,
        "lat": 36.398796,
        "h": 235
      },
      {
        "name": "箕郷公民館",
        "address": "群馬県高崎市箕郷町西明屋421",
        "lng": 138.956435,
        "lat": 36.391706,
        "h": 235
      },
      {
        "name": "箕郷第二保育園",
        "address": "群馬県高崎市箕郷町柏木沢209-1",
        "lng": 138.966131,
        "lat": 36.410613,
        "h": 235
      },
      {
        "name": "車郷小学校",
        "address": "群馬県高崎市箕郷町富岡255-1",
        "lng": 138.949124,
        "lat": 36.390097,
        "h": 235
      },
      {
        "name": "箕郷第三保育園",
        "address": "群馬県高崎市箕郷町富岡281",
        "lng": 138.948927,
        "lat": 36.390843,
        "h": 235
      },
      {
        "name": "矢中小学校",
        "address": "群馬県高崎市矢中町160-1",
        "lng": 139.048519,
        "lat": 36.310663,
        "h": 235
      },
      {
        "name": "矢中中学校",
        "address": "群馬県高崎市矢中町700-1",
        "lng": 139.056766,
        "lat": 36.309274,
        "h": 235
      }
    ]
  },
  "10203": {
    "source": "国土地理院「指定緊急避難場所データ」",
    "asOf": "2026-06-19",
    "sites": [
      {
        "name": "新川公園",
        "address": "群馬県桐生市稲荷町1-1",
        "lng": 139.33291,
        "lat": 36.408166,
        "h": 42
      },
      {
        "name": "中央公民館",
        "address": "群馬県桐生市稲荷町1-4",
        "lng": 139.331805,
        "lat": 36.40859,
        "h": 99
      },
      {
        "name": "西公民館",
        "address": "群馬県桐生市永楽町2-16",
        "lng": 139.336898,
        "lat": 36.413414,
        "h": 75
      },
      {
        "name": "水道山公園",
        "address": "群馬県桐生市宮本町2-14-56",
        "lng": 139.333445,
        "lat": 36.418739,
        "h": 75
      },
      {
        "name": "吾妻公園",
        "address": "群馬県桐生市宮本町3-10-1",
        "lng": 139.334459,
        "lat": 36.420923,
        "h": 73
      },
      {
        "name": "桐生が岡公園",
        "address": "群馬県桐生市宮本町3-8-13",
        "lng": 139.341094,
        "lat": 36.422624,
        "h": 75
      },
      {
        "name": "境野公民館",
        "address": "群馬県桐生市境野町2-612-4",
        "lng": 139.351553,
        "lat": 36.389026,
        "h": 67
      },
      {
        "name": "境野町児童公園",
        "address": "群馬県桐生市境野町2-612-4",
        "lng": 139.351806,
        "lat": 36.389011,
        "h": 10
      },
      {
        "name": "みつぼり保育園",
        "address": "群馬県桐生市境野町3-1302-4",
        "lng": 139.343804,
        "lat": 36.390504,
        "h": 2
      },
      {
        "name": "関根児童公園",
        "address": "群馬県桐生市境野町3-1320-2",
        "lng": 139.345686,
        "lat": 36.389965,
        "h": 10
      },
      {
        "name": "三ツ堀会館",
        "address": "群馬県桐生市境野町3-1489-7",
        "lng": 139.349149,
        "lat": 36.387334,
        "h": 67
      },
      {
        "name": "沼の上保育園",
        "address": "群馬県桐生市境野町4-1095-1",
        "lng": 139.354189,
        "lat": 36.393133,
        "h": 2
      },
      {
        "name": "諏訪児童公園",
        "address": "群馬県桐生市境野町4-853",
        "lng": 139.352355,
        "lat": 36.391894,
        "h": 10
      },
      {
        "name": "境野小学校",
        "address": "群馬県桐生市境野町6-1616-1",
        "lng": 139.353232,
        "lat": 36.384362,
        "h": 107
      },
      {
        "name": "境野幼稚園",
        "address": "群馬県桐生市境野町6-1616-1",
        "lng": 139.353395,
        "lat": 36.385252,
        "h": 75
      },
      {
        "name": "境野中学校",
        "address": "群馬県桐生市境野町6-1673",
        "lng": 139.353784,
        "lat": 36.38323,
        "h": 107
      },
      {
        "name": "錦町二丁目児童公園",
        "address": "群馬県桐生市錦町2-1305-1",
        "lng": 139.332323,
        "lat": 36.403181,
        "h": 10
      },
      {
        "name": "（旧）元宿保育園",
        "address": "群馬県桐生市元宿町3-16",
        "lng": 139.3276,
        "lat": 36.412542,
        "h": 67
      },
      {
        "name": "桜木中学校",
        "address": "群馬県桐生市広沢町1-2874",
        "lng": 139.324089,
        "lat": 36.394383,
        "h": 107
      },
      {
        "name": "認定こども園おおぞら",
        "address": "群馬県桐生市広沢町1-2903-2",
        "lng": 139.32555,
        "lat": 36.395988,
        "h": 67
      },
      {
        "name": "広沢町児童遊園",
        "address": "群馬県桐生市広沢町2-3165-47",
        "lng": 139.323098,
        "lat": 36.391526,
        "h": 75
      },
      {
        "name": "神明小学校",
        "address": "群馬県桐生市広沢町2-3242-1",
        "lng": 139.321453,
        "lat": 36.389143,
        "h": 107
      },
      {
        "name": "桜木公民館",
        "address": "群馬県桐生市広沢町2-3334-1",
        "lng": 139.325129,
        "lat": 36.389422,
        "h": 75
      },
      {
        "name": "ＫＩＲＩＮＡＮ　ＢＡＳＥ（旧桐生南高等学校）",
        "address": "群馬県桐生市広沢町3-4193",
        "lng": 139.31617,
        "lat": 36.386539,
        "h": 107
      },
      {
        "name": "広沢中学校",
        "address": "群馬県桐生市広沢町4-1864-2",
        "lng": 139.340743,
        "lat": 36.380246,
        "h": 107
      },
      {
        "name": "広沢公民館",
        "address": "群馬県桐生市広沢町4-1970-172",
        "lng": 139.343152,
        "lat": 36.38447,
        "h": 75
      },
      {
        "name": "広沢小学校",
        "address": "群馬県桐生市広沢町4-2044-2",
        "lng": 139.338557,
        "lat": 36.38125,
        "h": 107
      },
      {
        "name": "広沢幼稚園",
        "address": "群馬県桐生市広沢町4-2099",
        "lng": 139.338559,
        "lat": 36.38216,
        "h": 67
      },
      {
        "name": "桐生市南公園",
        "address": "群馬県桐生市広沢町5-4716-11",
        "lng": 139.336084,
        "lat": 36.373872,
        "h": 107
      },
      {
        "name": "広沢老人憩の家",
        "address": "群馬県桐生市広沢町6-1103-1",
        "lng": 139.35185,
        "lat": 36.378212,
        "h": 2
      },
      {
        "name": "広沢南部保育園",
        "address": "群馬県桐生市広沢町6-606",
        "lng": 139.351748,
        "lat": 36.369596,
        "h": 65
      },
      {
        "name": "広沢町六丁目公園",
        "address": "群馬県桐生市広沢町6-845-11",
        "lng": 139.350999,
        "lat": 36.372276,
        "h": 75
      },
      {
        "name": "桐生水質浄化センター",
        "address": "群馬県桐生市広沢町7-5005",
        "lng": 139.367152,
        "lat": 36.36425,
        "h": 99
      },
      {
        "name": "一本木会館",
        "address": "群馬県桐生市広沢町7-5022-4",
        "lng": 139.366075,
        "lat": 36.364556,
        "h": 67
      },
      {
        "name": "松原橋公園",
        "address": "群馬県桐生市広沢町６地内",
        "lng": 139.358326,
        "lat": 36.37407,
        "h": 42
      },
      {
        "name": "間ノ島児童公園",
        "address": "群馬県桐生市広沢町間ノ島21-24",
        "lng": 139.340701,
        "lat": 36.386746,
        "h": 10
      },
      {
        "name": "清水集会所",
        "address": "群馬県桐生市黒保根町下田沢1274-1",
        "lng": 139.273706,
        "lat": 36.509664,
        "h": 67
      },
      {
        "name": "津久瀬集会所",
        "address": "群馬県桐生市黒保根町下田沢14-4",
        "lng": 139.275864,
        "lat": 36.495467,
        "h": 65
      },
      {
        "name": "鹿角集会所",
        "address": "群馬県桐生市黒保根町下田沢1439",
        "lng": 139.25274,
        "lat": 36.520835,
        "h": 67
      },
      {
        "name": "楡沢集会所",
        "address": "群馬県桐生市黒保根町下田沢1992",
        "lng": 139.255232,
        "lat": 36.553441,
        "h": 65
      },
      {
        "name": "前田原集会所",
        "address": "群馬県桐生市黒保根町下田沢243-5",
        "lng": 139.268874,
        "lat": 36.498099,
        "h": 67
      },
      {
        "name": "柏山上集会所",
        "address": "群馬県桐生市黒保根町下田沢2790-49",
        "lng": 139.248136,
        "lat": 36.515108,
        "h": 67
      },
      {
        "name": "出合原集会所",
        "address": "群馬県桐生市黒保根町下田沢612",
        "lng": 139.254445,
        "lat": 36.503167,
        "h": 67
      },
      {
        "name": "下田沢集会所",
        "address": "群馬県桐生市黒保根町下田沢甲964",
        "lng": 139.259391,
        "lat": 36.512033,
        "h": 67
      },
      {
        "name": "宿廻集会所",
        "address": "群馬県桐生市黒保根町宿廻131",
        "lng": 139.258394,
        "lat": 36.482932,
        "h": 67
      },
      {
        "name": "城集会所",
        "address": "群馬県桐生市黒保根町宿廻563-4",
        "lng": 139.254807,
        "lat": 36.484805,
        "h": 67
      },
      {
        "name": "川口集会所",
        "address": "群馬県桐生市黒保根町宿廻639-7",
        "lng": 139.259219,
        "lat": 36.490625,
        "h": 65
      },
      {
        "name": "栗生・鷲ノ手集会所",
        "address": "群馬県桐生市黒保根町上田沢2218",
        "lng": 139.277122,
        "lat": 36.534374,
        "h": 67
      },
      {
        "name": "涌丸集会所",
        "address": "群馬県桐生市黒保根町上田沢286-1",
        "lng": 139.274502,
        "lat": 36.517287,
        "h": 67
      },
      {
        "name": "上田沢集会所",
        "address": "群馬県桐生市黒保根町上田沢672",
        "lng": 139.285462,
        "lat": 36.527694,
        "h": 65
      },
      {
        "name": "黒保根保育園",
        "address": "群馬県桐生市黒保根町水沼199-1",
        "lng": 139.284319,
        "lat": 36.501664,
        "h": 97
      },
      {
        "name": "旧黒保根中学校",
        "address": "群馬県桐生市黒保根町水沼342-7",
        "lng": 139.281581,
        "lat": 36.506104,
        "h": 107
      },
      {
        "name": "黒保根学園",
        "address": "群馬県桐生市黒保根町水沼400",
        "lng": 139.284901,
        "lat": 36.507268,
        "h": 107
      },
      {
        "name": "黒保根町交流促進センター",
        "address": "群馬県桐生市黒保根町水沼549-1",
        "lng": 139.290957,
        "lat": 36.504683,
        "h": 107
      },
      {
        "name": "黒保根町保健センター",
        "address": "群馬県桐生市黒保根町水沼562-3",
        "lng": 139.291649,
        "lat": 36.504808,
        "h": 107
      },
      {
        "name": "八木原集会所",
        "address": "群馬県桐生市黒保根町八木原173",
        "lng": 139.282516,
        "lat": 36.499778,
        "h": 2
      },
      {
        "name": "西小学校",
        "address": "群馬県桐生市小曽根町1-9",
        "lng": 139.337001,
        "lat": 36.415,
        "h": 107
      },
      {
        "name": "西運動場",
        "address": "群馬県桐生市小曽根町3-30",
        "lng": 139.335973,
        "lat": 36.4162,
        "h": 107
      },
      {
        "name": "小梅琴平公園",
        "address": "群馬県桐生市小梅町",
        "lng": 139.338235,
        "lat": 36.394002,
        "h": 42
      },
      {
        "name": "桐生市市民文化会館",
        "address": "群馬県桐生市織姫町2-5",
        "lng": 139.329273,
        "lat": 36.404658,
        "h": 99
      },
      {
        "name": "桐生地域地場産業　振興センター",
        "address": "群馬県桐生市織姫町2-5",
        "lng": 139.329193,
        "lat": 36.403976,
        "h": 99
      },
      {
        "name": "南小学校",
        "address": "群馬県桐生市新宿2-7-1",
        "lng": 139.339052,
        "lat": 36.400212,
        "h": 107
      },
      {
        "name": "南体育館・運動場",
        "address": "群馬県桐生市新宿3-3-19",
        "lng": 139.344442,
        "lat": 36.394365,
        "h": 107
      },
      {
        "name": "南公民館",
        "address": "群馬県桐生市新宿3-9-52",
        "lng": 139.342656,
        "lat": 36.396988,
        "h": 75
      },
      {
        "name": "新里町奥沢地区集会所",
        "address": "群馬県桐生市新里町奥沢476",
        "lng": 139.253829,
        "lat": 36.450304,
        "h": 67
      },
      {
        "name": "山上城跡公園",
        "address": "群馬県桐生市新里町山上297-1",
        "lng": 139.227782,
        "lat": 36.426668,
        "h": 107
      },
      {
        "name": "新里中学校",
        "address": "群馬県桐生市新里町山上827",
        "lng": 139.238075,
        "lat": 36.42927,
        "h": 107
      },
      {
        "name": "新里社会体育館",
        "address": "群馬県桐生市新里町山上828-1",
        "lng": 139.237067,
        "lat": 36.428924,
        "h": 107
      },
      {
        "name": "新里中央小学校",
        "address": "群馬県桐生市新里町小林甲60",
        "lng": 139.237272,
        "lat": 36.421811,
        "h": 107
      },
      {
        "name": "新里東小学校",
        "address": "群馬県桐生市新里町新川2072",
        "lng": 139.257137,
        "lat": 36.421405,
        "h": 107
      },
      {
        "name": "東新川駅北公園",
        "address": "群馬県桐生市新里町新川3783-1",
        "lng": 139.267309,
        "lat": 36.422074,
        "h": 75
      },
      {
        "name": "八幡原公園",
        "address": "群馬県桐生市新里町新川741-11",
        "lng": 139.269982,
        "lat": 36.417192,
        "h": 75
      },
      {
        "name": "新里北小学校",
        "address": "群馬県桐生市新里町大久保302",
        "lng": 139.232769,
        "lat": 36.450296,
        "h": 107
      },
      {
        "name": "上鶴ヶ谷住民センター",
        "address": "群馬県桐生市新里町鶴ケ谷521",
        "lng": 139.251934,
        "lat": 36.44367,
        "h": 67
      },
      {
        "name": "武井遺跡公園",
        "address": "群馬県桐生市新里町武井1100-2",
        "lng": 139.23821,
        "lat": 36.407282,
        "h": 75
      },
      {
        "name": "新里福祉センター",
        "address": "群馬県桐生市新里町野397-1",
        "lng": 139.237194,
        "lat": 36.397793,
        "h": 98
      },
      {
        "name": "商業高等学校",
        "address": "群馬県桐生市清瀬町6-1",
        "lng": 139.325038,
        "lat": 36.408249,
        "h": 107
      },
      {
        "name": "桐生工業高等学校",
        "address": "群馬県桐生市西久方町1-1-41",
        "lng": 139.345279,
        "lat": 36.42251,
        "h": 107
      },
      {
        "name": "旧北幼稚園",
        "address": "群馬県桐生市西久方町1-4-9",
        "lng": 139.343116,
        "lat": 36.421519,
        "h": 67
      },
      {
        "name": "北中学校跡",
        "address": "群馬県桐生市西久方町1-9-1",
        "lng": 139.346438,
        "lat": 36.424969,
        "h": 97
      },
      {
        "name": "北小学校",
        "address": "群馬県桐生市西久方町2-1-5",
        "lng": 139.341084,
        "lat": 36.418238,
        "h": 107
      },
      {
        "name": "鷹ノ巣１号公園",
        "address": "群馬県桐生市川内町2-91",
        "lng": 139.309798,
        "lat": 36.426752,
        "h": 107
      },
      {
        "name": "新堀公園",
        "address": "群馬県桐生市川内町3-532",
        "lng": 139.306217,
        "lat": 36.433645,
        "h": 75
      },
      {
        "name": "川内小学校",
        "address": "群馬県桐生市川内町3-572",
        "lng": 139.30541,
        "lat": 36.432754,
        "h": 107
      },
      {
        "name": "みやま園",
        "address": "群馬県桐生市川内町5-1199",
        "lng": 139.312203,
        "lat": 36.446443,
        "h": 66
      },
      {
        "name": "川内中学校",
        "address": "群馬県桐生市川内町5-358",
        "lng": 139.307022,
        "lat": 36.439359,
        "h": 107
      },
      {
        "name": "川内長寿センター",
        "address": "群馬県桐生市川内町5-398-1",
        "lng": 139.308447,
        "lat": 36.440586,
        "h": 107
      },
      {
        "name": "桜木小学校",
        "address": "群馬県桐生市相生町1-383",
        "lng": 139.319,
        "lat": 36.399015,
        "h": 107
      },
      {
        "name": "桜木西公民館",
        "address": "群馬県桐生市相生町1-451-1",
        "lng": 139.317982,
        "lat": 36.399344,
        "h": 75
      },
      {
        "name": "足仲児童公園",
        "address": "群馬県桐生市相生町1-507-9",
        "lng": 139.311318,
        "lat": 36.40383,
        "h": 75
      },
      {
        "name": "赤岩児童公園",
        "address": "群馬県桐生市相生町2-265-7",
        "lng": 139.316323,
        "lat": 36.411607,
        "h": 10
      },
      {
        "name": "相生幼稚園",
        "address": "群馬県桐生市相生町2-408-9",
        "lng": 139.31101,
        "lat": 36.412729,
        "h": 75
      },
      {
        "name": "相生小学校",
        "address": "群馬県桐生市相生町2-420",
        "lng": 139.309561,
        "lat": 36.41342,
        "h": 107
      },
      {
        "name": "相生保育園",
        "address": "群馬県桐生市相生町2-421-1",
        "lng": 139.305408,
        "lat": 36.416176,
        "h": 67
      },
      {
        "name": "愛宕児童公園",
        "address": "群馬県桐生市相生町2-486-17",
        "lng": 139.304468,
        "lat": 36.414782,
        "h": 75
      },
      {
        "name": "相生公民館",
        "address": "群馬県桐生市相生町2-620-14",
        "lng": 139.302338,
        "lat": 36.412148,
        "h": 75
      },
      {
        "name": "桐生市民体育館",
        "address": "群馬県桐生市相生町3-300",
        "lng": 139.299539,
        "lat": 36.420256,
        "h": 107
      },
      {
        "name": "桐生清桜高等学校",
        "address": "群馬県桐生市相生町3-551-1",
        "lng": 139.301949,
        "lat": 36.425263,
        "h": 107
      },
      {
        "name": "すみれ保育園",
        "address": "群馬県桐生市相生町3-593-15",
        "lng": 139.298376,
        "lat": 36.42527,
        "h": 65
      },
      {
        "name": "市民広場",
        "address": "群馬県桐生市相生町3-722-2",
        "lng": 139.310202,
        "lat": 36.418558,
        "h": 42
      },
      {
        "name": "相生中学校",
        "address": "群馬県桐生市相生町5-247",
        "lng": 139.300014,
        "lat": 36.409288,
        "h": 107
      },
      {
        "name": "相生町児童公園",
        "address": "群馬県桐生市相生町5-436-6",
        "lng": 139.295122,
        "lat": 36.415532,
        "h": 75
      },
      {
        "name": "相生町五丁目７号公園",
        "address": "群馬県桐生市相生町5-554-3",
        "lng": 139.291023,
        "lat": 36.412826,
        "h": 75
      },
      {
        "name": "天沼小学校",
        "address": "群馬県桐生市相生町5-713-1",
        "lng": 139.295259,
        "lat": 36.408041,
        "h": 107
      },
      {
        "name": "桜木幼稚園",
        "address": "群馬県桐生市相生町１－乙394",
        "lng": 139.319453,
        "lat": 36.397729,
        "h": 67
      },
      {
        "name": "東町児童公園",
        "address": "群馬県桐生市仲町1-832",
        "lng": 139.344252,
        "lat": 36.415026,
        "h": 10
      },
      {
        "name": "東小学校",
        "address": "群馬県桐生市仲町2-4-21",
        "lng": 139.342557,
        "lat": 36.41045,
        "h": 107
      },
      {
        "name": "群馬大学理工学部　体育館・工学部会館・　駐車場・テニスコート",
        "address": "群馬県桐生市天神町1-5-1",
        "lng": 139.350387,
        "lat": 36.423225,
        "h": 99
      },
      {
        "name": "ふれあいホーム",
        "address": "群馬県桐生市天神町3-14-16",
        "lng": 139.354882,
        "lat": 36.430131,
        "h": 2
      },
      {
        "name": "天神町児童公園",
        "address": "群馬県桐生市天神町3-344",
        "lng": 139.353522,
        "lat": 36.42711,
        "h": 10
      },
      {
        "name": "らららこども園",
        "address": "群馬県桐生市東1-12-17",
        "lng": 139.346946,
        "lat": 36.410326,
        "h": 2
      },
      {
        "name": "東一丁目児童公園",
        "address": "群馬県桐生市東1-910-22",
        "lng": 139.346833,
        "lat": 36.41317,
        "h": 10
      },
      {
        "name": "東三丁目児童公園",
        "address": "群馬県桐生市東3-1010",
        "lng": 139.350087,
        "lat": 36.41296,
        "h": 10
      },
      {
        "name": "清流中学校",
        "address": "群馬県桐生市東3-7-1",
        "lng": 139.350308,
        "lat": 36.41026,
        "h": 107
      },
      {
        "name": "東公民館",
        "address": "群馬県桐生市東5-6-8",
        "lng": 139.347306,
        "lat": 36.408137,
        "h": 75
      },
      {
        "name": "清水町児童公園",
        "address": "群馬県桐生市東7-17-1",
        "lng": 139.34382,
        "lat": 36.404423,
        "h": 10
      },
      {
        "name": "北公民館",
        "address": "群馬県桐生市東久方町3-3-26",
        "lng": 139.34678,
        "lat": 36.416883,
        "h": 67
      },
      {
        "name": "Ｒ高等学校　グラウンド",
        "address": "群馬県桐生市梅田町1-185-1",
        "lng": 139.357101,
        "lat": 36.434063,
        "h": 104
      },
      {
        "name": "たかぞのこども園",
        "address": "群馬県桐生市梅田町1-273-1",
        "lng": 139.357748,
        "lat": 36.437593,
        "h": 67
      },
      {
        "name": "梅田南小学校",
        "address": "群馬県桐生市梅田町2-179",
        "lng": 139.37983,
        "lat": 36.452302,
        "h": 107
      },
      {
        "name": "梅田中学校",
        "address": "群馬県桐生市梅田町2-347-1",
        "lng": 139.383296,
        "lat": 36.456468,
        "h": 105
      },
      {
        "name": "梅田ふるさとセンター",
        "address": "群馬県桐生市梅田町5-7568-1",
        "lng": 139.410996,
        "lat": 36.499246,
        "h": 65
      },
      {
        "name": "桐生高等学校",
        "address": "群馬県桐生市美原町1-39",
        "lng": 139.329411,
        "lat": 36.409219,
        "h": 107
      },
      {
        "name": "中央中学校",
        "address": "群馬県桐生市美原町2-15",
        "lng": 139.329312,
        "lat": 36.406637,
        "h": 107
      },
      {
        "name": "昭和小学校跡",
        "address": "群馬県桐生市美原町2-5",
        "lng": 139.329274,
        "lat": 36.407287,
        "h": 42
      },
      {
        "name": "昭和公民館",
        "address": "群馬県桐生市美原町3-6",
        "lng": 139.327902,
        "lat": 36.406657,
        "h": 75
      },
      {
        "name": "城の岡西公園",
        "address": "群馬県桐生市菱町1-3401-2",
        "lng": 139.348958,
        "lat": 36.402058,
        "h": 75
      },
      {
        "name": "城の岡東公園",
        "address": "群馬県桐生市菱町1-3405-1",
        "lng": 139.352075,
        "lat": 36.401791,
        "h": 73
      },
      {
        "name": "城の岡南公園",
        "address": "群馬県桐生市菱町1-3416-6",
        "lng": 139.350278,
        "lat": 36.400318,
        "h": 75
      },
      {
        "name": "群馬大学理工学部　菱グラウンド",
        "address": "群馬県桐生市菱町1-539-1",
        "lng": 139.361318,
        "lat": 36.405906,
        "h": 40
      },
      {
        "name": "菱公民館",
        "address": "群馬県桐生市菱町2-1349-1",
        "lng": 139.35899,
        "lat": 36.410102,
        "h": 75
      },
      {
        "name": "菱小学校",
        "address": "群馬県桐生市菱町2-1919-1",
        "lng": 139.356794,
        "lat": 36.413041,
        "h": 107
      },
      {
        "name": "桐生特別支援学校",
        "address": "群馬県桐生市菱町2-1955-1",
        "lng": 139.356855,
        "lat": 36.41414,
        "h": 107
      },
      {
        "name": "桐陽台　２　号公園",
        "address": "群馬県桐生市菱町2-3540-1",
        "lng": 139.358238,
        "lat": 36.40437,
        "h": 75
      },
      {
        "name": "桐陽台　３　号公園",
        "address": "群馬県桐生市菱町2-3541-1",
        "lng": 139.355572,
        "lat": 36.406494,
        "h": 75
      },
      {
        "name": "桐陽台　１　号公園",
        "address": "群馬県桐生市菱町2-3542-17",
        "lng": 139.358608,
        "lat": 36.407876,
        "h": 75
      },
      {
        "name": "菱保育園",
        "address": "群馬県桐生市菱町3-1992",
        "lng": 139.354732,
        "lat": 36.412108,
        "h": 67
      },
      {
        "name": "菱町四丁目集会所",
        "address": "群馬県桐生市菱町4-2283-1",
        "lng": 139.351775,
        "lat": 36.420052,
        "h": 2
      },
      {
        "name": "上菱児童公園",
        "address": "群馬県桐生市菱町5-570-4",
        "lng": 139.360687,
        "lat": 36.436277,
        "h": 73
      },
      {
        "name": "浜松町児童公園",
        "address": "群馬県桐生市浜松町1-810-1",
        "lng": 139.340461,
        "lat": 36.404275,
        "h": 2
      },
      {
        "name": "桐生市保健福祉会館",
        "address": "群馬県桐生市末広町13-4",
        "lng": 139.333835,
        "lat": 36.411246,
        "h": 107
      }
    ]
  },
  "10204": {
    "source": "国土地理院「指定緊急避難場所データ」",
    "asOf": "2026-06-19",
    "sites": [
      {
        "name": "伊勢崎市広瀬生涯学習館",
        "address": "群馬県伊勢崎市ひろせ町4080-5",
        "lng": 139.194613,
        "lat": 36.302239,
        "h": 8
      },
      {
        "name": "伊勢崎市立殖蓮第二小学校",
        "address": "群馬県伊勢崎市下植木町1203",
        "lng": 139.21511,
        "lat": 36.323758,
        "h": 9
      },
      {
        "name": "ほっとる～む・南部教室",
        "address": "群馬県伊勢崎市下道寺町163-1",
        "lng": 139.206573,
        "lat": 36.277247,
        "h": 8
      },
      {
        "name": "伊勢崎市立第四中学校",
        "address": "群馬県伊勢崎市下道寺町26",
        "lng": 139.204204,
        "lat": 36.278509,
        "h": 9
      },
      {
        "name": "伊勢崎市立境南中学校",
        "address": "群馬県伊勢崎市境188",
        "lng": 139.255402,
        "lat": 36.267351,
        "h": 8
      },
      {
        "name": "群馬県立伊勢崎高等特別支援学校",
        "address": "群馬県伊勢崎市境492",
        "lng": 139.253768,
        "lat": 36.271239,
        "h": 9
      },
      {
        "name": "伊勢崎市立境小学校",
        "address": "群馬県伊勢崎市境515",
        "lng": 139.252293,
        "lat": 36.272666,
        "h": 9
      },
      {
        "name": "伊勢崎市境公民館",
        "address": "群馬県伊勢崎市境598-1",
        "lng": 139.249711,
        "lat": 36.275168,
        "h": 8
      },
      {
        "name": "伊勢崎市境体育館",
        "address": "群馬県伊勢崎市境609-1",
        "lng": 139.249559,
        "lat": 36.27569,
        "h": 8
      },
      {
        "name": "伊勢崎市立境剛志小学校",
        "address": "群馬県伊勢崎市境下武士831",
        "lng": 139.23657,
        "lat": 36.275606,
        "h": 9
      },
      {
        "name": "伊勢崎市境剛志公民館",
        "address": "群馬県伊勢崎市境下武士862-3",
        "lng": 139.235059,
        "lat": 36.277436,
        "h": 8
      },
      {
        "name": "伊勢崎市立境西中学校",
        "address": "群馬県伊勢崎市境下武士872-2",
        "lng": 139.235379,
        "lat": 36.276734,
        "h": 9
      },
      {
        "name": "伊勢崎市立境北中学校",
        "address": "群馬県伊勢崎市境下渕名2011-1",
        "lng": 139.238592,
        "lat": 36.29927,
        "h": 9
      },
      {
        "name": "伊勢崎市立境采女小学校",
        "address": "群馬県伊勢崎市境下渕名2020",
        "lng": 139.238867,
        "lat": 36.300548,
        "h": 9
      },
      {
        "name": "伊勢崎市境采女公民館",
        "address": "群馬県伊勢崎市境下渕名2023-1",
        "lng": 139.237551,
        "lat": 36.300304,
        "h": 9
      },
      {
        "name": "伊勢崎市境社会福祉センター",
        "address": "群馬県伊勢崎市境女塚296",
        "lng": 139.269989,
        "lat": 36.274385,
        "h": 8
      },
      {
        "name": "伊勢崎市境児童センター",
        "address": "群馬県伊勢崎市境新栄12-4",
        "lng": 139.264443,
        "lat": 36.277874,
        "h": 9
      },
      {
        "name": "伊勢崎市境産業振興会館",
        "address": "群馬県伊勢崎市境新栄13-6",
        "lng": 139.264556,
        "lat": 36.278281,
        "h": 9
      },
      {
        "name": "旧伊勢崎市立境島小学校",
        "address": "群馬県伊勢崎市境島村1968-40",
        "lng": 139.241365,
        "lat": 36.248412,
        "h": 9
      },
      {
        "name": "伊勢崎市境島村公民館",
        "address": "群馬県伊勢崎市境島村2720",
        "lng": 139.253731,
        "lat": 36.246749,
        "h": 8
      },
      {
        "name": "伊勢崎市境武道館",
        "address": "群馬県伊勢崎市境萩原1750-2",
        "lng": 139.249661,
        "lat": 36.276187,
        "h": 8
      },
      {
        "name": "伊勢崎市立境東小学校",
        "address": "群馬県伊勢崎市境米岡253-2",
        "lng": 139.261455,
        "lat": 36.267585,
        "h": 9
      },
      {
        "name": "伊勢崎市境東公民館",
        "address": "群馬県伊勢崎市境米岡764-1",
        "lng": 139.260891,
        "lat": 36.263011,
        "h": 8
      },
      {
        "name": "伊勢崎市境総合文化センター",
        "address": "群馬県伊勢崎市境木島818",
        "lng": 139.248649,
        "lat": 36.286597,
        "h": 9
      },
      {
        "name": "伊勢崎市図書館",
        "address": "群馬県伊勢崎市曲輪町22-21",
        "lng": 139.189635,
        "lat": 36.322507,
        "h": 9
      },
      {
        "name": "伊勢崎市立第一幼稚園",
        "address": "群馬県伊勢崎市曲輪町24-26",
        "lng": 139.191916,
        "lat": 36.323619,
        "h": 9
      },
      {
        "name": "伊勢崎市立北小学校",
        "address": "群馬県伊勢崎市曲輪町28-24",
        "lng": 139.191178,
        "lat": 36.322599,
        "h": 9
      },
      {
        "name": "上武大学",
        "address": "群馬県伊勢崎市戸谷塚町634-1",
        "lng": 139.177042,
        "lat": 36.27882,
        "h": 9
      },
      {
        "name": "伊勢崎市赤堀あさひ児童館",
        "address": "群馬県伊勢崎市香林町1-1348-1",
        "lng": 139.248449,
        "lat": 36.385321,
        "h": 8
      },
      {
        "name": "伊勢崎市立赤堀東小学校",
        "address": "群馬県伊勢崎市香林町1-260-2",
        "lng": 139.246332,
        "lat": 36.385596,
        "h": 9
      },
      {
        "name": "伊勢崎市立あずま北小学校",
        "address": "群馬県伊勢崎市国定町2-1627",
        "lng": 139.245754,
        "lat": 36.359962,
        "h": 9
      },
      {
        "name": "群馬県立精神医療センター",
        "address": "群馬県伊勢崎市国定町2-2374",
        "lng": 139.23305,
        "lat": 36.359987,
        "h": 9
      },
      {
        "name": "群馬県総合教育センター・みらい共創中学校",
        "address": "群馬県伊勢崎市今泉町1-233-2",
        "lng": 139.208877,
        "lat": 36.31482,
        "h": 9
      },
      {
        "name": "群馬県立伊勢崎清明高等学校",
        "address": "群馬県伊勢崎市今泉町2-331-6",
        "lng": 139.195744,
        "lat": 36.310397,
        "h": 9
      },
      {
        "name": "伊勢崎市立あずま南小学校",
        "address": "群馬県伊勢崎市三室町4290",
        "lng": 139.243618,
        "lat": 36.328963,
        "h": 9
      },
      {
        "name": "伊勢崎市立隣保館",
        "address": "群馬県伊勢崎市山王町1422-1",
        "lng": 139.202473,
        "lat": 36.29303,
        "h": 8
      },
      {
        "name": "東京福祉大学",
        "address": "群馬県伊勢崎市山王町2020-1",
        "lng": 139.193801,
        "lat": 36.286171,
        "h": 9
      },
      {
        "name": "いせさき市民のもり公園",
        "address": "群馬県伊勢崎市山王町2663",
        "lng": 139.198618,
        "lat": 36.29443,
        "h": 8
      },
      {
        "name": "伊勢崎市教育研究所",
        "address": "群馬県伊勢崎市鹿島町581-1",
        "lng": 139.202811,
        "lat": 36.332822,
        "h": 8
      },
      {
        "name": "伊勢崎市清掃リサイクルセンター２１",
        "address": "群馬県伊勢崎市柴町954",
        "lng": 139.16224,
        "lat": 36.299025,
        "h": 9
      },
      {
        "name": "伊勢崎市立北第二小学校",
        "address": "群馬県伊勢崎市宗高町125",
        "lng": 139.20059,
        "lat": 36.328745,
        "h": 9
      },
      {
        "name": "伊勢崎市立坂東小学校",
        "address": "群馬県伊勢崎市除ケ町422",
        "lng": 139.189864,
        "lat": 36.280223,
        "h": 9
      },
      {
        "name": "伊勢崎市絣の郷",
        "address": "群馬県伊勢崎市昭和町1712-2",
        "lng": 139.204109,
        "lat": 36.331302,
        "h": 9
      },
      {
        "name": "伊勢崎市文化会館",
        "address": "群馬県伊勢崎市昭和町3918",
        "lng": 139.211419,
        "lat": 36.32761,
        "h": 9
      },
      {
        "name": "伊勢崎市立四ツ葉学園中等教育学校",
        "address": "群馬県伊勢崎市上植木本町1702-1",
        "lng": 139.208659,
        "lat": 36.332399,
        "h": 9
      },
      {
        "name": "伊勢崎市立殖蓮中学校",
        "address": "群馬県伊勢崎市上植木本町2152-2",
        "lng": 139.214089,
        "lat": 36.330768,
        "h": 9
      },
      {
        "name": "伊勢崎市立殖蓮幼稚園",
        "address": "群馬県伊勢崎市上植木本町2740-2",
        "lng": 139.210604,
        "lat": 36.334335,
        "h": 8
      },
      {
        "name": "伊勢崎市殖蓮公民館",
        "address": "群馬県伊勢崎市上植木本町2760",
        "lng": 139.210258,
        "lat": 36.333822,
        "h": 8
      },
      {
        "name": "伊勢崎市立殖蓮小学校",
        "address": "群馬県伊勢崎市上植木本町2763",
        "lng": 139.211715,
        "lat": 36.334004,
        "h": 9
      },
      {
        "name": "群馬県立伊勢崎興陽高等学校",
        "address": "群馬県伊勢崎市上泉町212",
        "lng": 139.191452,
        "lat": 36.31384,
        "h": 9
      },
      {
        "name": "伊勢崎市立南小学校",
        "address": "群馬県伊勢崎市上泉町310",
        "lng": 139.194564,
        "lat": 36.31345,
        "h": 9
      },
      {
        "name": "伊勢崎市南公民館",
        "address": "群馬県伊勢崎市上泉町619-1",
        "lng": 139.189148,
        "lat": 36.312668,
        "h": 8
      },
      {
        "name": "伊勢崎市立広瀬小学校",
        "address": "群馬県伊勢崎市新栄町4074-1",
        "lng": 139.192438,
        "lat": 36.30334,
        "h": 9
      },
      {
        "name": "伊勢崎市立赤堀小学校",
        "address": "群馬県伊勢崎市西久保町1-72",
        "lng": 139.228603,
        "lat": 36.379463,
        "h": 9
      },
      {
        "name": "伊勢崎市立あかぼり幼稚園",
        "address": "群馬県伊勢崎市西久保町2-100",
        "lng": 139.231602,
        "lat": 36.380836,
        "h": 9
      },
      {
        "name": "伊勢崎市赤堀児童館",
        "address": "群馬県伊勢崎市西久保町2-105",
        "lng": 139.231623,
        "lat": 36.380266,
        "h": 9
      },
      {
        "name": "伊勢崎市赤堀保健福祉センター",
        "address": "群馬県伊勢崎市西久保町2-123-1",
        "lng": 139.232326,
        "lat": 36.380629,
        "h": 9
      },
      {
        "name": "伊勢崎市立赤堀中学校",
        "address": "群馬県伊勢崎市西久保町2-329-1",
        "lng": 139.237283,
        "lat": 36.374944,
        "h": 9
      },
      {
        "name": "伊勢崎市赤堀公民館",
        "address": "群馬県伊勢崎市西久保町2-81",
        "lng": 139.230752,
        "lat": 36.381255,
        "h": 9
      },
      {
        "name": "伊勢崎市赤堀体育館",
        "address": "群馬県伊勢崎市西久保町2-81",
        "lng": 139.230237,
        "lat": 36.381419,
        "h": 9
      },
      {
        "name": "伊勢崎市ふくしプラザ",
        "address": "群馬県伊勢崎市中央町26-22",
        "lng": 139.198473,
        "lat": 36.316394,
        "h": 9
      },
      {
        "name": "群馬県立伊勢崎工業高等学校",
        "address": "群馬県伊勢崎市中央町3-8",
        "lng": 139.202273,
        "lat": 36.321882,
        "h": 9
      },
      {
        "name": "伊勢崎市華蔵寺公園・市民体育館",
        "address": "群馬県伊勢崎市堤西町93",
        "lng": 139.193259,
        "lat": 36.34186,
        "h": 9
      },
      {
        "name": "伊勢崎市立宮郷中学校",
        "address": "群馬県伊勢崎市田中島町1065",
        "lng": 139.15724,
        "lat": 36.322231,
        "h": 9
      },
      {
        "name": "伊勢崎市宮郷公民館",
        "address": "群馬県伊勢崎市田中島町1102",
        "lng": 139.159028,
        "lat": 36.320529,
        "h": 8
      },
      {
        "name": "伊勢崎市立宮郷小学校",
        "address": "群馬県伊勢崎市田中島町1475-4",
        "lng": 139.163507,
        "lat": 36.319866,
        "h": 9
      },
      {
        "name": "伊勢崎市立宮郷幼稚園",
        "address": "群馬県伊勢崎市田中島町1486-8",
        "lng": 139.16348,
        "lat": 36.32186,
        "h": 8
      },
      {
        "name": "伊勢崎市あずまスタジアム",
        "address": "群馬県伊勢崎市田部井町3-1908",
        "lng": 139.257753,
        "lat": 36.356176,
        "h": 9
      },
      {
        "name": "伊勢崎市あずま公民館",
        "address": "群馬県伊勢崎市田部井町3-2090",
        "lng": 139.256837,
        "lat": 36.345727,
        "h": 9
      },
      {
        "name": "伊勢崎市あずま体育館",
        "address": "群馬県伊勢崎市田部井町3-2090",
        "lng": 139.25659,
        "lat": 36.346483,
        "h": 9
      },
      {
        "name": "伊勢崎市みやまセンター",
        "address": "群馬県伊勢崎市東小保方町3243-2",
        "lng": 139.251743,
        "lat": 36.332866,
        "h": 8
      },
      {
        "name": "伊勢崎市立あずま幼稚園",
        "address": "群馬県伊勢崎市東町2672-1",
        "lng": 139.245804,
        "lat": 36.345035,
        "h": 9
      },
      {
        "name": "伊勢崎市立あずま中学校",
        "address": "群馬県伊勢崎市東町2707-2",
        "lng": 139.24352,
        "lat": 36.343887,
        "h": 9
      },
      {
        "name": "伊勢崎市立あずま小学校",
        "address": "群馬県伊勢崎市東町2770",
        "lng": 139.242012,
        "lat": 36.345088,
        "h": 9
      },
      {
        "name": "群馬県立伊勢崎高等学校",
        "address": "群馬県伊勢崎市南千木町5239-1",
        "lng": 139.216581,
        "lat": 36.296609,
        "h": 9
      },
      {
        "name": "伊勢崎市三郷公民館",
        "address": "群馬県伊勢崎市波志江町1029",
        "lng": 139.183245,
        "lat": 36.344605,
        "h": 9
      },
      {
        "name": "群馬県立伊勢崎商業高等学校",
        "address": "群馬県伊勢崎市波志江町1116",
        "lng": 139.181505,
        "lat": 36.340189,
        "h": 9
      },
      {
        "name": "伊勢崎市立三郷小学校",
        "address": "群馬県伊勢崎市波志江町1620",
        "lng": 139.184231,
        "lat": 36.343294,
        "h": 9
      },
      {
        "name": "伊勢崎市立第三中学校",
        "address": "群馬県伊勢崎市波志江町1903-1",
        "lng": 139.189966,
        "lat": 36.343497,
        "h": 9
      },
      {
        "name": "伊勢崎市青少年育成センター",
        "address": "群馬県伊勢崎市波志江町2237-6",
        "lng": 139.190132,
        "lat": 36.348562,
        "h": 9
      },
      {
        "name": "伊勢崎市立豊受小学校",
        "address": "群馬県伊勢崎市馬見塚町1130",
        "lng": 139.211301,
        "lat": 36.274753,
        "h": 9
      },
      {
        "name": "伊勢崎市豊受公民館",
        "address": "群馬県伊勢崎市馬見塚町1297-1",
        "lng": 139.214914,
        "lat": 36.277476,
        "h": 8
      },
      {
        "name": "子供のもり公園伊勢崎",
        "address": "群馬県伊勢崎市馬見塚町1808-1",
        "lng": 139.221096,
        "lat": 36.278869,
        "h": 8
      },
      {
        "name": "伊勢崎市児童センター",
        "address": "群馬県伊勢崎市粕川町1609",
        "lng": 139.212074,
        "lat": 36.313631,
        "h": 9
      },
      {
        "name": "伊勢崎市茂呂公民館",
        "address": "群馬県伊勢崎市美茂呂町3032-7",
        "lng": 139.206204,
        "lat": 36.300981,
        "h": 8
      },
      {
        "name": "伊勢崎市民プラザ",
        "address": "群馬県伊勢崎市富塚町220-13",
        "lng": 139.190434,
        "lat": 36.276419,
        "h": 9
      },
      {
        "name": "伊勢崎市北公民館",
        "address": "群馬県伊勢崎市平和町27-32",
        "lng": 139.198148,
        "lat": 36.321459,
        "h": 9
      },
      {
        "name": "伊勢崎市立赤堀南小学校",
        "address": "群馬県伊勢崎市堀下町264-1",
        "lng": 139.213609,
        "lat": 36.366914,
        "h": 9
      },
      {
        "name": "伊勢崎市赤堀南児童館",
        "address": "群馬県伊勢崎市堀下町276",
        "lng": 139.213768,
        "lat": 36.367595,
        "h": 9
      },
      {
        "name": "伊勢崎市立第二中学校",
        "address": "群馬県伊勢崎市堀口町237-1",
        "lng": 139.185945,
        "lat": 36.291107,
        "h": 9
      },
      {
        "name": "伊勢崎市立名和幼稚園",
        "address": "群馬県伊勢崎市堀口町260",
        "lng": 139.185001,
        "lat": 36.291485,
        "h": 8
      },
      {
        "name": "伊勢崎市名和公民館",
        "address": "群馬県伊勢崎市堀口町492",
        "lng": 139.180108,
        "lat": 36.291511,
        "h": 8
      },
      {
        "name": "伊勢崎市立名和小学校",
        "address": "群馬県伊勢崎市堀口町502-1",
        "lng": 139.18102,
        "lat": 36.290307,
        "h": 9
      },
      {
        "name": "伊勢崎市立第一中学校",
        "address": "群馬県伊勢崎市茂呂町1-24-1",
        "lng": 139.195503,
        "lat": 36.307823,
        "h": 8
      },
      {
        "name": "伊勢崎市立茂呂小学校",
        "address": "群馬県伊勢崎市茂呂町2-2169-1",
        "lng": 139.20782,
        "lat": 36.303573,
        "h": 9
      },
      {
        "name": "伊勢崎市立宮郷第二小学校",
        "address": "群馬県伊勢崎市連取町3069-1",
        "lng": 139.175885,
        "lat": 36.317655,
        "h": 9
      },
      {
        "name": "伊勢崎市西部公園",
        "address": "群馬県伊勢崎市連取本町1",
        "lng": 139.176803,
        "lat": 36.32521,
        "h": 8
      }
    ]
  },
  "10205": {
    "source": "国土地理院「指定緊急避難場所データ」",
    "asOf": "2026-06-19",
    "sites": [
      {
        "name": "沖之郷町集会所（地震は敷地のみ）",
        "address": "群馬県太田市沖之郷町839",
        "lng": 139.432204,
        "lat": 36.288825,
        "h": 10
      },
      {
        "name": "沖野公園",
        "address": "群馬県太田市沖野町451-1",
        "lng": 139.322664,
        "lat": 36.288146,
        "h": 10
      },
      {
        "name": "県立太田フレックス高校",
        "address": "群馬県太田市下田島町1243-1",
        "lng": 139.315713,
        "lat": 36.265432,
        "h": 11
      },
      {
        "name": "新浜公園",
        "address": "群馬県太田市下浜田町1088-2",
        "lng": 139.36514,
        "lat": 36.28403,
        "h": 10
      },
      {
        "name": "岩松公園グラウンド",
        "address": "群馬県太田市岩松町802-1",
        "lng": 139.330155,
        "lat": 36.262531,
        "h": 10
      },
      {
        "name": "寄合公民館",
        "address": "群馬県太田市寄合町164-1",
        "lng": 139.321148,
        "lat": 36.341808,
        "h": 11
      },
      {
        "name": "尾島中学校",
        "address": "群馬県太田市亀岡町584-1",
        "lng": 139.312772,
        "lat": 36.255226,
        "h": 10
      },
      {
        "name": "尾島小学校",
        "address": "群馬県太田市亀岡町61-2",
        "lng": 139.319396,
        "lat": 36.257482,
        "h": 10
      },
      {
        "name": "尾島生涯学習センター",
        "address": "群馬県太田市亀岡町63-1",
        "lng": 139.321246,
        "lat": 36.256614,
        "h": 10
      },
      {
        "name": "尾島体育館",
        "address": "群馬県太田市亀岡町656-1",
        "lng": 139.310607,
        "lat": 36.254934,
        "h": 10
      },
      {
        "name": "尾島公園グラウンド",
        "address": "群馬県太田市亀岡町99",
        "lng": 139.321181,
        "lat": 36.255077,
        "h": 10
      },
      {
        "name": "老人福祉センターかたくりの里・　多目的広場",
        "address": "群馬県太田市吉沢町5292",
        "lng": 139.37482,
        "lat": 36.341058,
        "h": 11
      },
      {
        "name": "岩神公園",
        "address": "群馬県太田市吉沢町904-7",
        "lng": 139.370646,
        "lat": 36.357655,
        "h": 10
      },
      {
        "name": "北の杜学園（旧　北中学校）",
        "address": "群馬県太田市熊野町2-1",
        "lng": 139.38483,
        "lat": 36.303708,
        "h": 11
      },
      {
        "name": "原宿町住民センター",
        "address": "群馬県太田市原宿町3627",
        "lng": 139.38144,
        "lat": 36.353052,
        "h": 10
      },
      {
        "name": "古戸町集会所（敷地のみ）",
        "address": "群馬県太田市古戸町429",
        "lng": 139.37866,
        "lat": 36.249766,
        "h": 10
      },
      {
        "name": "沢野行政センター",
        "address": "群馬県太田市高林西町882-5",
        "lng": 139.365908,
        "lat": 36.259143,
        "h": 11
      },
      {
        "name": "南ふれあいセンター",
        "address": "群馬県太田市高林東町1302",
        "lng": 139.375484,
        "lat": 36.253693,
        "h": 10
      },
      {
        "name": "南小学校",
        "address": "群馬県太田市高林東町1372",
        "lng": 139.376357,
        "lat": 36.255747,
        "h": 11
      },
      {
        "name": "沢野スポーツ広場",
        "address": "群馬県太田市高林北町894",
        "lng": 139.364415,
        "lat": 36.259014,
        "h": 10
      },
      {
        "name": "南中学校",
        "address": "群馬県太田市高林北町955-1",
        "lng": 139.363482,
        "lat": 36.262043,
        "h": 11
      },
      {
        "name": "市立太田高校",
        "address": "群馬県太田市細谷町1510",
        "lng": 139.352922,
        "lat": 36.281627,
        "h": 11
      },
      {
        "name": "第一老人福祉センター",
        "address": "群馬県太田市細谷町1689",
        "lng": 139.355272,
        "lat": 36.282656,
        "h": 11
      },
      {
        "name": "山之神地区公民館（地震は敷地のみ）",
        "address": "群馬県太田市山之神町422",
        "lng": 139.313291,
        "lat": 36.349599,
        "h": 11
      },
      {
        "name": "新星公民館",
        "address": "群馬県太田市山之神町586",
        "lng": 139.303257,
        "lat": 36.341915,
        "h": 11
      },
      {
        "name": "九合６号公園",
        "address": "群馬県太田市小舞木町277",
        "lng": 139.389668,
        "lat": 36.283307,
        "h": 10
      },
      {
        "name": "太田市北部運動公園",
        "address": "群馬県太田市上強戸町2079-3",
        "lng": 139.36123,
        "lat": 36.339942,
        "h": 10
      },
      {
        "name": "太田市こども館",
        "address": "群馬県太田市城西町91",
        "lng": 139.337275,
        "lat": 36.314296,
        "h": 11
      },
      {
        "name": "駒形小学校",
        "address": "群馬県太田市植木野町7",
        "lng": 139.414029,
        "lat": 36.314155,
        "h": 10
      },
      {
        "name": "下田中会館",
        "address": "群馬県太田市新田下田中町656-1",
        "lng": 139.275545,
        "lat": 36.288175,
        "h": 10
      },
      {
        "name": "新田総合体育館",
        "address": "群馬県太田市新田金井町607",
        "lng": 139.296087,
        "lat": 36.300976,
        "h": 11
      },
      {
        "name": "生品中学校",
        "address": "群馬県太田市新田市野井町121",
        "lng": 139.310221,
        "lat": 36.315595,
        "h": 11
      },
      {
        "name": "市多村新田多目的ホール",
        "address": "群馬県太田市新田市野井町3059",
        "lng": 139.30153,
        "lat": 36.323191,
        "h": 11
      },
      {
        "name": "新田武道館",
        "address": "群馬県太田市新田上江田町721-1",
        "lng": 139.298711,
        "lat": 36.298288,
        "h": 11
      },
      {
        "name": "上中公園",
        "address": "群馬県太田市新田上中町459-4",
        "lng": 139.273593,
        "lat": 36.328191,
        "h": 10
      },
      {
        "name": "綿打中学校",
        "address": "群馬県太田市新田上田中町182",
        "lng": 139.27625,
        "lat": 36.299879,
        "h": 11
      },
      {
        "name": "綿打コミュニティ運動公園",
        "address": "群馬県太田市新田上田中町668-2",
        "lng": 139.279445,
        "lat": 36.303514,
        "h": 10
      },
      {
        "name": "綿打小学校",
        "address": "群馬県太田市新田上田中町795-3",
        "lng": 139.277924,
        "lat": 36.308651,
        "h": 11
      },
      {
        "name": "早川公園",
        "address": "群馬県太田市新田早川町15",
        "lng": 139.261628,
        "lat": 36.292186,
        "h": 10
      },
      {
        "name": "いずみ中央公園",
        "address": "群馬県太田市新田早川町337",
        "lng": 139.271123,
        "lat": 36.296847,
        "h": 10
      },
      {
        "name": "生品コミュニティ運動公園",
        "address": "群馬県太田市新田村田町1044-1",
        "lng": 139.318267,
        "lat": 36.318399,
        "h": 10
      },
      {
        "name": "生品行政センター",
        "address": "群馬県太田市新田村田町1107-1",
        "lng": 139.312831,
        "lat": 36.315567,
        "h": 11
      },
      {
        "name": "生品小学校",
        "address": "群馬県太田市新田村田町1365",
        "lng": 139.314051,
        "lat": 36.315471,
        "h": 11
      },
      {
        "name": "村田区民会館・公園",
        "address": "群馬県太田市新田村田町468",
        "lng": 139.312076,
        "lat": 36.305613,
        "h": 11
      },
      {
        "name": "綿打行政センター",
        "address": "群馬県太田市新田大根町953-1",
        "lng": 139.278977,
        "lat": 36.311137,
        "h": 11
      },
      {
        "name": "県立新田暁高校",
        "address": "群馬県太田市新田大根町999",
        "lng": 139.279695,
        "lat": 36.316159,
        "h": 11
      },
      {
        "name": "木崎コミュニティ運動公園",
        "address": "群馬県太田市新田中江田町1110",
        "lng": 139.294734,
        "lat": 36.283093,
        "h": 10
      },
      {
        "name": "中江田本郷会館",
        "address": "群馬県太田市新田中江田町447-2",
        "lng": 139.291572,
        "lat": 36.275591,
        "h": 11
      },
      {
        "name": "新田福祉総合センター",
        "address": "群馬県太田市新田反町町831-3",
        "lng": 139.3016,
        "lat": 36.299772,
        "h": 10
      },
      {
        "name": "木崎小学校",
        "address": "群馬県太田市新田木崎町1121",
        "lng": 139.305096,
        "lat": 36.280876,
        "h": 11
      },
      {
        "name": "木崎行政センター",
        "address": "群馬県太田市新田木崎町1215-1",
        "lng": 139.301481,
        "lat": 36.281699,
        "h": 11
      },
      {
        "name": "木崎中学校",
        "address": "群馬県太田市新田木崎町301",
        "lng": 139.302712,
        "lat": 36.274101,
        "h": 11
      },
      {
        "name": "城西小学校",
        "address": "群馬県太田市新野町127",
        "lng": 139.34763,
        "lat": 36.309016,
        "h": 11
      },
      {
        "name": "鳥之郷スポーツ広場",
        "address": "群馬県太田市新野町1390",
        "lng": 139.346489,
        "lat": 36.30797,
        "h": 10
      },
      {
        "name": "鳥之郷行政センター",
        "address": "群馬県太田市新野町203",
        "lng": 139.345773,
        "lat": 36.308516,
        "h": 11
      },
      {
        "name": "城西中学校",
        "address": "群馬県太田市新野町74",
        "lng": 139.348935,
        "lat": 36.305018,
        "h": 11
      },
      {
        "name": "強戸スポーツ広場",
        "address": "群馬県太田市菅塩町345",
        "lng": 139.339858,
        "lat": 36.341653,
        "h": 10
      },
      {
        "name": "強戸行政センター",
        "address": "群馬県太田市菅塩町345",
        "lng": 139.340671,
        "lat": 36.341302,
        "h": 11
      },
      {
        "name": "世良田生涯学習センター",
        "address": "群馬県太田市世良田町1535-4",
        "lng": 139.281658,
        "lat": 36.266103,
        "h": 10
      },
      {
        "name": "世良田公園グラウンド",
        "address": "群馬県太田市世良田町1552-1",
        "lng": 139.282722,
        "lat": 36.266148,
        "h": 10
      },
      {
        "name": "世良田小学校",
        "address": "群馬県太田市世良田町3113-7",
        "lng": 139.276393,
        "lat": 36.261654,
        "h": 10
      },
      {
        "name": "薬師公園",
        "address": "群馬県太田市世良田町3141",
        "lng": 139.271306,
        "lat": 36.260694,
        "h": 10
      },
      {
        "name": "西新町中央公園",
        "address": "群馬県太田市西新町128",
        "lng": 139.337251,
        "lat": 36.273954,
        "h": 10
      },
      {
        "name": "西新町南公園",
        "address": "群馬県太田市西新町69",
        "lng": 139.339665,
        "lat": 36.268805,
        "h": 10
      },
      {
        "name": "西長岡原住民センター",
        "address": "群馬県太田市西長岡町223-3",
        "lng": 139.327948,
        "lat": 36.341956,
        "h": 11
      },
      {
        "name": "西長岡住民センター",
        "address": "群馬県太田市西長岡町769",
        "lng": 139.333145,
        "lat": 36.348959,
        "h": 11
      },
      {
        "name": "県立太田高校",
        "address": "群馬県太田市西本町12-2",
        "lng": 139.365812,
        "lat": 36.293826,
        "h": 11
      },
      {
        "name": "宝泉行政センター",
        "address": "群馬県太田市西野谷町38-2",
        "lng": 139.332385,
        "lat": 36.282267,
        "h": 11
      },
      {
        "name": "宝泉スポーツ広場",
        "address": "群馬県太田市西野谷町40-4",
        "lng": 139.331238,
        "lat": 36.281913,
        "h": 10
      },
      {
        "name": "強戸ふれあいセンター",
        "address": "群馬県太田市石橋町856-1",
        "lng": 139.33855,
        "lat": 36.332206,
        "h": 11
      },
      {
        "name": "太田市宝南センター",
        "address": "群馬県太田市泉町1405",
        "lng": 139.315576,
        "lat": 36.270138,
        "h": 10
      },
      {
        "name": "県立太田東高校",
        "address": "群馬県太田市台之郷町448",
        "lng": 139.412772,
        "lat": 36.307188,
        "h": 10
      },
      {
        "name": "韮川小学校",
        "address": "群馬県太田市台之郷町999",
        "lng": 139.403037,
        "lat": 36.304256,
        "h": 11
      },
      {
        "name": "大久保公民館",
        "address": "群馬県太田市大久保町223-1",
        "lng": 139.272318,
        "lat": 36.34534,
        "h": 11
      },
      {
        "name": "大原一区公民館（地震は敷地のみ）",
        "address": "群馬県太田市大原町1193-4",
        "lng": 139.286204,
        "lat": 36.370147,
        "h": 11
      },
      {
        "name": "藪塚本町西部ふるさと公園",
        "address": "群馬県太田市大原町1604-1",
        "lng": 139.282537,
        "lat": 36.359381,
        "h": 10
      },
      {
        "name": "藪塚本町南小学校",
        "address": "群馬県太田市大原町2201-1",
        "lng": 139.282107,
        "lat": 36.344154,
        "h": 11
      },
      {
        "name": "藪塚本町社会体育館",
        "address": "群馬県太田市大原町383-70",
        "lng": 139.299329,
        "lat": 36.353527,
        "h": 11
      },
      {
        "name": "藪塚本町中央運動公園",
        "address": "群馬県太田市大原町383-75",
        "lng": 139.298499,
        "lat": 36.352742,
        "h": 10
      },
      {
        "name": "藪塚本町中央公民館",
        "address": "群馬県太田市大原町505",
        "lng": 139.297739,
        "lat": 36.356709,
        "h": 11
      },
      {
        "name": "老人福祉センター藪塚いこいの湯",
        "address": "群馬県太田市大原町641-2",
        "lng": 139.299027,
        "lat": 36.358054,
        "h": 11
      },
      {
        "name": "藪塚本町中学校",
        "address": "群馬県太田市大原町695",
        "lng": 139.294726,
        "lat": 36.359012,
        "h": 11
      },
      {
        "name": "毛里田小学校",
        "address": "群馬県太田市只上町970-1",
        "lng": 139.390171,
        "lat": 36.337986,
        "h": 10
      },
      {
        "name": "宝泉南小学校",
        "address": "群馬県太田市中根町261-1",
        "lng": 139.325417,
        "lat": 36.274315,
        "h": 11
      },
      {
        "name": "サン・スポーツランド",
        "address": "群馬県太田市鳥山上町2282",
        "lng": 139.34168,
        "lat": 36.326829,
        "h": 10
      },
      {
        "name": "高齢者総合福祉センター",
        "address": "群馬県太田市鳥山上町2313",
        "lng": 139.341275,
        "lat": 36.328242,
        "h": 10
      },
      {
        "name": "鳥之郷小学校",
        "address": "群馬県太田市鶴生田町83-2",
        "lng": 139.357357,
        "lat": 36.317581,
        "h": 11
      },
      {
        "name": "強戸中学校",
        "address": "群馬県太田市天良町72-3",
        "lng": 139.335005,
        "lat": 36.333525,
        "h": 11
      },
      {
        "name": "強戸小学校",
        "address": "群馬県太田市天良町858-2",
        "lng": 139.337798,
        "lat": 36.333238,
        "h": 11
      },
      {
        "name": "東金井町一区区民会館（地震は敷地のみ）",
        "address": "群馬県太田市東金井町1096",
        "lng": 139.389958,
        "lat": 36.321754,
        "h": 11
      },
      {
        "name": "東金井二区集会所（地震は敷地のみ）",
        "address": "群馬県太田市東金井町409",
        "lng": 139.388903,
        "lat": 36.313436,
        "h": 11
      },
      {
        "name": "東今泉町集会所",
        "address": "群馬県太田市東今泉町140-1",
        "lng": 139.385402,
        "lat": 36.323252,
        "h": 11
      },
      {
        "name": "若富公園",
        "address": "群馬県太田市東新町230",
        "lng": 139.398604,
        "lat": 36.324321,
        "h": 10
      },
      {
        "name": "東新町中央公園",
        "address": "群馬県太田市東新町806",
        "lng": 139.415749,
        "lat": 36.328245,
        "h": 10
      },
      {
        "name": "韮川スポーツ広場",
        "address": "群馬県太田市東長岡町1808",
        "lng": 139.399923,
        "lat": 36.302253,
        "h": 10
      },
      {
        "name": "韮川行政センター",
        "address": "群馬県太田市東長岡町1853",
        "lng": 139.398962,
        "lat": 36.302154,
        "h": 11
      },
      {
        "name": "太田公民館東別館",
        "address": "群馬県太田市東本町53-20",
        "lng": 139.379372,
        "lat": 36.300251,
        "h": 11
      },
      {
        "name": "（旧）太田東小学校",
        "address": "群馬県太田市東本町53-30",
        "lng": 139.379714,
        "lat": 36.30189,
        "h": 11
      },
      {
        "name": "旭中学校",
        "address": "群馬県太田市東矢島町1082",
        "lng": 139.381326,
        "lat": 36.274204,
        "h": 11
      },
      {
        "name": "旭小学校",
        "address": "群馬県太田市東矢島町1249",
        "lng": 139.3852,
        "lat": 36.272678,
        "h": 11
      },
      {
        "name": "県立太田特別支援学校",
        "address": "群馬県太田市藤阿久町26-1",
        "lng": 139.358888,
        "lat": 36.284207,
        "h": 11
      },
      {
        "name": "西藤中央公園",
        "address": "群馬県太田市藤阿久町493-1",
        "lng": 139.358004,
        "lat": 36.29325,
        "h": 10
      },
      {
        "name": "宝泉東小学校",
        "address": "群馬県太田市藤久良町1",
        "lng": 139.353019,
        "lat": 36.293261,
        "h": 11
      },
      {
        "name": "徳川会館",
        "address": "群馬県太田市徳川町390-1",
        "lng": 139.286316,
        "lat": 36.254272,
        "h": 10
      },
      {
        "name": "内ケ島町目塚会館・広場",
        "address": "群馬県太田市内ケ島町1342-4",
        "lng": 139.397825,
        "lat": 36.292556,
        "h": 11
      },
      {
        "name": "武道館",
        "address": "群馬県太田市内ケ島町384-2",
        "lng": 139.394462,
        "lat": 36.277004,
        "h": 11
      },
      {
        "name": "ふたば公園",
        "address": "群馬県太田市南ヶ丘町1258-1",
        "lng": 139.327134,
        "lat": 36.2483,
        "h": 10
      },
      {
        "name": "南矢島中央公園",
        "address": "群馬県太田市南矢島町370",
        "lng": 139.383328,
        "lat": 36.261947,
        "h": 10
      },
      {
        "name": "城東中学校",
        "address": "群馬県太田市韮川町1",
        "lng": 139.403604,
        "lat": 36.313285,
        "h": 10
      },
      {
        "name": "太田市ボランティアセンター・尾島庁舎",
        "address": "群馬県太田市粕川町520",
        "lng": 139.300617,
        "lat": 36.262199,
        "h": 10
      },
      {
        "name": "道の駅おおた",
        "address": "群馬県太田市粕川町701-1",
        "lng": 139.296358,
        "lat": 36.264901,
        "h": 10
      },
      {
        "name": "八重笠集会所・八重笠町ちびっ子広場（地震は広場のみ）",
        "address": "群馬県太田市八重笠町447",
        "lng": 139.426972,
        "lat": 36.273763,
        "h": 10
      },
      {
        "name": "県立太田女子高校",
        "address": "群馬県太田市八幡町16-7",
        "lng": 139.364269,
        "lat": 36.298248,
        "h": 11
      },
      {
        "name": "西中学校",
        "address": "群馬県太田市八幡町24-1",
        "lng": 139.366099,
        "lat": 36.300245,
        "h": 11
      },
      {
        "name": "太田市運動公園",
        "address": "群馬県太田市飯塚町1059",
        "lng": 139.396854,
        "lat": 36.275308,
        "h": 10
      },
      {
        "name": "太田市総合体育館",
        "address": "群馬県太田市飯塚町1059-1",
        "lng": 139.394571,
        "lat": 36.275772,
        "h": 11
      },
      {
        "name": "九合小学校",
        "address": "群馬県太田市飯塚町1534",
        "lng": 139.384221,
        "lat": 36.282408,
        "h": 11
      },
      {
        "name": "九合行政センター",
        "address": "群馬県太田市飯塚町591-1",
        "lng": 139.384091,
        "lat": 36.276581,
        "h": 11
      },
      {
        "name": "東中学校",
        "address": "群馬県太田市飯塚町80",
        "lng": 139.380354,
        "lat": 36.276901,
        "h": 11
      },
      {
        "name": "中央小学校",
        "address": "群馬県太田市飯田町1166",
        "lng": 139.381437,
        "lat": 36.29051,
        "h": 11
      },
      {
        "name": "太田中央公園",
        "address": "群馬県太田市飯田町819",
        "lng": 139.3817,
        "lat": 36.287602,
        "h": 10
      },
      {
        "name": "備前島公園",
        "address": "群馬県太田市備前島町149-1",
        "lng": 139.344209,
        "lat": 36.258617,
        "h": 10
      },
      {
        "name": "尾島健康福祉増進センター利根の湯",
        "address": "群馬県太田市備前島町196-1",
        "lng": 139.34263,
        "lat": 36.258488,
        "h": 10
      },
      {
        "name": "天神公園",
        "address": "群馬県太田市浜町27-1",
        "lng": 139.37016,
        "lat": 36.290322,
        "h": 10
      },
      {
        "name": "沢野中央小学校",
        "address": "群馬県太田市富沢町73",
        "lng": 139.357966,
        "lat": 36.26359,
        "h": 11
      },
      {
        "name": "沢野小学校",
        "address": "群馬県太田市福沢町226-1",
        "lng": 139.355757,
        "lat": 36.266966,
        "h": 11
      },
      {
        "name": "宝町中央公園",
        "address": "群馬県太田市宝町540",
        "lng": 139.331958,
        "lat": 36.28929,
        "h": 10
      },
      {
        "name": "宝泉中学校",
        "address": "群馬県太田市宝町735",
        "lng": 139.329366,
        "lat": 36.28543,
        "h": 11
      },
      {
        "name": "太田行政センター",
        "address": "群馬県太田市本町20-1",
        "lng": 139.374153,
        "lat": 36.296615,
        "h": 11
      },
      {
        "name": "太田小学校",
        "address": "群馬県太田市本町31-1",
        "lng": 139.372737,
        "lat": 36.298259,
        "h": 11
      },
      {
        "name": "県立太田工業高校",
        "address": "群馬県太田市茂木町380",
        "lng": 139.416355,
        "lat": 36.295754,
        "h": 11
      },
      {
        "name": "毛里田中学校",
        "address": "群馬県太田市矢田堀町242-2",
        "lng": 139.38396,
        "lat": 36.337024,
        "h": 11
      },
      {
        "name": "毛里田行政センター",
        "address": "群馬県太田市矢田堀町244-5",
        "lng": 139.38375,
        "lat": 36.337925,
        "h": 11
      },
      {
        "name": "太田北之庄公園",
        "address": "群馬県太田市由良町1472-1",
        "lng": 139.340493,
        "lat": 36.297248,
        "h": 10
      },
      {
        "name": "宝泉小学校",
        "address": "群馬県太田市由良町1738-1",
        "lng": 139.335916,
        "lat": 36.28844,
        "h": 11
      },
      {
        "name": "竜内公園",
        "address": "群馬県太田市龍舞町1397-1",
        "lng": 139.405722,
        "lat": 36.278733,
        "h": 10
      },
      {
        "name": "龍舞一区区民会館（地震は敷地のみ）",
        "address": "群馬県太田市龍舞町1929-1",
        "lng": 139.414838,
        "lat": 36.275284,
        "h": 10
      },
      {
        "name": "休泊小学校",
        "address": "群馬県太田市龍舞町3816-3",
        "lng": 139.416273,
        "lat": 36.283708,
        "h": 11
      },
      {
        "name": "休泊中学校",
        "address": "群馬県太田市龍舞町3867-2",
        "lng": 139.411593,
        "lat": 36.284135,
        "h": 11
      },
      {
        "name": "休泊スポーツ広場",
        "address": "群馬県太田市龍舞町4047",
        "lng": 139.415866,
        "lat": 36.28878,
        "h": 10
      },
      {
        "name": "休泊行政センター",
        "address": "群馬県太田市龍舞町4053",
        "lng": 139.416102,
        "lat": 36.289463,
        "h": 11
      },
      {
        "name": "緑町集会所",
        "address": "群馬県太田市緑町2131-1",
        "lng": 139.374003,
        "lat": 36.329217,
        "h": 11
      },
      {
        "name": "六千石公民館・広場（地震は広場のみ）",
        "address": "群馬県太田市六千石町56",
        "lng": 139.288473,
        "lat": 36.335145,
        "h": 11
      },
      {
        "name": "藪塚本町小学校",
        "address": "群馬県太田市藪塚町1741",
        "lng": 139.298355,
        "lat": 36.359111,
        "h": 11
      },