{
  "45201": {
    "source": "国土地理院「指定緊急避難場所データ」",
    "asOf": "2026-06-19",
    "sites": [
      {
        "name": "まなび野中央公園",
        "address": "宮崎県宮崎市まなび野2",
        "lng": 131.418491,
        "lat": 31.862083,
        "h": 40
      },
      {
        "name": "宮崎県立看護大学",
        "address": "宮崎県宮崎市まなび野3-5-1",
        "lng": 131.414743,
        "lat": 31.859307,
        "h": 71
      },
      {
        "name": "看護大学グラウンド",
        "address": "宮崎県宮崎市まなび野3-5-1",
        "lng": 131.414729,
        "lat": 31.859299,
        "h": 40
      },
      {
        "name": "宮崎市立宮崎東小学校",
        "address": "宮崎県宮崎市阿波岐原町火切塚1461",
        "lng": 131.451379,
        "lat": 31.942706,
        "h": 71
      },
      {
        "name": "宮崎東小学校グラウンド",
        "address": "宮崎県宮崎市阿波岐原町火切塚1461",
        "lng": 131.451465,
        "lat": 31.942672,
        "h": 40
      },
      {
        "name": "宮崎市立檍北小学校",
        "address": "宮崎県宮崎市阿波岐原町坂元1985",
        "lng": 131.452735,
        "lat": 31.931171,
        "h": 87
      },
      {
        "name": "宮崎県総合自動車運転免許センター",
        "address": "宮崎県宮崎市阿波岐原町前浜4276-5",
        "lng": 131.461467,
        "lat": 31.930686,
        "h": 16
      },
      {
        "name": "特別養護老人ホーム皇寿園",
        "address": "宮崎県宮崎市阿波岐原町前浜4276-650",
        "lng": 131.462633,
        "lat": 31.939547,
        "h": 71
      },
      {
        "name": "宮崎県教育研修センター",
        "address": "宮崎県宮崎市阿波岐原町前浜4276-729",
        "lng": 131.463573,
        "lat": 31.933967,
        "h": 71
      },
      {
        "name": "宮崎市教育情報研修センター",
        "address": "宮崎県宮崎市旭1-4-1",
        "lng": 131.42589,
        "lat": 31.909941,
        "h": 71
      },
      {
        "name": "宮崎市立宮崎小学校",
        "address": "宮崎県宮崎市旭1-4-1",
        "lng": 131.425791,
        "lat": 31.909459,
        "h": 87
      },
      {
        "name": "宮崎地方裁判所（南棟）",
        "address": "宮崎県宮崎市旭2-3-13",
        "lng": 131.428142,
        "lat": 31.909812,
        "h": 16
      },
      {
        "name": "メゾン清水ハイツ",
        "address": "宮崎県宮崎市一の宮町14",
        "lng": 131.443311,
        "lat": 31.906942,
        "h": 16
      },
      {
        "name": "清水ハイツ",
        "address": "宮崎県宮崎市一の宮町3",
        "lng": 131.442819,
        "lat": 31.907343,
        "h": 16
      },
      {
        "name": "市営住宅一の宮団地　１棟",
        "address": "宮崎県宮崎市一の宮町30-1",
        "lng": 131.444369,
        "lat": 31.906802,
        "h": 16
      },
      {
        "name": "押川マンション",
        "address": "宮崎県宮崎市一の宮町45-1",
        "lng": 131.445468,
        "lat": 31.906608,
        "h": 16
      },
      {
        "name": "サン・トール",
        "address": "宮崎県宮崎市一の宮町56-1",
        "lng": 131.446154,
        "lat": 31.907222,
        "h": 16
      },
      {
        "name": "シャンテ一の宮",
        "address": "宮崎県宮崎市一の宮町79",
        "lng": 131.444864,
        "lat": 31.906136,
        "h": 16
      },
      {
        "name": "瓜生野街区公園",
        "address": "宮崎県宮崎市瓜生野2365",
        "lng": 131.388924,
        "lat": 31.969016,
        "h": 40
      },
      {
        "name": "宮崎市立宮崎中学校",
        "address": "宮崎県宮崎市永楽町43",
        "lng": 131.433781,
        "lat": 31.907405,
        "h": 87
      },
      {
        "name": "下原街区公園",
        "address": "宮崎県宮崎市下原町231-3",
        "lng": 131.433019,
        "lat": 31.922167,
        "h": 40
      },
      {
        "name": "下原ふれあい広場",
        "address": "宮崎県宮崎市下原町321",
        "lng": 131.431506,
        "lat": 31.923354,
        "h": 40
      },
      {
        "name": "宮崎市宮崎東地区交流センター",
        "address": "宮崎県宮崎市下原町332-5",
        "lng": 131.432167,
        "lat": 31.923569,
        "h": 71
      },
      {
        "name": "アビタシオン宮本",
        "address": "宮崎県宮崎市下田島12219-40",
        "lng": 131.468792,
        "lat": 32.036411,
        "h": 16
      },
      {
        "name": "ＥＫビルⅡ",
        "address": "宮崎県宮崎市下田島12220-3",
        "lng": 131.469239,
        "lat": 32.037433,
        "h": 16
      },
      {
        "name": "久留米運送株式会社宮崎流通センター",
        "address": "宮崎県宮崎市下田島4-18604",
        "lng": 131.48571,
        "lat": 32.019578,
        "h": 16
      },
      {
        "name": "サンフローラＴＭⅡ",
        "address": "宮崎県宮崎市下田島9504",
        "lng": 131.47434,
        "lat": 32.025696,
        "h": 16
      },
      {
        "name": "サンフローラＴＭ",
        "address": "宮崎県宮崎市下田島9511-1",
        "lng": 131.474461,
        "lat": 32.025387,
        "h": 16
      },
      {
        "name": "県営住宅松小路Ａ　３棟",
        "address": "宮崎県宮崎市下田島9526-2",
        "lng": 131.475251,
        "lat": 32.026718,
        "h": 16
      },
      {
        "name": "サンフローラＴＭⅢ",
        "address": "宮崎県宮崎市下田島9689-1",
        "lng": 131.475599,
        "lat": 32.025569,
        "h": 16
      },
      {
        "name": "ＢＬＵＥ　ＣＩＥＬ",
        "address": "宮崎県宮崎市下那珂1247",
        "lng": 131.476332,
        "lat": 32.003005,
        "h": 16
      },
      {
        "name": "シーサイド石崎",
        "address": "宮崎県宮崎市下那珂617-3",
        "lng": 131.479961,
        "lat": 32.00932,
        "h": 16
      },
      {
        "name": "ＧａｒｄｅｎＣｉｔｙヴァンサンカン",
        "address": "宮崎県宮崎市下那珂695-8",
        "lng": 131.47911,
        "lat": 32.007719,
        "h": 16
      },
      {
        "name": "大淀川学習館",
        "address": "宮崎県宮崎市下北方町5348-1",
        "lng": 131.406484,
        "lat": 31.948791,
        "h": 71
      },
      {
        "name": "大宮中学校グラウンド",
        "address": "宮崎県宮崎市下北方町5945",
        "lng": 131.419004,
        "lat": 31.942242,
        "h": 40
      },
      {
        "name": "宮崎市立大宮中学校",
        "address": "宮崎県宮崎市下北方町5945",
        "lng": 131.418955,
        "lat": 31.942243,
        "h": 71
      },
      {
        "name": "宮崎市大宮地区交流センター",
        "address": "宮崎県宮崎市下北方町下郷6101",
        "lng": 131.417597,
        "lat": 31.945126,
        "h": 71
      },
      {
        "name": "大宮小学校グラウンド",
        "address": "宮崎県宮崎市下北方町新地849",
        "lng": 131.427498,
        "lat": 31.943674,
        "h": 40
      },
      {
        "name": "宮崎市立大宮小学校",
        "address": "宮崎県宮崎市下北方町新地849",
        "lng": 131.427679,
        "lat": 31.943682,
        "h": 71
      },
      {
        "name": "青島リゾートクリニック裏",
        "address": "宮崎県宮崎市加江田４５１４－１南側",
        "lng": 131.445641,
        "lat": 31.811103,
        "h": 40
      },
      {
        "name": "花ヶ島公民館",
        "address": "宮崎県宮崎市花ケ島町赤江町1300",
        "lng": 131.431462,
        "lat": 31.94743,
        "h": 71
      },
      {
        "name": "宮崎育成牧場",
        "address": "宮崎県宮崎市花ケ島町大原2347",
        "lng": 131.431271,
        "lat": 31.937283,
        "h": 40
      },
      {
        "name": "花ヶ島街区公園",
        "address": "宮崎県宮崎市花ヶ島町字立毛１０４６外",
        "lng": 131.432776,
        "lat": 31.9542,
        "h": 40
      },
      {
        "name": "大坪３号街区公園",
        "address": "宮崎県宮崎市花山手西1",
        "lng": 131.397592,
        "lat": 31.902445,
        "h": 40
      },
      {
        "name": "大坪４号街区公園",
        "address": "宮崎県宮崎市花山手西2",
        "lng": 131.395047,
        "lat": 31.900063,
        "h": 40
      },
      {
        "name": "大坪１号街区公園",
        "address": "宮崎県宮崎市花山手東1",
        "lng": 131.406253,
        "lat": 31.903617,
        "h": 40
      },
      {
        "name": "大坪２号街区公園",
        "address": "宮崎県宮崎市花山手東2",
        "lng": 131.395081,
        "lat": 31.900099,
        "h": 40
      },
      {
        "name": "大坪池公園",
        "address": "宮崎県宮崎市花山手東3",
        "lng": 131.400811,
        "lat": 31.899212,
        "h": 40
      },
      {
        "name": "宮崎市民文化ホール",
        "address": "宮崎県宮崎市花山手東3-25-3",
        "lng": 131.401435,
        "lat": 31.898473,
        "h": 95
      },
      {
        "name": "宮崎大学教育文化学部附属小学校",
        "address": "宮崎県宮崎市花殿町7-49",
        "lng": 131.416749,
        "lat": 31.92483,
        "h": 71
      },
      {
        "name": "宮大附属小学校グラウンド",
        "address": "宮崎県宮崎市花殿町7-49",
        "lng": 131.416767,
        "lat": 31.92425,
        "h": 40
      },
      {
        "name": "宮崎大学教育文化学部附属中学校",
        "address": "宮崎県宮崎市花殿町7-67",
        "lng": 131.417931,
        "lat": 31.924874,
        "h": 71
      },
      {
        "name": "宮大附属中学校グラウンド",
        "address": "宮崎県宮崎市花殿町7-67",
        "lng": 131.417931,
        "lat": 31.924879,
        "h": 40
      },
      {
        "name": "木花台３号街区公園",
        "address": "宮崎県宮崎市学園木花台3-5-5",
        "lng": 131.424216,
        "lat": 31.830823,
        "h": 40
      },
      {
        "name": "宮崎大学",
        "address": "宮崎県宮崎市学園木花台西1-1",
        "lng": 131.412556,
        "lat": 31.831003,
        "h": 71
      },
      {
        "name": "宮崎大学陸上競技場",
        "address": "宮崎県宮崎市学園木花台西1-1",
        "lng": 131.412556,
        "lat": 31.831021,
        "h": 40
      },
      {
        "name": "宮崎市立木花中学校",
        "address": "宮崎県宮崎市学園木花台南1-1",
        "lng": 131.42696,
        "lat": 31.831124,
        "h": 71
      },
      {
        "name": "木花中学校グラウンド",
        "address": "宮崎県宮崎市学園木花台南1-1",
        "lng": 131.426954,
        "lat": 31.831116,
        "h": 40
      },
      {
        "name": "木花台５号街区公園",
        "address": "宮崎県宮崎市学園木花台南1-11-4",
        "lng": 131.42774,
        "lat": 31.826616,
        "h": 40
      },
      {
        "name": "木花公園",
        "address": "宮崎県宮崎市学園木花台南1-13",
        "lng": 131.428488,
        "lat": 31.828807,
        "h": 40
      },
      {
        "name": "宮崎市立学園木花台小学校",
        "address": "宮崎県宮崎市学園木花台南2-13",
        "lng": 131.423714,
        "lat": 31.825805,
        "h": 71
      },
      {
        "name": "学園木花台小学校グラウンド",
        "address": "宮崎県宮崎市学園木花台南2-13",
        "lng": 131.423306,
        "lat": 31.825881,
        "h": 40
      },
      {
        "name": "木花台４号街区公園",
        "address": "宮崎県宮崎市学園木花台南2-16-1",
        "lng": 131.423952,
        "lat": 31.827467,
        "h": 40
      },
      {
        "name": "木花台２号街区公園",
        "address": "宮崎県宮崎市学園木花台北1-3-1",
        "lng": 131.430021,
        "lat": 31.833475,
        "h": 40
      },
      {
        "name": "アスター丸山",
        "address": "宮崎県宮崎市丸山2-31",
        "lng": 131.42211,
        "lat": 31.927774,
        "h": 16
      },
      {
        "name": "希望ヶ丘自治公民館",
        "address": "宮崎県宮崎市希望ケ丘3-11-5",
        "lng": 131.42422,
        "lat": 31.857973,
        "h": 71
      },
      {
        "name": "希望ヶ丘２号街区公園",
        "address": "宮崎県宮崎市希望ヶ丘４－２５０外",
        "lng": 131.420628,
        "lat": 31.859247,
        "h": 40
      },
      {
        "name": "宮崎市宮崎西地区交流センター",
        "address": "宮崎県宮崎市祇園1-49",
        "lng": 131.408371,
        "lat": 31.926611,
        "h": 26
      },
      {
        "name": "アルカディア祇園",
        "address": "宮崎県宮崎市祇園1-76",
        "lng": 131.410176,
        "lat": 31.92662,
        "h": 16
      },
      {
        "name": "宮崎市宮崎地区交流センター",
        "address": "宮崎県宮崎市吉村町ハシテ甲2386-139",
        "lng": 131.442903,
        "lat": 31.908864,
        "h": 71
      },
      {
        "name": "ルミエール吉村Ａ棟",
        "address": "宮崎県宮崎市吉村町引土甲624",
        "lng": 131.439742,
        "lat": 31.922647,
        "h": 16
      },
      {
        "name": "ルミエール吉村Ｂ棟",
        "address": "宮崎県宮崎市吉村町引土甲624",
        "lng": 131.439831,
        "lat": 31.92291,
        "h": 16
      },
      {
        "name": "県警職員宿舎飛翔独身寮",
        "address": "宮崎県宮崎市吉村町下り松甲2461",
        "lng": 131.43848,
        "lat": 31.922692,
        "h": 16
      },
      {
        "name": "ＫＩＹＯＮＯ第２ビル",
        "address": "宮崎県宮崎市吉村町下別府乙19",
        "lng": 131.446269,
        "lat": 31.908513,
        "h": 16
      },
      {
        "name": "小川コーポ１０２",
        "address": "宮崎県宮崎市吉村町下別府乙6-10",
        "lng": 131.44734,
        "lat": 31.909355,
        "h": 16
      },
      {
        "name": "小川コーポ１０１",
        "address": "宮崎県宮崎市吉村町下別府乙7-5",
        "lng": 131.447543,
        "lat": 31.909579,
        "h": 16
      },
      {
        "name": "Ｂｒｏｏｋ’ｓ　Ｓｑｕａｒｅ　Ⅱ",
        "address": "宮崎県宮崎市吉村町下藪甲4353-2",
        "lng": 131.452847,
        "lat": 31.915172,
        "h": 16
      },
      {
        "name": "県営住宅青葉　３棟",
        "address": "宮崎県宮崎市吉村町境目甲1488-1",
        "lng": 131.439075,
        "lat": 31.9223,
        "h": 16
      },
      {
        "name": "檍中学校グラウンド",
        "address": "宮崎県宮崎市吉村町江田原甲265",
        "lng": 131.445462,
        "lat": 31.925843,
        "h": 40
      },
      {
        "name": "宮崎市立檍中学校",
        "address": "宮崎県宮崎市吉村町江田原甲265",
        "lng": 131.445692,
        "lat": 31.926102,
        "h": 71
      },
      {
        "name": "宮崎市檍地区交流センター",
        "address": "宮崎県宮崎市吉村町江田原甲265-1",
        "lng": 131.444897,
        "lat": 31.925559,
        "h": 71
      },
      {
        "name": "江田原ふれあい広場",
        "address": "宮崎県宮崎市吉村町江田原甲269-1",
        "lng": 131.445065,
        "lat": 31.930696,
        "h": 40
      },
      {
        "name": "コンフォール霧島",
        "address": "宮崎県宮崎市吉村町甲4151-2",
        "lng": 131.448878,
        "lat": 31.912413,
        "h": 16
      },
      {
        "name": "Ｎｕｏｖｅ　ｃｏｎｎｅｓｓｉｏｎｉ",
        "address": "宮崎県宮崎市吉村町今村甲4142-3",
        "lng": 131.448983,
        "lat": 31.911962,
        "h": 16
      },
      {
        "name": "アミリアコート",
        "address": "宮崎県宮崎市吉村町今村甲4188-16",
        "lng": 131.449534,
        "lat": 31.914066,
        "h": 16
      },
      {
        "name": "Ｂｒｏｏｋ’ｓ　Ｓｑｕａｒｅ　Ⅲ",
        "address": "宮崎県宮崎市吉村町今村前甲4292-4",
        "lng": 131.45023,
        "lat": 31.910993,
        "h": 16
      },
      {
        "name": "コスタ吉村",
        "address": "宮崎県宮崎市吉村町寺ノ下甲2290",
        "lng": 131.447178,
        "lat": 31.913633,
        "h": 16
      },
      {
        "name": "ぐらんしゅうる・Ａ",
        "address": "宮崎県宮崎市吉村町上西中甲1382-2",
        "lng": 131.442741,
        "lat": 31.919783,
        "h": 16
      },
      {
        "name": "カームプレイス",
        "address": "宮崎県宮崎市吉村町上西中甲1386-8",
        "lng": 131.442588,
        "lat": 31.920495,
        "h": 16
      },
      {
        "name": "ＮＡビル",
        "address": "宮崎県宮崎市吉村町上西中甲1387-6",
        "lng": 131.442226,
        "lat": 31.920284,
        "h": 16
      },
      {
        "name": "サンライズ西中",
        "address": "宮崎県宮崎市吉村町西中甲1328-1",
        "lng": 131.444694,
        "lat": 31.915691,
        "h": 16
      },
      {
        "name": "県警職員宿舎吉村職員宿舎",
        "address": "宮崎県宮崎市吉村町西田甲682",
        "lng": 131.442181,
        "lat": 31.922551,
        "h": 16
      },
      {
        "name": "イルパラッソ曽師",
        "address": "宮崎県宮崎市吉村町曽師中甲3097-2",
        "lng": 131.439257,
        "lat": 31.90924,
        "h": 16
      },
      {
        "name": "ケイ・ビー株式会社",
        "address": "宮崎県宮崎市吉村町大町甲1990",
        "lng": 131.440003,
        "lat": 31.915538,
        "h": 16
      },
      {
        "name": "プランドール井之上",
        "address": "宮崎県宮崎市吉村町長田甲2374-2",
        "lng": 131.447028,
        "lat": 31.910919,
        "h": 16
      },
      {
        "name": "宮崎市立檍小学校",
        "address": "宮崎県宮崎市吉村町冬治867",
        "lng": 131.444736,
        "lat": 31.921808,
        "h": 87
      },
      {
        "name": "㈱マルハン宮崎店　立体駐車場",
        "address": "宮崎県宮崎市吉村町内柿元甲１０６６外",
        "lng": 131.450529,
        "lat": 31.917431,
        "h": 16
      },
      {
        "name": "Ｍ’ｓフローリッシュ",
        "address": "宮崎県宮崎市吉村町南田甲1058-1",
        "lng": 131.450742,
        "lat": 31.918092,
        "h": 16
      },
      {
        "name": "Ｖｉｌｌａｇｅ　Ｓｉｔｔａ",
        "address": "宮崎県宮崎市吉村町南田甲1097",
        "lng": 131.45263,
        "lat": 31.91745,
        "h": 16
      },
      {
        "name": "宮崎市立宮崎港小学校",
        "address": "宮崎県宮崎市吉村町南浜田甲4261",
        "lng": 131.451166,
        "lat": 31.910457,
        "h": 87
      },
      {
        "name": "宮崎市檍児童センター",
        "address": "宮崎県宮崎市吉村町平塚甲1797",
        "lng": 131.441552,
        "lat": 31.917196,
        "h": 71
      },
      {
        "name": "グランドパレス青葉",
        "address": "宮崎県宮崎市吉村町北原甲1476-1",
        "lng": 131.441165,
        "lat": 31.921645,
        "h": 16
      },
      {
        "name": "北中自治公民館",
        "address": "宮崎県宮崎市吉村町北中甲1209",
        "lng": 131.446953,
        "lat": 31.916501,
        "h": 71
      },
      {
        "name": "ピーチフローレⅡ",
        "address": "宮崎県宮崎市吉村町北中甲1225",
        "lng": 131.448636,
        "lat": 31.91837,
        "h": 16
      },
      {
        "name": "ピーチフローレⅠ",
        "address": "宮崎県宮崎市吉村町北中甲1228",
        "lng": 131.448623,
        "lat": 31.918091,
        "h": 16
      },
      {
        "name": "ピーチフローレⅢ",
        "address": "宮崎県宮崎市吉村町北中甲1234-5",
        "lng": 131.448101,
        "lat": 31.918291,
        "h": 16
      },
      {
        "name": "ピーチフローレⅤ",
        "address": "宮崎県宮崎市吉村町北中甲1237",
        "lng": 131.447292,
        "lat": 31.918167,
        "h": 16
      },
      {
        "name": "宮崎市役所（会議棟）",
        "address": "宮崎県宮崎市橘通西1-1-1",
        "lng": 131.41869,
        "lat": 31.908645,
        "h": 71
      },
      {
        "name": "ＴＩＰマンション",
        "address": "宮崎県宮崎市橘通西1-5-30",
        "lng": 131.420339,
        "lat": 31.90968,
        "h": 16
      },
      {
        "name": "江平小学校グラウンド",
        "address": "宮崎県宮崎市橘通西5-6-37",
        "lng": 131.423424,
        "lat": 31.92359,
        "h": 40
      },
      {
        "name": "宮崎市立江平小学校",
        "address": "宮崎県宮崎市橘通西5-6-37",
        "lng": 131.423991,
        "lat": 31.923787,
        "h": 71
      },
      {
        "name": "宮崎中央公園",
        "address": "宮崎県宮崎市宮崎駅東1-2-1",
        "lng": 131.433451,
        "lat": 31.913619,
        "h": 40
      },
      {
        "name": "宮崎市総合体育館",
        "address": "宮崎県宮崎市宮崎駅東1-2-7",
        "lng": 131.435313,
        "lat": 31.91461,
        "h": 71
      },
      {
        "name": "宮崎市中央公民館",
        "address": "宮崎県宮崎市宮崎駅東1-2-7",
        "lng": 131.435307,
        "lat": 31.914128,
        "h": 71
      },
      {
        "name": "宮崎県体育館",
        "address": "宮崎県宮崎市宮崎駅東2-4-1",
        "lng": 131.434717,
        "lat": 31.917371,
        "h": 71
      },
      {
        "name": "宮崎市男女共同参画センター",
        "address": "宮崎県宮崎市宮崎駅東3-6-7",
        "lng": 131.435266,
        "lat": 31.919757,
        "h": 71
      },
      {
        "name": "オーパス宮崎本店　立体駐車場",
        "address": "宮崎県宮崎市宮崎駅東3-9-11",
        "lng": 131.431805,
        "lat": 31.919463,
        "h": 16
      },
      {
        "name": "宮崎県自治会館",
        "address": "宮崎県宮崎市宮田町1-8",
        "lng": 131.42469,
        "lat": 31.91135,
        "h": 71
      },
      {
        "name": "県民共済ビル",
        "address": "宮崎県宮崎市宮脇町127-1",
        "lng": 131.437815,
        "lat": 31.915542,
        "h": 16
      },
      {
        "name": "宮崎市大淀地区交流センター",
        "address": "宮崎県宮崎市京塚2-1-18",
        "lng": 131.411322,
        "lat": 31.898248,
        "h": 71
      },
      {
        "name": "上恒久１号街区公園",
        "address": "宮崎県宮崎市薫る坂1-6686-24",
        "lng": 131.398483,
        "lat": 31.893154,
        "h": 40
      },
      {
        "name": "上恒久３号街区公園",
        "address": "宮崎県宮崎市薫る坂2-6143-51",
        "lng": 131.402518,
        "lat": 31.890348,
        "h": 40
      },
      {
        "name": "上恒久２号街区公園",
        "address": "宮崎県宮崎市薫る坂2-6335-54",
        "lng": 131.400442,
        "lat": 31.889815,
        "h": 40
      },
      {
        "name": "国富小学校グラウンド",
        "address": "宮崎県宮崎市郡司分甲2226",
        "lng": 131.433402,
        "lat": 31.857147,
        "h": 40
      },
      {
        "name": "宮崎市立国富小学校",
        "address": "宮崎県宮崎市郡司分甲2226",
        "lng": 131.433407,
        "lat": 31.857383,
        "h": 71
      },
      {
        "name": "宮崎第一中学高等学校",
        "address": "宮崎県宮崎市郡司分甲767",
        "lng": 131.424144,
        "lat": 31.849142,
        "h": 71
      },
      {
        "name": "宮崎第一中学高校グラウンド",
        "address": "宮崎県宮崎市郡司分甲767",
        "lng": 131.424136,
        "lat": 31.84915,
        "h": 40
      },
      {
        "name": "蛎原避難タワー",
        "address": "宮崎県宮崎市郡司分字内蛎原甲5227-36",
        "lng": 131.447836,
        "lat": 31.845973,
        "h": 16
      },
      {
        "name": "郡司分公園",
        "address": "宮崎県宮崎市郡司分平田迫甲902-2",
        "lng": 131.426332,
        "lat": 31.849165,
        "h": 40
      },
      {
        "name": "稲荷山公園",
        "address": "宮崎県宮崎市月見ケ丘1-13",
        "lng": 131.424771,
        "lat": 31.883034,
        "h": 40
      },
      {
        "name": "宮崎市立赤江中学校",
        "address": "宮崎県宮崎市月見ケ丘1-25-1",
        "lng": 131.424956,
        "lat": 31.880761,
        "h": 71
      },
      {
        "name": "赤江中学校グラウンド",
        "address": "宮崎県宮崎市月見ケ丘1-25-1",
        "lng": 131.424931,
        "lat": 31.880749,
        "h": 40
      },
      {
        "name": "宮崎市立共同利用施設月見ヶ丘六次センター",
        "address": "宮崎県宮崎市月見ケ丘3-17-1",
        "lng": 131.419468,
        "lat": 31.874563,
        "h": 71
      },
      {
        "name": "宮崎市立共同利用施設月見ヶ丘センター",
        "address": "宮崎県宮崎市月見ケ丘4-23-13",
        "lng": 131.419094,
        "lat": 31.8772,
        "h": 71
      },
      {
        "name": "月見ヶ丘教職員住宅",
        "address": "宮崎県宮崎市月見ケ丘4-314",
        "lng": 131.416214,
        "lat": 31.879527,
        "h": 16
      },
      {
        "name": "宮崎南高校グラウンド",
        "address": "宮崎県宮崎市月見ケ丘5-2-1",
        "lng": 131.419107,
        "lat": 31.884507,
        "h": 40
      },
      {
        "name": "宮崎県立宮崎南高等学校",
        "address": "宮崎県宮崎市月見ケ丘5-2-1",
        "lng": 131.4191,
        "lat": 31.884488,
        "h": 71
      },
      {
        "name": "月見ヶ丘４号緑地広場",
        "address": "宮崎県宮崎市月見ヶ丘1-200-37",
        "lng": 131.423316,
        "lat": 31.881296,
        "h": 40
      },
      {
        "name": "ティープリモ権現町",
        "address": "宮崎県宮崎市権現町81",
        "lng": 131.432461,
        "lat": 31.928915,
        "h": 16
      },
      {
        "name": "宮崎西中学校グラウンド",
        "address": "宮崎県宮崎市原町1-4",
        "lng": 131.422463,
        "lat": 31.922605,
        "h": 40
      },
      {
        "name": "宮崎市立宮崎西中学校",
        "address": "宮崎県宮崎市原町1-4",
        "lng": 131.422704,
        "lat": 31.92258,
        "h": 71
      },
      {
        "name": "宮崎県福祉総合センター",
        "address": "宮崎県宮崎市原町2-22",
        "lng": 131.421848,
        "lat": 31.922838,
        "h": 71
      },
      {
        "name": "県営住宅源藤　５棟",
        "address": "宮崎県宮崎市源藤町原田318-1",
        "lng": 131.417768,
        "lat": 31.888614,
        "h": 16
      },
      {
        "name": "源藤自治公民館",
        "address": "宮崎県宮崎市源藤町字堤513-8",
        "lng": 131.4148,
        "lat": 31.885524,
        "h": 71
      },
      {
        "name": "宮崎南小学校グラウンド",
        "address": "宮崎県宮崎市源藤町池ノ内702",
        "lng": 131.413015,
        "lat": 31.882596,
        "h": 40
      },
      {
        "name": "宮崎市立宮崎南小学校",
        "address": "宮崎県宮崎市源藤町池ノ内702",
        "lng": 131.413016,
        "lat": 31.882608,
        "h": 71
      },
      {
        "name": "古城小学校グラウンド",
        "address": "宮崎県宮崎市古城町山ノ城5735",
        "lng": 131.388132,
        "lat": 31.893348,
        "h": 40
      },
      {
        "name": "宮崎市立古城小学校",
        "address": "宮崎県宮崎市古城町山ノ城5735",
        "lng": 131.387968,
        "lat": 31.893431,
        "h": 71
      },
      {
        "name": "古城老人いこいの家",
        "address": "宮崎県宮崎市古城町孫太郎2494",
        "lng": 131.374616,
        "lat": 31.886038,
        "h": 71
      },
      {
        "name": "セントヒルズ宮崎",
        "address": "宮崎県宮崎市吾妻町123",
        "lng": 131.434477,
        "lat": 31.903443,
        "h": 16
      },
      {
        "name": "県警職員宿舎吾妻職員宿舎",
        "address": "宮崎県宮崎市吾妻町90",
        "lng": 131.433102,
        "lat": 31.904336,
        "h": 16
      },
      {
        "name": "萩の台公園",
        "address": "宮崎県宮崎市広原7149",
        "lng": 131.431806,
        "lat": 31.994098,
        "h": 40
      },
      {
        "name": "グリーンヒル広島通り",
        "address": "宮崎県宮崎市広島2-8-30",
        "lng": 131.42894,
        "lat": 31.913165,
        "h": 16
      },
      {
        "name": "宮園前街区公園",
        "address": "宮崎県宮崎市恒久1-4-1",
        "lng": 131.425101,
        "lat": 31.896394,
        "h": 40
      },
      {
        "name": "一般社団法人宮崎県トラック協会総合研修会館",
        "address": "宮崎県宮崎市恒久1-7-21",
        "lng": 131.425068,
        "lat": 31.895288,
        "h": 16
      },
      {
        "name": "宮崎市南部記念体育館",
        "address": "宮崎県宮崎市恒久2-1-5",
        "lng": 131.425257,
        "lat": 31.893393,
        "h": 71
      },
      {
        "name": "恒久小学校グラウンド",
        "address": "宮崎県宮崎市恒久2-15-4",
        "lng": 131.426441,
        "lat": 31.895217,
        "h": 40
      },
      {
        "name": "宮崎市立恒久小学校",
        "address": "宮崎県宮崎市恒久2-15-4",
        "lng": 131.42667,
        "lat": 31.895215,
        "h": 71
      },
      {
        "name": "グランドパレス城ヶ崎",
        "address": "宮崎県宮崎市恒久3-2-4",
        "lng": 131.43113,
        "lat": 31.89543,
        "h": 16
      },
      {
        "name": "下城ヶ崎自治公民館",
        "address": "宮崎県宮崎市恒久3-20-13",
        "lng": 131.431021,
        "lat": 31.893291,
        "h": 71
      },
      {
        "name": "城ヶ崎マンション",
        "address": "宮崎県宮崎市恒久4-10-1",
        "lng": 131.432314,
        "lat": 31.89304,
        "h": 16
      },
      {
        "name": "パークサイド城ヶ崎",
        "address": "宮崎県宮崎市恒久4-11-5",
        "lng": 131.432807,
        "lat": 31.893808,
        "h": 16
      },
      {
        "name": "メモリースリー",
        "address": "宮崎県宮崎市恒久4-14-1",
        "lng": 131.43353,
        "lat": 31.894764,
        "h": 16
      },
      {
        "name": "津屋原自治公民館",
        "address": "宮崎県宮崎市恒久4-14-8",
        "lng": 131.433813,
        "lat": 31.894555,
        "h": 71
      },
      {
        "name": "ベルビルＪ",
        "address": "宮崎県宮崎市恒久4-2-9",
        "lng": 131.432066,
        "lat": 31.89421,
        "h": 16
      },
      {
        "name": "ＭＡＣ城ヶ崎コート",
        "address": "宮崎県宮崎市恒久6-1-8",
        "lng": 131.43911,
        "lat": 31.892651,
        "h": 16
      },
      {
        "name": "宮崎市赤江東地区交流センター",
        "address": "宮崎県宮崎市恒久6-11-4",
        "lng": 131.439881,
        "lat": 31.890007,
        "h": 71
      },
      {
        "name": "恒久マンションアイリ",
        "address": "宮崎県宮崎市恒久6-3-27",
        "lng": 131.439958,
        "lat": 31.892277,
        "h": 16
      },
      {
        "name": "県警職員宿舎恒久待機宿舎",
        "address": "宮崎県宮崎市恒久南1-13-3",
        "lng": 131.42277,
        "lat": 31.890933,
        "h": 16
      },
      {
        "name": "県警職員宿舎恒久南職員住宅",
        "address": "宮崎県宮崎市恒久南1-13-3",
        "lng": 131.422499,
        "lat": 31.891228,
        "h": 16
      },
      {
        "name": "押川コーポ",
        "address": "宮崎県宮崎市恒久南2-14-11",
        "lng": 131.423915,
        "lat": 31.889944,
        "h": 16
      },
      {
        "name": "元橋街区公園",
        "address": "宮崎県宮崎市恒久南2-18-4",
        "lng": 131.424896,
        "lat": 31.888658,
        "h": 40
      },
      {
        "name": "ＪＨＣマンション",
        "address": "宮崎県宮崎市恒久南2-9-11",
        "lng": 131.424581,
        "lat": 31.891625,
        "h": 16
      },
      {
        "name": "フラット横山",
        "address": "宮崎県宮崎市恒久南3-10-25",
        "lng": 131.427365,
        "lat": 31.890504,
        "h": 16
      },
      {
        "name": "第３ヤヨイコーポ",
        "address": "宮崎県宮崎市恒久南3-11-37",
        "lng": 131.426197,
        "lat": 31.89032,
        "h": 16
      },
      {
        "name": "クレシェンテ恒久",
        "address": "宮崎県宮崎市恒久南3-12-17",
        "lng": 131.427622,
        "lat": 31.88989,
        "h": 16
      },
      {
        "name": "河野内科呼吸器科医院",
        "address": "宮崎県宮崎市恒久南3-214-10",
        "lng": 131.430187,
        "lat": 31.890596,
        "h": 16
      },
      {
        "name": "日本アランダム㈱宮崎営業所",
        "address": "宮崎県宮崎市恒久南3-4-2",
        "lng": 131.430062,
        "lat": 31.891061,
        "h": 16
      },
      {
        "name": "Ｃｏｍｏｄｏ",
        "address": "宮崎県宮崎市恒久南3-7-21",
        "lng": 131.426735,
        "lat": 31.891442,
        "h": 16
      },
      {
        "name": "ドエルクシマ",
        "address": "宮崎県宮崎市恒久南4-243-1",
        "lng": 131.430481,
        "lat": 31.890247,
        "h": 16
      },
      {
        "name": "大淀台街区公園",
        "address": "宮崎県宮崎市江南3-241",
        "lng": 131.400179,
        "lat": 31.909319,
        "h": 40
      },
      {
        "name": "江南小学校グラウンド",
        "address": "宮崎県宮崎市江南4-26-1",
        "lng": 131.394935,
        "lat": 31.9039,
        "h": 40
      },
      {
        "name": "宮崎市立江南小学校",
        "address": "宮崎県宮崎市江南4-26-1",
        "lng": 131.39499,
        "lat": 31.903901,
        "h": 71
      },
      {
        "name": "ＴＹⅡマンション",
        "address": "宮崎県宮崎市江平中町1-10",
        "lng": 131.427965,
        "lat": 31.92074,
        "h": 16
      },
      {
        "name": "宮崎市立宮崎東中学校",
        "address": "宮崎県宮崎市江平東2-7-9",
        "lng": 131.428721,
        "lat": 31.930718,
        "h": 71
      },
      {
        "name": "宮崎東中学校グラウンド",
        "address": "宮崎県宮崎市江平東2-7-9",
        "lng": 131.428659,
        "lat": 31.930696,
        "h": 40
      },
      {
        "name": "宮崎県水産会館",
        "address": "宮崎県宮崎市港2-6",
        "lng": 131.456751,
        "lat": 31.90583,
        "h": 16
      },
      {
        "name": "宮崎港津波避難施設（避難高台）東地区・南",
        "address": "宮崎県宮崎市港東2",
        "lng": 131.463964,
        "lat": 31.898837,
        "h": 16
      },
      {
        "name": "宮崎港津波避難施設（避難高台）東地区・北",
        "address": "宮崎県宮崎市港東3",
        "lng": 131.46505,
        "lat": 31.905069,
        "h": 16
      },
      {
        "name": "深水橋そばゲートボール広場",
        "address": "宮崎県宮崎市高岡町浦之名",
        "lng": 131.238766,
        "lat": 31.953897,
        "h": 40
      },
      {
        "name": "グラウンド（川口駐在所付近）",
        "address": "宮崎県宮崎市高岡町浦之名",
        "lng": 131.261529,
        "lat": 31.94364,
        "h": 40
      },
      {
        "name": "一里山地区農村広場",
        "address": "宮崎県宮崎市高岡町浦之名",
        "lng": 131.222688,
        "lat": 31.951115,
        "h": 40
      },
      {
        "name": "高岡交流プラザ多目的グラウンド",
        "address": "宮崎県宮崎市高岡町浦之名4365-4",
        "lng": 131.265541,
        "lat": 31.951997,
        "h": 40
      },
      {
        "name": "宮崎市高岡交流プラザ",
        "address": "宮崎県宮崎市高岡町浦之名4365-4",
        "lng": 131.265314,
        "lat": 31.951856,
        "h": 71
      },
      {
        "name": "祇園台第一街区公園",
        "address": "宮崎県宮崎市高岡町下倉永1200-347",
        "lng": 131.3351,
        "lat": 31.933085,
        "h": 40
      },
      {
        "name": "祇園台第二街区公園",
        "address": "宮崎県宮崎市高岡町下倉永1200-349",
        "lng": 131.332568,
        "lat": 31.933099,
        "h": 40
      },
      {
        "name": "祇園台第三街区公園",
        "address": "宮崎県宮崎市高岡町下倉永1200-350",
        "lng": 131.332858,
        "lat": 31.931178,
        "h": 40
      },
      {
        "name": "下倉自治公民館",
        "address": "宮崎県宮崎市高岡町下倉永953",
        "lng": 131.336744,
        "lat": 31.936499,
        "h": 71
      },
      {
        "name": "宮崎市東高岡体育館",
        "address": "宮崎県宮崎市高岡町花見923",
        "lng": 131.330632,
        "lat": 31.944253,
        "h": 71
      },
      {
        "name": "中央ふれあい広場",
        "address": "宮崎県宮崎市高岡町五町265",
        "lng": 131.300037,
        "lat": 31.9568,
        "h": 40
      },
      {
        "name": "共立電機製作所",
        "address": "宮崎県宮崎市高岡町五町265",
        "lng": 131.296957,
        "lat": 31.942181,
        "h": 40
      },
      {
        "name": "株式会社　共立電機製作所",
        "address": "宮崎県宮崎市高岡町高浜1495-55",
        "lng": 131.296698,
        "lat": 31.942379,
        "h": 71
      },
      {
        "name": "共に学ぶ森管理棟",
        "address": "宮崎県宮崎市高岡町紙屋9-1",
        "lng": 131.210261,
        "lat": 31.98967,
        "h": 71
      },
      {
        "name": "小山田児童遊園地",
        "address": "宮崎県宮崎市高岡町小山田",
        "lng": 131.322676,
        "lat": 31.940056,
        "h": 40
      },
      {
        "name": "サンスポーツランド高岡",
        "address": "宮崎県宮崎市高岡町小山田3870",
        "lng": 131.325743,
        "lat": 31.935991,
        "h": 40
      },
      {
        "name": "宮崎市サンスポーツランド高岡",
        "address": "宮崎県宮崎市高岡町小山田3870",
        "lng": 131.325759,
        "lat": 31.936022,
        "h": 24
      },
      {
        "name": "宮崎市農業団地センター",
        "address": "宮崎県宮崎市高岡町小山田69-2",
        "lng": 131.329959,
        "lat": 31.934208,
        "h": 71
      },
      {
        "name": "宮崎市立穆佐小学校",
        "address": "宮崎県宮崎市高岡町小山田87-1",
        "lng": 131.32924,
        "lat": 31.934154,
        "h": 71
      },
      {
        "name": "穆佐小学校グラウンド",
        "address": "宮崎県宮崎市高岡町小山田87-1",
        "lng": 131.328965,
        "lat": 31.934211,
        "h": 40
      },
      {
        "name": "宮崎市穆佐体育館",
        "address": "宮崎県宮崎市高岡町小山田973",
        "lng": 131.326424,
        "lat": 31.933587,
        "h": 24
      },
      {
        "name": "上倉永児童遊園地",
        "address": "宮崎県宮崎市高岡町上倉永1905",
        "lng": 131.33552,
        "lat": 31.922399,
        "h": 40
      },
      {
        "name": "和石公民館横ゲートボール場",
        "address": "宮崎県宮崎市高岡町内山",
        "lng": 131.205274,
        "lat": 31.910245,
        "h": 40
      },
      {
        "name": "天ヶ城広場",
        "address": "宮崎県宮崎市高岡町内山",
        "lng": 131.293382,
        "lat": 31.961728,
        "h": 40
      },
      {
        "name": "天ヶ城運動公園",
        "address": "宮崎県宮崎市高岡町内山",
        "lng": 131.292789,
        "lat": 31.960991,
        "h": 40
      },
      {
        "name": "宮崎市内山農村研修センター",
        "address": "宮崎県宮崎市高岡町内山1072",
        "lng": 131.277753,
        "lat": 31.966095,
        "h": 71
      },
      {
        "name": "宮崎市天ヶ城公園体育館",
        "address": "宮崎県宮崎市高岡町内山2007",
        "lng": 131.290679,
        "lat": 31.957956,
        "h": 71
      },
      {
        "name": "宮崎市立高岡中学校",
        "address": "宮崎県宮崎市高岡町内山2700",
        "lng": 131.299975,
        "lat": 31.962233,
        "h": 71
      },
      {
        "name": "高岡中学校グラウンド",
        "address": "宮崎県宮崎市高岡町内山2700",
        "lng": 131.299874,
        "lat": 31.962235,
        "h": 40
      },
      {
        "name": "宮崎市高岡福祉保健センター「穆園館」",
        "address": "宮崎県宮崎市高岡町内山2877",
        "lng": 131.29873,
        "lat": 31.957544,
        "h": 71
      },
      {
        "name": "宮崎市高岡地区交流センター",
        "address": "宮崎県宮崎市高岡町内山2880-1",
        "lng": 131.297911,
        "lat": 31.956869,
        "h": 71
      },
      {
        "name": "宮崎市高岡総合支所庁舎",
        "address": "宮崎県宮崎市高岡町内山2887",
        "lng": 131.297154,
        "lat": 31.956804,
        "h": 71
      },
      {
        "name": "高岡小学校グラウンド",
        "address": "宮崎県宮崎市高岡町内山2900",
        "lng": 131.297269,
        "lat": 31.95797,
        "h": 40
      },
      {
        "name": "宮崎市立高岡小学校",
        "address": "宮崎県宮崎市高岡町内山2900",
        "lng": 131.297319,
        "lat": 31.957704,
        "h": 71
      },
      {
        "name": "宮崎市高岡練士館道場",
        "address": "宮崎県宮崎市高岡町内山2902",
        "lng": 131.296799,
        "lat": 31.957192,
        "h": 71
      },
      {
        "name": "旧去川小学校グラウンド",
        "address": "宮崎県宮崎市高岡町内山3615-1",
        "lng": 131.228223,
        "lat": 31.915819,
        "h": 40
      },
      {
        "name": "旧去川小学校",
        "address": "宮崎県宮崎市高岡町内山3615-1",
        "lng": 131.228389,
        "lat": 31.915862,
        "h": 71
      },
      {
        "name": "飯田公民館前広場",
        "address": "宮崎県宮崎市高岡町飯田",
        "lng": 131.292948,
        "lat": 31.968728,
        "h": 40
      },
      {
        "name": "警察署近くゲートボール場",
        "address": "宮崎県宮崎市高岡町飯田",
        "lng": 131.303734,
        "lat": 31.955779,
        "h": 40
      },
      {
        "name": "丸山団地公園内",
        "address": "宮崎県宮崎市高岡町飯田27",
        "lng": 131.304689,
        "lat": 31.963031,
        "h": 40
      },
      {
        "name": "飯田２号街区公園",
        "address": "宮崎県宮崎市高岡町飯田3-22-1",
        "lng": 131.303517,
        "lat": 31.961854,
        "h": 40
      },
      {
        "name": "オメガシティー宮崎Ⅰ",
        "address": "宮崎県宮崎市高洲町107",
        "lng": 131.447341,
        "lat": 31.900026,
        "h": 16
      },
      {
        "name": "マンション児玉",
        "address": "宮崎県宮崎市高洲町133-1",
        "lng": 131.445767,
        "lat": 31.899671,
        "h": 16
      },
      {
        "name": "マンション津守Ⅱ",
        "address": "宮崎県宮崎市高洲町138-2",
        "lng": 131.446078,
        "lat": 31.900325,
        "h": 16
      },
      {
        "name": "ウィークリーマンション　サンシーズ",
        "address": "宮崎県宮崎市高洲町14-6",
        "lng": 131.449694,
        "lat": 31.89939,
        "h": 16
      },
      {
        "name": "ラーバンハイツ",
        "address": "宮崎県宮崎市高洲町228-2",
        "lng": 131.44233,
        "lat": 31.901577,
        "h": 16
      },
      {
        "name": "介護付有料老人ホームソフトタウン高洲",
        "address": "宮崎県宮崎市高洲町235-3",
        "lng": 131.441342,
        "lat": 31.901034,
        "h": 16
      },
      {
        "name": "マンションリヴレ",
        "address": "宮崎県宮崎市高洲町268-10",
        "lng": 131.442751,
        "lat": 31.899676,
        "h": 16
      },
      {
        "name": "リバーサイド高洲",
        "address": "宮崎県宮崎市高洲町302-4",
        "lng": 131.444738,
        "lat": 31.899138,
        "h": 16
      },
      {
        "name": "シティーウイング",
        "address": "宮崎県宮崎市高洲町66-6",
        "lng": 131.446066,
        "lat": 31.898827,
        "h": 16
      },
      {
        "name": "宮崎医療センター病院",
        "address": "宮崎県宮崎市高松町2-16",
        "lng": 131.418866,
        "lat": 31.913723,
        "h": 16
      },
      {
        "name": "大炊田地区学習等供用施設",
        "address": "宮崎県宮崎市佐土原町下田島11153-1",
        "lng": 131.488839,
        "lat": 32.025801,
        "h": 16
      },
      {
        "name": "宮本街区公園",
        "address": "宮崎県宮崎市佐土原町下田島12217-1",
        "lng": 131.470814,
        "lat": 32.037428,
        "h": 40
      },
      {
        "name": "福島保育所",
        "address": "宮崎県宮崎市佐土原町下田島14232",
        "lng": 131.477964,
        "lat": 32.041885,
        "h": 16
      },
      {
        "name": "二ツ立避難タワー",
        "address": "宮崎県宮崎市佐土原町下田島15165-1",
        "lng": 131.492742,
        "lat": 32.037826,
        "h": 16
      },
      {
        "name": "リリービラⅠ",
        "address": "宮崎県宮崎市佐土原町下田島19664-1",
        "lng": 131.48014,
        "lat": 32.01394,
        "h": 16
      },
      {
        "name": "グレートロック",
        "address": "宮崎県宮崎市佐土原町下田島20031-1",
        "lng": 131.476737,
        "lat": 32.019687,
        "h": 16
      },
      {
        "name": "宮崎市立広瀬中学校",
        "address": "宮崎県宮崎市佐土原町下田島20305-12",
        "lng": 131.474876,
        "lat": 32.017395,
        "h": 71
      },
      {
        "name": "広瀬中学校グラウンド",
        "address": "宮崎県宮崎市佐土原町下田島20305-12",
        "lng": 131.474765,
        "lat": 32.017346,
        "h": 40
      },
      {
        "name": "広瀬小学校グラウンド",
        "address": "宮崎県宮崎市佐土原町下田島20308-10",
        "lng": 131.473023,
        "lat": 32.015623,
        "h": 40
      },
      {
        "name": "宮崎市立広瀬小学校",
        "address": "宮崎県宮崎市佐土原町下田島20308-10",
        "lng": 131.473303,
        "lat": 32.016167,
        "h": 71
      },
      {
        "name": "広瀬台街区公園",
        "address": "宮崎県宮崎市佐土原町下田島20510-28",
        "lng": 131.473943,
        "lat": 32.021285,
        "h": 40
      },
      {
        "name": "宮崎市佐土原総合文化センター",
        "address": "宮崎県宮崎市佐土原町下田島20527-4",
        "lng": 131.474181,
        "lat": 32.023047,
        "h": 71
      },
      {
        "name": "春田台街区公園",
        "address": "宮崎県宮崎市佐土原町下田島20614-159",
        "lng": 131.472693,
        "lat": 32.022675,
        "h": 40
      },
      {
        "name": "佐土原保健センター",
        "address": "宮崎県宮崎市佐土原町下田島20660",
        "lng": 131.474062,
        "lat": 32.023703,
        "h": 71
      },
      {
        "name": "宮崎市佐土原体育館",
        "address": "宮崎県宮崎市佐土原町下田島20688-74",
        "lng": 131.47307,
        "lat": 32.025312,
        "h": 71
      },
      {
        "name": "久峰中学校グラウンド",
        "address": "宮崎県宮崎市佐土原町下田島21341",
        "lng": 131.469084,
        "lat": 32.022313,
        "h": 40
      },
      {
        "name": "宮崎市立久峰中学校",
        "address": "宮崎県宮崎市佐土原町下田島21341",
        "lng": 131.468739,
        "lat": 32.022493,
        "h": 71
      },
      {
        "name": "佐土原高校グラウンド",
        "address": "宮崎県宮崎市佐土原町下田島21567",
        "lng": 131.466523,
        "lat": 32.023152,
        "h": 40
      },
      {
        "name": "宮崎県立佐土原高等学校",
        "address": "宮崎県宮崎市佐土原町下田島21567",
        "lng": 131.46655,
        "lat": 32.023143,
        "h": 71
      },
      {
        "name": "小牧台キリン街区公園",
        "address": "宮崎県宮崎市佐土原町下田島21619-147",
        "lng": 131.46676,
        "lat": 32.019582,
        "h": 40
      },
      {
        "name": "曽我公園",
        "address": "宮崎県宮崎市佐土原町下田島6601",
        "lng": 131.454219,
        "lat": 32.039413,
        "h": 40
      },
      {
        "name": "宮崎市佐土原武道館",
        "address": "宮崎県宮崎市佐土原町下那珂12900-2",
        "lng": 131.461809,
        "lat": 32.020191,
        "h": 71
      },
      {
        "name": "広瀬西小学校グラウンド",
        "address": "宮崎県宮崎市佐土原町下那珂13384",
        "lng": 131.455935,
        "lat": 32.014423,
        "h": 40
      },
      {
        "name": "宮崎市立広瀬西小学校",
        "address": "宮崎県宮崎市佐土原町下那珂13384",
        "lng": 131.456128,
        "lat": 32.014408,
        "h": 71
      },
      {
        "name": "宮崎市久峰総合公園",
        "address": "宮崎県宮崎市佐土原町下那珂13754",
        "lng": 131.462321,
        "lat": 32.022692,
        "h": 40
      },
      {
        "name": "宮崎市広瀬地区交流センター",
        "address": "宮崎県宮崎市佐土原町下那珂2940-82",
        "lng": 131.473294,
        "lat": 32.001335,
        "h": 71
      },
      {
        "name": "ミネベアアクセスソリューションズ厚生棟",
        "address": "宮崎県宮崎市佐土原町下那珂3700",
        "lng": 131.473226,
        "lat": 32.012183,
        "h": 16
      },
      {
        "name": "ミネベアアクセスソリューションズ試験棟",
        "address": "宮崎県宮崎市佐土原町下那珂3700",
        "lng": 131.473227,
        "lat": 32.012179,
        "h": 16
      },
      {
        "name": "和田山街区公園",
        "address": "宮崎県宮崎市佐土原町下那珂3958-2",
        "lng": 131.473617,
        "lat": 32.010118,
        "h": 40
      },
      {
        "name": "小牧台中央三角街区公園",
        "address": "宮崎県宮崎市佐土原町下那珂4518-460",
        "lng": 131.468449,
        "lat": 32.017261,
        "h": 40
      },
      {
        "name": "光陽台中央街区公園",
        "address": "宮崎県宮崎市佐土原町下那珂4750-333",
        "lng": 131.461368,
        "lat": 32.016595,
        "h": 40
      },
      {
        "name": "黒田地区学習等供用施設",
        "address": "宮崎県宮崎市佐土原町下那珂7982",
        "lng": 131.444943,
        "lat": 32.014015,
        "h": 71
      },
      {
        "name": "シーサイドタウン南公園",
        "address": "宮崎県宮崎市佐土原町下那珂字仁王作9372-22233436",
        "lng": 131.476717,
        "lat": 32.004449,
        "h": 40
      },
      {
        "name": "ＨＯＴＥＬ　ＡＺ　宮崎佐土原店",
        "address": "宮崎県宮崎市佐土原町松小路7-8",
        "lng": 131.476456,
        "lat": 32.022278,
        "h": 16
      },
      {
        "name": "佐土原小学校グラウンド",
        "address": "宮崎県宮崎市佐土原町上田島1350-9",
        "lng": 131.428959,
        "lat": 32.048837,
        "h": 40
      },
      {
        "name": "宮崎市立佐土原小学校",
        "address": "宮崎県宮崎市佐土原町上田島1350-9",
        "lng": 131.428881,
        "lat": 32.048859,
        "h": 71
      },
      {
        "name": "宮崎市佐土原地区交流センター",
        "address": "宮崎県宮崎市佐土原町上田島1389",
        "lng": 131.431296,
        "lat": 32.049987,
        "h": 71
      },
      {
        "name": "宮崎市佐土原西体育館",
        "address": "宮崎県宮崎市佐土原町上田島8387-2",
        "lng": 131.4243,
        "lat": 32.042594,
        "h": 71
      },
      {
        "name": "宮崎市立佐土原中学校",
        "address": "宮崎県宮崎市佐土原町上田島8476",
        "lng": 131.422007,
        "lat": 32.043401,
        "h": 71
      },
      {
        "name": "佐土原中学校グラウンド",
        "address": "宮崎県宮崎市佐土原町上田島8476",
        "lng": 131.422085,
        "lat": 32.043441,
        "h": 40
      },
      {
        "name": "宝塔山公園",
        "address": "宮崎県宮崎市佐土原町上田島水ケ廻",
        "lng": 131.433215,
        "lat": 32.045503,
        "h": 40
      },
      {
        "name": "前牟田街区公園",
        "address": "宮崎県宮崎市佐土原町石崎1-8-4",
        "lng": 131.474361,
        "lat": 32.00496,
        "h": 40
      },
      {
        "name": "宮崎市佐土原地域福祉センター",
        "address": "宮崎県宮崎市佐土原町東上那珂12948-1",
        "lng": 131.434118,
        "lat": 32.021211,
        "h": 71
      },
      {
        "name": "山の神公園",
        "address": "宮崎県宮崎市佐土原町東上那珂13493-2",
        "lng": 131.439553,
        "lat": 32.027481,
        "h": 40
      },
      {
        "name": "石崎川ふれあい公園",
        "address": "宮崎県宮崎市佐土原町東上那珂1414-3",
        "lng": 131.43168,
        "lat": 32.021286,
        "h": 40
      },
      {
        "name": "那珂地区公民館",
        "address": "宮崎県宮崎市佐土原町東上那珂14502",
        "lng": 131.425823,
        "lat": 32.027492,
        "h": 71
      },
      {
        "name": "信成町公園",
        "address": "宮崎県宮崎市佐土原町東上那珂14629",
        "lng": 131.429714,
        "lat": 32.028063,
        "h": 40
      },
      {
        "name": "テクノ中央公園",
        "address": "宮崎県宮崎市佐土原町東上那珂16079-40",
        "lng": 131.422005,
        "lat": 32.03558,
        "h": 40
      },
      {
        "name": "宮崎市立那珂小学校",
        "address": "宮崎県宮崎市佐土原町東上那珂16350",
        "lng": 131.426869,
        "lat": 32.029707,
        "h": 71
      },
      {
        "name": "桜ヶ丘集会所",
        "address": "宮崎県宮崎市桜ケ丘町24-22",
        "lng": 131.399838,
        "lat": 31.930248,
        "h": 71
      },
      {
        "name": "医療法人　尚成会　近間病院",
        "address": "宮崎県宮崎市山崎町965-6",
        "lng": 131.458833,
        "lat": 31.947285,
        "h": 16
      },
      {
        "name": "山崎農村研修センター",
        "address": "宮崎県宮崎市山崎町四郎房881-589",
        "lng": 131.46364,
        "lat": 31.951953,
        "h": 71
      },
      {
        "name": "ラグゼ一ツ葉",
        "address": "宮崎県宮崎市山崎町浜山",
        "lng": 131.466894,
        "lat": 31.935254,
        "h": 16
      },
      {
        "name": "シーガイア・コンベンションセンター",
        "address": "宮崎県宮崎市山崎町浜山",
        "lng": 131.470089,
        "lat": 31.96024,
        "h": 16
      },
      {
        "name": "国際海浜エントランスプラザ",
        "address": "宮崎県宮崎市山崎町浜山414-1",
        "lng": 131.464807,
        "lat": 31.951037,
        "h": 40
      },
      {
        "name": "倉岡ニュータウン街区公園",
        "address": "宮崎県宮崎市糸原2041-97",
        "lng": 131.36576,
        "lat": 31.960796,
        "h": 40
      },
      {
        "name": "アメニティ谷口",
        "address": "宮崎県宮崎市出来島町111-1",
        "lng": 131.435823,
        "lat": 31.903323,
        "h": 16
      },
      {
        "name": "第２ユーミーハイツ",
        "address": "宮崎県宮崎市出来島町18-2",
        "lng": 131.438533,
        "lat": 31.902828,
        "h": 16
      },
      {
        "name": "ユーミーハイツ",
        "address": "宮崎県宮崎市出来島町21",
        "lng": 131.438217,
        "lat": 31.902973,
        "h": 16
      },
      {
        "name": "コーポ雅",
        "address": "宮崎県宮崎市出来島町43-2",
        "lng": 131.437096,
        "lat": 31.903113,
        "h": 16
      },
      {
        "name": "リベラル一ツ葉マンション",
        "address": "宮崎県宮崎市小戸町104-1",
        "lng": 131.451646,
        "lat": 31.901294,
        "h": 16
      },
      {
        "name": "ファミリア　Ｏｄｏ",
        "address": "宮崎県宮崎市小戸町83-1",
        "lng": 131.45385,
        "lat": 31.904012,
        "h": 16
      },
      {
        "name": "宮崎市立小松台小学校",
        "address": "宮崎県宮崎市小松台西1-10-9",
        "lng": 131.393824,
        "lat": 31.932957,
        "h": 71
      },
      {
        "name": "小松台小学校グラウンド",
        "address": "宮崎県宮崎市小松台西1-10-9",
        "lng": 131.39404,
        "lat": 31.93317,
        "h": 40
      },
      {
        "name": "小松台公園",
        "address": "宮崎県宮崎市小松台西2-11-1",
        "lng": 131.392551,
        "lat": 31.930991,
        "h": 40
      },
      {
        "name": "小松台１号街区公園",
        "address": "宮崎県宮崎市小松台東1-5-1",
        "lng": 131.397075,
        "lat": 31.931923,
        "h": 40
      },
      {
        "name": "小松台２号街区公園",
        "address": "宮崎県宮崎市小松台東3-14-7",
        "lng": 131.392037,
        "lat": 31.928428,
        "h": 40
      },
      {
        "name": "小松１号街区公園",
        "address": "宮崎県宮崎市小松台北町15-4",
        "lng": 131.39349,
        "lat": 31.935473,
        "h": 40
      },
      {
        "name": "小松２号街区公園",
        "address": "宮崎県宮崎市小松台北町40-1",
        "lng": 131.396145,
        "lat": 31.93562,
        "h": 40
      },
      {
        "name": "Ｓ・ＡＳＡＧＩＲＩ",
        "address": "宮崎県宮崎市昭栄町113",
        "lng": 131.45457,
        "lat": 31.914253,
        "h": 16
      },
      {
        "name": "センチュリーコート１０番館",
        "address": "宮崎県宮崎市昭栄町125-1",
        "lng": 131.453349,
        "lat": 31.914841,
        "h": 16
      },
      {
        "name": "シルバーバック宮崎昭栄店立体駐車場",
        "address": "宮崎県宮崎市昭栄町31",
        "lng": 131.453744,
        "lat": 31.913209,
        "h": 16
      },
      {
        "name": "ヴィラ　プレポール",
        "address": "宮崎県宮崎市昭栄町86-2",
        "lng": 131.45497,
        "lat": 31.911835,
        "h": 16
      },
      {
        "name": "センチュリーコート８番館",
        "address": "宮崎県宮崎市昭栄町１２７外",
        "lng": 131.453558,
        "lat": 31.915165,
        "h": 16
      },
      {
        "name": "公務員住宅　昭和住宅",
        "address": "宮崎県宮崎市昭和町1",
        "lng": 131.434432,
        "lat": 31.911338,
        "h": 16
      },
      {
        "name": "宮崎学園中学校・高等学校",
        "address": "宮崎県宮崎市昭和町3",
        "lng": 131.435418,
        "lat": 31.911278,
        "h": 87
      },
      {
        "name": "昭和町Ｎビル",
        "address": "宮崎県宮崎市昭和町76-2",
        "lng": 131.436487,
        "lat": 31.909005,
        "h": 16
      },
      {
        "name": "Ｃａｌｎａ　Ｃｏｕｒｔ",
        "address": "宮崎県宮崎市松橋1-16-11",
        "lng": 131.416294,
        "lat": 31.910913,
        "h": 16
      },
      {
        "name": "松橋駐車場",
        "address": "宮崎県宮崎市松橋1-49",
        "lng": 131.41887,
        "lat": 31.909758,
        "h": 8
      },
      {
        "name": "宮崎観光ホテル東館",
        "address": "宮崎県宮崎市松山1-1-1",
        "lng": 131.426774,
        "lat": 31.905579,
        "h": 16
      },
      {
        "name": "ＭＹ・エスポアール",
        "address": "宮崎県宮崎市上田島3757-2",
        "lng": 131.433126,
        "lat": 32.052649,
        "h": 16
      },
      {
        "name": "本山ビル",
        "address": "宮崎県宮崎市城ケ崎2-17-5",
        "lng": 131.429589,
        "lat": 31.896619,
        "h": 16
      },
      {
        "name": "ナーシェル",
        "address": "宮崎県宮崎市城ケ崎2-7-16",
        "lng": 131.428673,
        "lat": 31.897793,
        "h": 16
      },
      {
        "name": "マンションＭ・Ｋ",
        "address": "宮崎県宮崎市城ケ崎3-14-8",
        "lng": 131.430827,
        "lat": 31.896102,
        "h": 16
      },
      {
        "name": "シャトレ城ヶ崎",
        "address": "宮崎県宮崎市城ケ崎3-16-1",
        "lng": 131.431365,
        "lat": 31.896354,
        "h": 16
      },
      {
        "name": "ラ・フォンティーヌ",
        "address": "宮崎県宮崎市城ケ崎3-17-6",
        "lng": 131.431618,
        "lat": 31.896596,
        "h": 16
      },
      {
        "name": "特別養護老人ホーム　城ヶ崎　小戸の家",
        "address": "宮崎県宮崎市城ケ崎3-3-3",
        "lng": 131.43243,
        "lat": 31.897938,
        "h": 16
      },
      {
        "name": "リバーサイドマンション",
        "address": "宮崎県宮崎市城ケ崎4-1-18",
        "lng": 131.43507,
        "lat": 31.896846,
        "h": 16
      },
      {
        "name": "創価学会　宮崎平和会館",
        "address": "宮崎県宮崎市城ケ崎4-1-9",
        "lng": 131.434033,
        "lat": 31.897552,
        "h": 16
      },
      {
        "name": "ハートピュア宇和田",
        "address": "宮崎県宮崎市城ケ崎4-11-7",
        "lng": 131.435113,
        "lat": 31.895283,
        "h": 16
      },
      {
        "name": "サンピュアネス",
        "address": "宮崎県宮崎市城ケ崎4-6-12",
        "lng": 131.432655,
        "lat": 31.895834,
        "h": 16
      },
      {
        "name": "シャトレ田吉",
        "address": "宮崎県宮崎市城ケ崎4-8-11",
        "lng": 131.433786,
        "lat": 31.895195,
        "h": 16
      },
      {
        "name": "アンシャンテ・Ｓ",
        "address": "宮崎県宮崎市新栄町63",
        "lng": 131.453153,
        "lat": 31.909528,
        "h": 16
      },
      {
        "name": "エアフォルクⅢ",
        "address": "宮崎県宮崎市新栄町１１３外",
        "lng": 131.454302,
        "lat": 31.907837,
        "h": 16
      },
      {
        "name": "ラヴィドール",
        "address": "宮崎県宮崎市新栄町６４外",
        "lng": 131.453409,
        "lat": 31.908895,
        "h": 16
      },
      {
        "name": "サーパス柳丸イーストガーデン",
        "address": "宮崎県宮崎市新城町1-1",
        "lng": 131.437717,
        "lat": 31.925229,
        "h": 16
      },
      {
        "name": "サンジェルマンⅠ",
        "address": "宮崎県宮崎市新城町23-2",
        "lng": 131.440766,
        "lat": 31.925816,
        "h": 16
      },
      {
        "name": "住宅型有料老人ホームいちごの里　柳丸",
        "address": "宮崎県宮崎市新城町44",
        "lng": 131.438695,
        "lat": 31.926226,
        "h": 16
      },
      {
        "name": "引土街区公園",
        "address": "宮崎県宮崎市新城町6-1",
        "lng": 131.438919,
        "lat": 31.92482,
        "h": 40
      },
      {
        "name": "宮崎港津波避難施設（避難高台）一ツ葉地区",
        "address": "宮崎県宮崎市新別府町1400-16",
        "lng": 131.467565,
        "lat": 31.923318,
        "h": 16
      },
      {
        "name": "イオンモール宮崎",
        "address": "宮崎県宮崎市新別府町江口862-1",
        "lng": 131.455882,
        "lat": 31.92297,
        "h": 16
      },
      {
        "name": "宮崎善仁会病院",
        "address": "宮崎県宮崎市新別府町江口950",
        "lng": 131.45322,
        "lat": 31.921784,
        "h": 16
      },
      {
        "name": "宮崎県生コンクリート工業組合　技術研修センター",
        "address": "宮崎県宮崎市新別府町薦藁1948",
        "lng": 131.458196,
        "lat": 31.923806,
        "h": 16
      },
      {
        "name": "新別府町自治公民館",
        "address": "宮崎県宮崎市新別府町麓418",
        "lng": 131.449803,
        "lat": 31.923924,
        "h": 71
      },
      {
        "name": "麦田緑地広場",
        "address": "宮崎県宮崎市新名爪麦田1415-4",
        "lng": 131.444603,
        "lat": 31.976431,
        "h": 40
      },
      {
        "name": "宮崎神宮東・西神苑",
        "address": "宮崎県宮崎市神宮2",
        "lng": 131.423518,
        "lat": 31.938351,
        "h": 40
      },
      {
        "name": "矢の先街区公園",
        "address": "宮崎県宮崎市神宮西2-252",
        "lng": 131.418551,
        "lat": 31.939383,
        "h": 40
      },
      {
        "name": "宮崎市青少年プラザ体育館",
        "address": "宮崎県宮崎市神宮東1-2-27",
        "lng": 131.426267,
        "lat": 31.932208,
        "h": 71
      },
      {
        "name": "宮崎市北部老人福祉センター",
        "address": "宮崎県宮崎市神宮東1-2-27",
        "lng": 131.426046,
        "lat": 31.932151,
        "h": 71
      },
      {
        "name": "宮崎大宮高校グラウンド",
        "address": "宮崎県宮崎市神宮東1-3-10",
        "lng": 131.425287,
        "lat": 31.932879,
        "h": 40
      },
      {
        "name": "宮崎県立宮崎大宮高等学校",
        "address": "宮崎県宮崎市神宮東1-3-10",
        "lng": 131.425314,
        "lat": 31.932891,
        "h": 71
      },
      {
        "name": "二葉街区公園",
        "address": "宮崎県宮崎市清水1-114-1",
        "lng": 131.421888,
        "lat": 31.91778,
        "h": 40
      },
      {
        "name": "加納中学校グラウンド",
        "address": "宮崎県宮崎市清武町加納乙1040",
        "lng": 131.396424,
        "lat": 31.87796,
        "h": 40
      },
      {
        "name": "宮崎市立加納中学校",
        "address": "宮崎県宮崎市清武町加納乙1040",
        "lng": 131.39648,
        "lat": 31.878344,
        "h": 71
      },
      {
        "name": "加納公園",
        "address": "宮崎県宮崎市清武町加納乙1047",
        "lng": 131.394196,
        "lat": 31.876334,
        "h": 40
      },
      {
        "name": "宮崎市加納地区交流センター",
        "address": "宮崎県宮崎市清武町加納乙1047",
        "lng": 131.393641,
        "lat": 31.875389,
        "h": 71
      },
      {
        "name": "宮崎市加納スポーツセンター",
        "address": "宮崎県宮崎市清武町加納乙213-4",
        "lng": 131.405838,
        "lat": 31.880689,
        "h": 71
      },
      {
        "name": "宮崎市立加納小学校",
        "address": "宮崎県宮崎市清武町加納甲1010",
        "lng": 131.388735,
        "lat": 31.869832,
        "h": 71
      },
      {
        "name": "加納小学校グラウンド",
        "address": "宮崎県宮崎市清武町加納甲1010",
        "lng": 131.38879,
        "lat": 31.869949,
        "h": 40
      },
      {
        "name": "第２次池田台団地１号公園",
        "address": "宮崎県宮崎市清武町加納甲1520-51",
        "lng": 131.396679,
        "lat": 31.875823,
        "h": 40
      },
      {
        "name": "ＪＡ南宮崎営農センター",
        "address": "宮崎県宮崎市清武町加納字須木田885",
        "lng": 131.40863,
        "lat": 31.856754,
        "h": 71
      },
      {
        "name": "宮崎学園短期大学",
        "address": "宮崎県宮崎市清武町加納丙1415",
        "lng": 131.394697,
        "lat": 31.859856,
        "h": 71
      },
      {
        "name": "産機サービス",
        "address": "宮崎県宮崎市清武町今泉乙365-2",
        "lng": 131.372122,
        "lat": 31.837509,
        "h": 71
      },
      {
        "name": "宮崎市清武地区交流センター",
        "address": "宮崎県宮崎市清武町今泉甲2694-3",
        "lng": 131.363943,
        "lat": 31.85606,
        "h": 71
      },
      {
        "name": "清武総合運動公園",
        "address": "宮崎県宮崎市清武町今泉甲530",
        "lng": 131.369886,
        "lat": 31.847218,
        "h": 40
      },
      {
        "name": "大久保小学校グラウンド",
        "address": "宮崎県宮崎市清武町今泉甲5645",
        "lng": 131.362422,
        "lat": 31.858179,
        "h": 40
      },
      {
        "name": "宮崎市立大久保小学校",
        "address": "宮崎県宮崎市清武町今泉甲5645",
        "lng": 131.362433,
        "lat": 31.858177,
        "h": 71
      },
      {
        "name": "清武中学校グラウンド",
        "address": "宮崎県宮崎市清武町今泉甲6980",
        "lng": 131.387713,
        "lat": 31.853154,
        "h": 40
      },
      {
        "name": "宮崎市立清武中学校",
        "address": "宮崎県宮崎市清武町今泉甲6980",
        "lng": 131.387687,
        "lat": 31.853141,
        "h": 71
      },
      {
        "name": "清武小学校グラウンド",
        "address": "宮崎県宮崎市清武町今泉甲7023-1",
        "lng": 131.387949,
        "lat": 31.854521,
        "h": 40
      },
      {
        "name": "宮崎市立清武小学校",
        "address": "宮崎県宮崎市清武町今泉甲7023-1",
        "lng": 131.38796,
        "lat": 31.854527,
        "h": 71
      },
      {
        "name": "原ノ久保児童公園",
        "address": "宮崎県宮崎市清武町今泉丙2671",
        "lng": 131.390272,
        "lat": 31.849896,
        "h": 40
      },
      {
        "name": "正手１号児童公園",
        "address": "宮崎県宮崎市清武町正手2-67",
        "lng": 131.386127,
        "lat": 31.860335,
        "h": 40
      },
      {
        "name": "宮崎市清武総合福祉センター",
        "address": "宮崎県宮崎市清武町西新町8-6",
        "lng": 131.389379,
        "lat": 31.854042,
        "h": 71
      },
      {
        "name": "新川街区公園",
        "address": "宮崎県宮崎市清武町船引644-73",
        "lng": 131.391304,
        "lat": 31.855517,
        "h": 40
      },
      {
        "name": "第３次池田台団地１号公園",
        "address": "宮崎県宮崎市清武町池田台29-2",
        "lng": 131.389437,
        "lat": 31.878055,
        "h": 40
      },
      {
        "name": "クリーン池田台２号公園",
        "address": "宮崎県宮崎市清武町池田台北29-215",
        "lng": 131.392122,
        "lat": 31.881088,
        "h": 40
      },
      {
        "name": "クリーン池田台３号公園",
        "address": "宮崎県宮崎市清武町池田台北29-390",
        "lng": 131.388555,
        "lat": 31.880906,
        "h": 40
      },
      {
        "name": "クリーン池田台４号公園",
        "address": "宮崎県宮崎市清武町池田台北29-397",
        "lng": 131.39036,
        "lat": 31.877932,
        "h": 40
      },
      {
        "name": "クリーン池田台１号公園",
        "address": "宮崎県宮崎市清武町池田台北34-100",
        "lng": 131.394617,
        "lat": 31.879826,
        "h": 40
      },
      {
        "name": "宮崎市清武体育館",
        "address": "宮崎県宮崎市清武町木原6652-2",
        "lng": 131.391339,
        "lat": 31.854518,
        "h": 71
      },
      {
        "name": "木原公園",
        "address": "宮崎県宮崎市清武町木原入料4136-1",
        "lng": 131.406715,
        "lat": 31.835028,
        "h": 40
      },
      {
        "name": "生目台西小学校グラウンド",
        "address": "宮崎県宮崎市生目台西2-1-1",
        "lng": 131.372276,
        "lat": 31.904638,
        "h": 40
      },
      {
        "name": "生目台緑地",
        "address": "宮崎県宮崎市生目台西5-24-1",
        "lng": 131.371051,
        "lat": 31.901293,
        "h": 40
      },
      {
        "name": "宮崎市立生目台中学校",
        "address": "宮崎県宮崎市生目台東4-1-1",
        "lng": 131.379801,
        "lat": 31.904323,
        "h": 71
      },
      {
        "name": "生目台中学校グラウンド",
        "address": "宮崎県宮崎市生目台東4-1-1",
        "lng": 131.379903,
        "lat": 31.904102,
        "h": 40
      },
      {
        "name": "宮崎市立生目台東小学校",
        "address": "宮崎県宮崎市生目台東4-2-1",
        "lng": 131.378036,
        "lat": 31.903101,
        "h": 71
      },
      {
        "name": "生目台東小学校グラウンド",
        "address": "宮崎県宮崎市生目台東4-2-1",
        "lng": 131.378675,
        "lat": 31.903394,
        "h": 40
      },
      {
        "name": "宮崎市生目台地区交流センター",
        "address": "宮崎県宮崎市生目台東4-6-2",
        "lng": 131.375032,
        "lat": 31.904387,
        "h": 27
      },
      {
        "name": "生目台公園",
        "address": "宮崎県宮崎市生目台東4-8-1",
        "lng": 131.374303,
        "lat": 31.906054,
        "h": 40
      },
      {
        "name": "西池小学校グラウンド",
        "address": "宮崎県宮崎市西池町12-49",
        "lng": 131.419857,
        "lat": 31.923271,
        "h": 40
      },
      {
        "name": "宮崎市立西池小学校",
        "address": "宮崎県宮崎市西池町12-49",
        "lng": 131.419899,
        "lat": 31.923223,
        "h": 71
      },
      {
        "name": "ＡＮＡ　ホリデイ・イン　リゾート　宮崎",
        "address": "宮崎県宮崎市青島1-16-1",
        "lng": 131.461054,
        "lat": 31.806101,
        "h": 16
      },
      {
        "name": "ロコビーチ",
        "address": "宮崎県宮崎市青島1-75",
        "lng": 131.46482,
        "lat": 31.803277,
        "h": 16
      },
      {
        "name": "介護老人保健施設あおしまの家",
        "address": "宮崎県宮崎市青島4-6-3",
        "lng": 131.469288,
        "lat": 31.795567,
        "h": 16
      },
      {
        "name": "巖泉寺",
        "address": "宮崎県宮崎市青島4-9-1",
        "lng": 131.468176,
        "lat": 31.794485,
        "h": 71
      },
      {
        "name": "青島９区一次避難場所",
        "address": "宮崎県宮崎市青島６－１９外",
        "lng": 131.472056,
        "lat": 31.791231,
        "h": 16
      },
      {
        "name": "青島歴史文化の広場",
        "address": "宮崎県宮崎市青島西1-16-4",
        "lng": 131.462983,
        "lat": 31.802635,
        "h": 40
      },
      {
        "name": "ドルフィン",
        "address": "宮崎県宮崎市青島西1-6-13",
        "lng": 131.458643,
        "lat": 31.804534,
        "h": 16
      },
      {
        "name": "グランマリン",
        "address": "宮崎県宮崎市青島西1-6-15",
        "lng": 131.458378,
        "lat": 31.804702,
        "h": 16
      },
      {
        "name": "宮崎市青島地区交流センター",
        "address": "宮崎県宮崎市青島西2-1",
        "lng": 131.461828,
        "lat": 31.802141,
        "h": 71
      },
      {
        "name": "青島地域総合センター",
        "address": "宮崎県宮崎市青島西2-1",
        "lng": 131.462018,
        "lat": 31.802001,
        "h": 16
      },
      {
        "name": "宮崎市青島浄化センター２階",
        "address": "宮崎県宮崎市青島西2-15-1",
        "lng": 131.466719,
        "lat": 31.798828,
        "h": 71
      },
      {
        "name": "ラメールブルー",
        "address": "宮崎県宮崎市青島西2-2-7",
        "lng": 131.463738,
        "lat": 31.801349,
        "h": 16
      },
      {
        "name": "宮崎航空大学校",
        "address": "宮崎県宮崎市赤江飛江田652-2",
        "lng": 131.442367,
        "lat": 31.879334,
        "h": 87
      },
      {
        "name": "宮崎空港旅客ターミナルビル",
        "address": "宮崎県宮崎市赤江無番地",
        "lng": 131.447333,
        "lat": 31.876202,
        "h": 16
      },
      {
        "name": "跡江公園",
        "address": "宮崎県宮崎市跡江212",
        "lng": 131.391473,
        "lat": 31.954915,
        "h": 40
      },
      {
        "name": "城山公園",
        "address": "宮崎県宮崎市折生迫6624-1",
        "lng": 131.476104,
        "lat": 31.792685,
        "h": 40
      },
      {
        "name": "宮崎公立大学（体育館）",
        "address": "宮崎県宮崎市船塚1-1-2",
        "lng": 131.418328,
        "lat": 31.926253,
        "h": 71
      },
      {
        "name": "宮崎公立大学グラウンド",
        "address": "宮崎県宮崎市船塚1-1-2",
        "lng": 131.418349,
        "lat": 31.926253,
        "h": 40
      },
      {
        "name": "霧島街区公園",
        "address": "宮崎県宮崎市船塚1-81",
        "lng": 131.41654,
        "lat": 31.927243,
        "h": 40
      },
      {
        "name": "グランドヒルズ船塚",
        "address": "宮崎県宮崎市船塚2-3",
        "lng": 131.420671,
        "lat": 31.927767,
        "h": 16
      },
      {
        "name": "県総合文化公園",
        "address": "宮崎県宮崎市船塚3",
        "lng": 131.418754,
        "lat": 31.933932,
        "h": 40
      },
      {
        "name": "宮崎銀行文化公園共同住宅Ａ棟",
        "address": "宮崎県宮崎市船塚3-170",
        "lng": 131.419419,
        "lat": 31.932188,
        "h": 16
      },
      {
        "name": "宮崎銀行文化公園共同住宅Ｂ棟",
        "address": "宮崎県宮崎市船塚3-171",
        "lng": 131.41949,
        "lat": 31.932408,
        "h": 16
      },
      {
        "name": "光明保育園",
        "address": "宮崎県宮崎市村角町阿波2525",
        "lng": 131.449424,
        "lat": 31.952981,
        "h": 71
      },
      {
        "name": "村角町公民館",
        "address": "宮崎県宮崎市村角町阿波2535",
        "lng": 131.448774,
        "lat": 31.953038,
        "h": 71
      },
      {
        "name": "宮崎市立東大宮中学校",
        "address": "宮崎県宮崎市村角町島ノ前1346-1",
        "lng": 131.441738,
        "lat": 31.950714,
        "h": 71
      },
      {
        "name": "宮崎市東大宮地区交流センター",
        "address": "宮崎県宮崎市村角町島ノ前1346-1",
        "lng": 131.441702,
        "lat": 31.948704,
        "h": 71
      },
      {
        "name": "東大宮中学校グラウンド",
        "address": "宮崎県宮崎市村角町島ノ前1346-1",
        "lng": 131.441576,
        "lat": 31.950663,
        "h": 40
      },
      {
        "name": "グリーンハイツ奥野",
        "address": "宮崎県宮崎市太田2-3-6",
        "lng": 131.422009,
        "lat": 31.901793,
        "h": 16
      },
      {
        "name": "アカネアネックス宮崎",
        "address": "宮崎県宮崎市太田3-3-10",
        "lng": 131.420779,
        "lat": 31.899178,
        "h": 16
      },
      {
        "name": "藤井第２ビル",
        "address": "宮崎県宮崎市太田4-1-41",
        "lng": 131.420006,
        "lat": 31.898419,
        "h": 16
      },
      {
        "name": "長友ビル",
        "address": "宮崎県宮崎市太田4-2-22",
        "lng": 131.4197,
        "lat": 31.897447,
        "h": 16
      },
      {
        "name": "ワコーハイツ",
        "address": "宮崎県宮崎市太田4-3-1",
        "lng": 131.420562,
        "lat": 31.897501,
        "h": 16
      },
      {
        "name": "第２サンハイツ",
        "address": "宮崎県宮崎市太田4-3-30",
        "lng": 131.420533,
        "lat": 31.897299,
        "h": 16
      },
      {
        "name": "クリオ９０",
        "address": "宮崎県宮崎市大王町59",
        "lng": 131.439997,
        "lat": 31.906608,
        "h": 16
      },
      {
        "name": "ウエストコーストⅢ",
        "address": "宮崎県宮崎市大王町96",
        "lng": 131.441882,
        "lat": 31.907415,
        "h": 16
      },
      {
        "name": "高千穂街区公園",
        "address": "宮崎県宮崎市大橋1-103",
        "lng": 131.414646,
        "lat": 31.92022,
        "h": 40
      },
      {
        "name": "宮崎グリーンホテル",
        "address": "宮崎県宮崎市大橋2-36-1",
        "lng": 131.411065,
        "lat": 31.919517,
        "h": 16
      },
      {
        "name": "ＵＭＫ宮崎ビル",
        "address": "宮崎県宮崎市大橋3-101-1",
        "lng": 131.408951,
        "lat": 31.920541,
        "h": 16
      },
      {
        "name": "サーパス大橋",
        "address": "宮崎県宮崎市大橋3-107-1",
        "lng": 131.409544,
        "lat": 31.920299,
        "h": 16
      },
      {
        "name": "グランピア大橋",
        "address": "宮崎県宮崎市大橋3-137-1",
        "lng": 131.406543,
        "lat": 31.921638,
        "h": 16
      },
      {
        "name": "サーパス大橋第２",
        "address": "宮崎県宮崎市大橋3-165-1",
        "lng": 131.408949,
        "lat": 31.921627,
        "h": 16
      },
      {
        "name": "宮崎市立小戸小学校",
        "address": "宮崎県宮崎市大工1-5-43",
        "lng": 131.414401,
        "lat": 31.917435,
        "h": 71
      },
      {
        "name": "小戸小学校グラウンド",
        "address": "宮崎県宮崎市大工1-5-43",
        "lng": 131.414308,
        "lat": 31.9174,
        "h": 40
      },
      {
        "name": "国土交通省宮崎河川国道事務所",
        "address": "宮崎県宮崎市大工2-39",
        "lng": 131.410343,
        "lat": 31.916156,
        "h": 71
      },
      {
        "name": "青島１８区一次避難場所",
        "address": "宮崎県宮崎市大字２１８－２外",
        "lng": 131.465703,
        "lat": 31.761601,
        "h": 16
      },
      {
        "name": "直純寺",
        "address": "宮崎県宮崎市大字瓜生野155",
        "lng": 131.398345,
        "lat": 31.955835,
        "h": 71
      },
      {
        "name": "上野自治公民館",
        "address": "宮崎県宮崎市大字瓜生野2570",
        "lng": 131.387378,
        "lat": 31.969217,
        "h": 71
      },
      {
        "name": "瓜生野小学校グラウンド",
        "address": "宮崎県宮崎市大字瓜生野2589",
        "lng": 131.387675,
        "lat": 31.970148,
        "h": 40
      },
      {
        "name": "宮崎市立瓜生野小学校",
        "address": "宮崎県宮崎市大字瓜生野2589",
        "lng": 131.387606,
        "lat": 31.970373,
        "h": 71
      },
      {
        "name": "宮崎市北地区交流センター",
        "address": "宮崎県宮崎市大字瓜生野3909",
        "lng": 131.382997,
        "lat": 31.962675,
        "h": 71
      },
      {
        "name": "北部営農研修センター",
        "address": "宮崎県宮崎市大字塩路1341-3",
        "lng": 131.468859,
        "lat": 31.982905,
        "h": 71
      },
      {
        "name": "円南寺",
        "address": "宮崎県宮崎市大字加江田3782",
        "lng": 131.434712,
        "lat": 31.813127,
        "h": 71
      },
      {
        "name": "ゴールデンレイク",
        "address": "宮崎県宮崎市大字加江田4514-2",
        "lng": 131.445134,
        "lat": 31.811519,
        "h": 16
      },
      {
        "name": "あおしま優亜館（新館）",
        "address": "宮崎県宮崎市大字加江田4910",
        "lng": 131.454521,
        "lat": 31.812875,
        "h": 16
      },
      {
        "name": "宮崎市自然休養村センター",
        "address": "宮崎県宮崎市大字加江田6896",
        "lng": 131.448714,
        "lat": 31.805368,
        "h": 71
      },
      {
        "name": "宮崎市立鏡洲小学校",
        "address": "宮崎県宮崎市大字鏡洲2056",
        "lng": 131.390115,
        "lat": 31.821297,
        "h": 71
      },
      {
        "name": "金崎コミュニティーセンター",
        "address": "宮崎県宮崎市大字金崎582",
        "lng": 131.356525,
        "lat": 31.96893,
        "h": 71
      },
      {
        "name": "ホワイトスクエア",
        "address": "宮崎県宮崎市大字熊野10363",
        "lng": 131.438678,
        "lat": 31.830935,
        "h": 16
      },
      {
        "name": "宮崎市立木花小学校",
        "address": "宮崎県宮崎市大字熊野10956",
        "lng": 131.43454,
        "lat": 31.832189,
        "h": 87
      },
      {
        "name": "島山地区複合型津波避難施設",
        "address": "宮崎県宮崎市大字熊野1374-43",
        "lng": 131.444236,
        "lat": 31.822776,
        "h": 71
      },
      {
        "name": "島山地区複合型津波避難施設",
        "address": "宮崎県宮崎市大字熊野1374-43",
        "lng": 131.444258,
        "lat": 31.822765,
        "h": 16
      },
      {
        "name": "宮崎県総合運動公園サンマリンスタジアム宮崎",
        "address": "宮崎県宮崎市大字熊野1443-12",
        "lng": 131.445901,
        "lat": 31.830976,
        "h": 16
      },
      {
        "name": "宮崎県総合運動公園",
        "address": "宮崎県宮崎市大字熊野2206-1",
        "lng": 131.448072,
        "lat": 31.824936,
        "h": 71
      },
      {
        "name": "介護老人保健施設グリーンケア",
        "address": "宮崎県宮崎市大字熊野470-2",
        "lng": 131.438451,
        "lat": 31.828188,
        "h": 16
      },
      {
        "name": "ベルハイムエルステ",
        "address": "宮崎県宮崎市大字熊野487-1",
        "lng": 131.438446,
        "lat": 31.829032,
        "h": 16
      },
      {
        "name": "ガレージⅡ",
        "address": "宮崎県宮崎市大字熊野498-1",
        "lng": 131.437351,
        "lat": 31.829427,
        "h": 16
      },
      {
        "name": "ドムス繪所",
        "address": "宮崎県宮崎市大字熊野501-1",
        "lng": 131.437246,
        "lat": 31.829641,
        "h": 16
      },
      {
        "name": "ＪＡ宮崎中央木花支店",
        "address": "宮崎県宮崎市大字熊野565",
        "lng": 131.436528,
        "lat": 31.830823,
        "h": 71
      },
      {
        "name": "宮崎市木花地区交流センター",
        "address": "宮崎県宮崎市大字熊野591",
        "lng": 131.436421,
        "lat": 31.829098,
        "h": 71
      },
      {
        "name": "ドムス澤田Ⅰ",
        "address": "宮崎県宮崎市大字熊野607",
        "lng": 131.434302,
        "lat": 31.827767,
        "h": 16
      },
      {
        "name": "ドムス澤田Ⅱ",
        "address": "宮崎県宮崎市大字熊野607",
        "lng": 131.434233,
        "lat": 31.82791,
        "h": 16
      },
      {
        "name": "サンコーポくんぱち",
        "address": "宮崎県宮崎市大字熊野642-1",
        "lng": 131.436162,
        "lat": 31.830499,
        "h": 16
      },
      {
        "name": "ジョイス",
        "address": "宮崎県宮崎市大字熊野9932-1",
        "lng": 131.432109,
        "lat": 31.835043,
        "h": 16
      },
      {
        "name": "サンライズ　ＭＩＣＨＩ",
        "address": "宮崎県宮崎市大字熊野9964-3",
        "lng": 131.431156,
        "lat": 31.833646,
        "h": 16
      },
      {
        "name": "クリエ　テゾーロ",
        "address": "宮崎県宮崎市大字熊野字今江10184-3",
        "lng": 131.435864,
        "lat": 31.833351,
        "h": 16
      },
      {
        "name": "宮崎県青島青少年自然の家",
        "address": "宮崎県宮崎市大字熊野字藤兵衛中洲",
        "lng": 131.449613,
        "lat": 31.819646,
        "h": 87
      },
      {
        "name": "くどみ児友園",
        "address": "宮崎県宮崎市大字郡司分2202-2",
        "lng": 131.433237,
        "lat": 31.854904,
        "h": 16
      },
      {
        "name": "宮崎県消防学校",
        "address": "宮崎県宮崎市大字郡司分甲210",
        "lng": 131.434721,
        "lat": 31.849489,
        "h": 87
      },
      {
        "name": "松葉ヶ迫４号緑地広場",
        "address": "宮崎県宮崎市大字郡司分字松葉ヶ迫丙9851-30",
        "lng": 131.418731,
        "lat": 31.869758,
        "h": 40
      },
      {
        "name": "西山崎センター",
        "address": "宮崎県宮崎市大字郡司分字中ノ迫丙9568-1",
        "lng": 131.417974,
        "lat": 31.866485,
        "h": 71
      },
      {
        "name": "宮崎市広原体育館",
        "address": "宮崎県宮崎市大字広原1085-1",
        "lng": 131.436774,
        "lat": 32.000256,
        "h": 71
      },
      {
        "name": "日章学園高校グラウンド・第二グラウンド",
        "address": "宮崎県宮崎市大字広原836",
        "lng": 131.440687,
        "lat": 32.002066,
        "h": 40
      },
      {
        "name": "日章学園高等学校",
        "address": "宮崎県宮崎市大字広原836",
        "lng": 131.440667,
        "lat": 32.002067,
        "h": 71
      },
      {
        "name": "クレールマンション",
        "address": "宮崎県宮崎市大字恒久4301-1",
        "lng": 131.419045,
        "lat": 31.890846,
        "h": 16
      },
      {
        "name": "大淀学園鵬翔高等学校",
        "address": "宮崎県宮崎市大字恒久4336",
        "lng": 131.417196,
        "lat": 31.891235,
        "h": 71
      },
      {
        "name": "鵬翔高校グラウンド",
        "address": "宮崎県宮崎市大字恒久4336",
        "lng": 131.417105,
        "lat": 31.890897,
        "h": 40
      },
      {
        "name": "クリニック　うしたに",
        "address": "宮崎県宮崎市大字恒久5065",
        "lng": 131.412324,
        "lat": 31.889966,
        "h": 16
      },
      {
        "name": "宮崎市南部老人福祉センター",
        "address": "宮崎県宮崎市大字恒久5124",
        "lng": 131.411201,
        "lat": 31.888393,
        "h": 71
      },
      {
        "name": "ケアヴィレッタ　ナチュらいふ恒久",
        "address": "宮崎県宮崎市大字恒久5314-5",
        "lng": 131.412249,
        "lat": 31.890773,
        "h": 16
      },
      {
        "name": "宮崎市立赤江小学校",
        "address": "宮崎県宮崎市大字恒久556",
        "lng": 131.429934,
        "lat": 31.888394,
        "h": 87
      },
      {
        "name": "リージェントマンション",
        "address": "宮崎県宮崎市大字恒久997",
        "lng": 131.426865,
        "lat": 31.878824,
        "h": 16
      },
      {
        "name": "吉永センター",
        "address": "宮崎県宮崎市大字恒久字吉永1287-3",
        "lng": 131.418781,
        "lat": 31.886797,
        "h": 71
      },
      {
        "name": "原池田緑地広場",
        "address": "宮崎県宮崎市大字恒久字原池田4265-5",
        "lng": 131.418976,
        "lat": 31.888374,
        "h": 40
      },
      {
        "name": "宮崎市障がい者体育センター",
        "address": "宮崎県宮崎市大字恒久字西原5132",
        "lng": 131.411732,
        "lat": 31.888659,
        "h": 71
      },
      {
        "name": "宮崎農業高校グラウンド",
        "address": "宮崎県宮崎市大字恒久春日田1061",
        "lng": 131.42423,
        "lat": 31.885911,
        "h": 40
      },
      {
        "name": "宮崎県立宮崎農業高等学校",
        "address": "宮崎県宮崎市大字恒久春日田1061",
        "lng": 131.42423,
        "lat": 31.885907,
        "h": 71
      },
      {
        "name": "糸原自治公民館",
        "address": "宮崎県宮崎市大字糸原2552-1",
        "lng": 131.360974,
        "lat": 31.955786,
        "h": 71
      },
      {
        "name": "宮崎市立倉岡小学校",
        "address": "宮崎県宮崎市大字糸原538",
        "lng": 131.367362,
        "lat": 31.962068,
        "h": 71
      },
      {
        "name": "倉岡小学校グラウンド",
        "address": "宮崎県宮崎市大字糸原538",
        "lng": 131.367424,
        "lat": 31.962106,
        "h": 40
      },
      {
        "name": "潤和会記念病院",
        "address": "宮崎県宮崎市大字小松1119",
        "lng": 131.403352,
        "lat": 31.935352,
        "h": 16
      },
      {
        "name": "平岩緑地広場",
        "address": "宮崎県宮崎市大字小松字池田１９４１－６７外",
        "lng": 131.390988,
        "lat": 31.934152,
        "h": 40
      },
      {
        "name": "宮崎日大学園学生寮桜俊館",
        "address": "宮崎県宮崎市大字新名爪1206",
        "lng": 131.455058,
        "lat": 31.976089,
        "h": 16
      },
      {
        "name": "宮崎北高校グラウンド",
        "address": "宮崎県宮崎市大字新名爪4567",
        "lng": 131.434933,
        "lat": 31.970452,
        "h": 40
      },
      {
        "name": "宮崎県立宮崎北高等学校",
        "address": "宮崎県宮崎市大字新名爪4567",
        "lng": 131.434942,
        "lat": 31.97045,
        "h": 71
      },
      {
        "name": "セントヒルズマリーナ宮崎壱番館",
        "address": "宮崎県宮崎市大字赤江1247",
        "lng": 131.449468,
        "lat": 31.882853,
        "h": 16
      },
      {
        "name": "セントヒルズマリーナ宮崎弐番館",
        "address": "宮崎県宮崎市大字赤江1369",
        "lng": 131.449689,
        "lat": 31.883452,
        "h": 16
      },
      {
        "name": "コスタ飛江田",
        "address": "宮崎県宮崎市大字赤江1556",
        "lng": 131.444605,
        "lat": 31.8863,
        "h": 16
      },
      {
        "name": "飛江田団地集会所",
        "address": "宮崎県宮崎市大字赤江409",
        "lng": 131.439078,
        "lat": 31.886217,
        "h": 71
      },
      {
        "name": "市営住宅飛江田団地　１６棟",
        "address": "宮崎県宮崎市大字赤江409",
        "lng": 131.43847,
        "lat": 31.885615,
        "h": 16
      },
      {
        "name": "宮崎県ＬＰガス会館",
        "address": "宮崎県宮崎市大字赤江字飛江田774",
        "lng": 131.444188,
        "lat": 31.879477,
        "h": 16
      },
      {
        "name": "宮崎市立共同利用施設空港南センター",
        "address": "宮崎県宮崎市大字赤江字飛江田79-1",
        "lng": 131.434629,
        "lat": 31.869271,
        "h": 71
      },
      {
        "name": "宮崎市緑松体育館",
        "address": "宮崎県宮崎市大字赤江字飛江田980",
        "lng": 131.450509,
        "lat": 31.879603,
        "h": 71
      },
      {
        "name": "宮崎液化ガス　宮崎事業部",
        "address": "宮崎県宮崎市大字赤江飛江田868-13",
        "lng": 131.445234,
        "lat": 31.88142,
        "h": 71
      },
      {
        "name": "跡江自治公民館",
        "address": "宮崎県宮崎市大字跡江2203",
        "lng": 131.39119,
        "lat": 31.945064,
        "h": 71
      },
      {
        "name": "宮崎市立生目中学校",
        "address": "宮崎県宮崎市大字跡江3131",
        "lng": 131.38142,
        "lat": 31.930541,
        "h": 71
      },
      {
        "name": "生目中学校グラウンド",
        "address": "宮崎県宮崎市大字跡江3131",
        "lng": 131.381274,
        "lat": 31.931412,
        "h": 40
      },
      {
        "name": "福祉：生目の杜遊古館",
        "address": "宮崎県宮崎市大字跡江4058-1",
        "lng": 131.384148,
        "lat": 31.946496,
        "h": 71
      },
      {
        "name": "生目の杜運動公園",
        "address": "宮崎県宮崎市大字跡江4461-1",
        "lng": 131.373513,
        "lat": 31.944421,
        "h": 40
      },
      {
        "name": "宮崎市生目の杜運動公園",
        "address": "宮崎県宮崎市大字跡江4461-1",
        "lng": 131.373768,
        "lat": 31.943524,
        "h": 71
      },
      {
        "name": "宮崎市立青島中学校",
        "address": "宮崎県宮崎市大字折生迫4828",
        "lng": 131.469174,
        "lat": 31.786516,
        "h": 87
      },
      {
        "name": "ホテル青島サンクマール",
        "address": "宮崎県宮崎市大字折生迫7408",
        "lng": 131.48758,
        "lat": 31.78626,
        "h": 16
      },
      {
        "name": "青島１０区一次避難場所",
        "address": "宮崎県宮崎市大字折生迫６９３－２外",
        "lng": 131.477843,
        "lat": 31.785974,
        "h": 16
      },
      {
        "name": "宮崎市立宮崎北中学校",
        "address": "宮崎県宮崎市大字大瀬町247",
        "lng": 131.37774,
        "lat": 31.962057,
        "h": 71
      },
      {
        "name": "宮崎北中学校グラウンド",
        "address": "宮崎県宮崎市大字大瀬町247",
        "lng": 131.377472,
        "lat": 31.962358,
        "h": 40
      },
      {
        "name": "平松自治公民館",
        "address": "宮崎県宮崎市大字大瀬町ヤゴロ迫5453-2",
        "lng": 131.387813,
        "lat": 31.977865,
        "h": 71
      },
      {
        "name": "宮崎市立赤江東中学校",
        "address": "宮崎県宮崎市大字田吉1031",
        "lng": 131.432673,
        "lat": 31.888101,
        "h": 87
      },
      {
        "name": "松永組運送㈱",
        "address": "宮崎県宮崎市大字田吉2478-4",
        "lng": 131.452478,
        "lat": 31.889829,
        "h": 16
      },
      {
        "name": "レ・ビラージュ",
        "address": "宮崎県宮崎市大字田吉291-3",
        "lng": 131.428806,
        "lat": 31.882227,
        "h": 16
      },
      {
        "name": "独立行政法人　国立病院機構　宮崎東病院",
        "address": "宮崎県宮崎市大字田吉4374-1",
        "lng": 131.445262,
        "lat": 31.869269,
        "h": 16
      },
      {
        "name": "マンション　ウッド・テック",
        "address": "宮崎県宮崎市大字田吉6187-1",
        "lng": 131.44031,
        "lat": 31.889537,
        "h": 16
      },
      {
        "name": "ハイツひまわり",
        "address": "宮崎県宮崎市大字田吉6241-1",
        "lng": 131.44258,
        "lat": 31.889262,
        "h": 16
      },
      {
        "name": "パームコートマンション",
        "address": "宮崎県宮崎市大字田吉6269-1",
        "lng": 131.443081,
        "lat": 31.890723,
        "h": 16
      },
      {
        "name": "シーサイドエコー",
        "address": "宮崎県宮崎市大字田吉字西前島1881-1",
        "lng": 131.446664,
        "lat": 31.890093,
        "h": 16
      },
      {
        "name": "宮崎市立共同利用施設南赤江センター",
        "address": "宮崎県宮崎市大字田吉字赤江278-2",
        "lng": 131.429904,
        "lat": 31.879932,
        "h": 71
      },
      {
        "name": "田吉自治公民館",
        "address": "宮崎県宮崎市大字田吉字田吉1364-1",
        "lng": 131.436708,
        "lat": 31.887423,
        "h": 87
      },
      {
        "name": "赤江地域センター",
        "address": "宮崎県宮崎市大字田吉字肥屋田5730-3",
        "lng": 131.428284,
        "lat": 31.885033,
        "h": 71
      },
      {
        "name": "浜畑自治公民館",
        "address": "宮崎県宮崎市大字田吉字木寅4370-1",
        "lng": 131.443306,
        "lat": 31.869893,
        "h": 71
      },
      {
        "name": "四本松営農研修センター",
        "address": "宮崎県宮崎市大字島之内10107-67",
        "lng": 131.46333,
        "lat": 31.986189,
        "h": 71
      },
      {
        "name": "県営住宅住吉北　７棟",
        "address": "宮崎県宮崎市大字島之内11000",
        "lng": 131.45972,
        "lat": 31.990946,
        "h": 16
      },
      {
        "name": "明星視覚支援学校グラウンド",
        "address": "宮崎県宮崎市大字島之内1390",
        "lng": 131.459377,
        "lat": 31.997377,
        "h": 40
      },
      {
        "name": "宮崎県立明星視覚支援学校",
        "address": "宮崎県宮崎市大字島之内1390",
        "lng": 131.459376,
        "lat": 31.997376,
        "h": 71
      },
      {
        "name": "宮崎市立住吉小学校",
        "address": "宮崎県宮崎市大字島之内5383",
        "lng": 131.440603,
        "lat": 31.984748,
        "h": 71
      },
      {
        "name": "住吉小学校グラウンド",
        "address": "宮崎県宮崎市大字島之内5383",
        "lng": 131.440541,
        "lat": 31.984737,
        "h": 40
      },
      {
        "name": "宮崎日本大学中学校・高等学校",
        "address": "宮崎県宮崎市大字島之内6822-2",
        "lng": 131.446432,
        "lat": 31.984176,
        "h": 71
      },
      {
        "name": "日大中学高校グラウンド・第二グラウンド",
        "address": "宮崎県宮崎市大字島之内6822-2",
        "lng": 131.446437,
        "lat": 31.984172,
        "h": 40
      },
      {
        "name": "宮崎市住吉児童センター",
        "address": "宮崎県宮崎市大字島之内7082-2",
        "lng": 131.451266,
        "lat": 31.988302,
        "h": 71
      },
      {
        "name": "宮崎市立住吉中学校",
        "address": "宮崎県宮崎市大字島之内7608",
        "lng": 131.450604,
        "lat": 31.9892,
        "h": 71
      },
      {
        "name": "住吉中学校グラウンド",
        "address": "宮崎県宮崎市大字島之内7608",
        "lng": 131.449492,
        "lat": 31.988885,
        "h": 40
      },
      {
        "name": "宮崎市立内海小学校",
        "address": "宮崎県宮崎市大字内海1024",
        "lng": 131.472144,
        "lat": 31.759753,
        "h": 71
      },
      {
        "name": "道の駅フェニックス",
        "address": "宮崎県宮崎市大字内海字三池381-1",
        "lng": 131.478425,
        "lat": 31.768983,
        "h": 16
      },
      {
        "name": "青島第２４区自治公民館",
        "address": "宮崎県宮崎市大字内海字大園7688-72",
        "lng": 131.461989,
        "lat": 31.728594,
        "h": 71
      },
      {
        "name": "生目小学校グラウンド",
        "address": "宮崎県宮崎市大字浮田2920",
        "lng": 131.371982,
        "lat": 31.931937,
        "h": 40
      },
      {
        "name": "宮崎市立生目小学校",
        "address": "宮崎県宮崎市大字浮田2920",
        "lng": 131.371689,
        "lat": 31.93199,
        "h": 71
      },
      {
        "name": "宮崎市生目地区交流センター",
        "address": "宮崎県宮崎市大字浮田3000-1",
        "lng": 131.375815,
        "lat": 31.929863,
        "h": 71
      },
      {
        "name": "宮崎市立生目南中学校",
        "address": "宮崎県宮崎市大字浮田662",
        "lng": 131.374819,
        "lat": 31.923114,
        "h": 71
      },
      {
        "name": "生目南中学校グラウンド",
        "address": "宮崎県宮崎市大字浮田662",
        "lng": 131.374801,
        "lat": 31.923143,
        "h": 40
      },
      {
        "name": "宮崎市立住吉南小学校",
        "address": "宮崎県宮崎市大字芳士1811",
        "lng": 131.44737,
        "lat": 31.965953,
        "h": 71
      },
      {
        "name": "住吉南小学校グラウンド",
        "address": "宮崎県宮崎市大字芳士1811",
        "lng": 131.447468,
        "lat": 31.966038,
        "h": 40
      },
      {
        "name": "宮崎北聖書キリスト教会駐車場",
        "address": "宮崎県宮崎市大字芳士807",
        "lng": 131.438276,
        "lat": 31.96413,
        "h": 40
      },
      {
        "name": "県営花ヶ島団地　５棟",
        "address": "宮崎県宮崎市大字芳士933",
        "lng": 131.441979,
        "lat": 31.961992,
        "h": 16
      },
      {
        "name": "金吹山自治公民館",
        "address": "宮崎県宮崎市大字芳士字大原3701-53",
        "lng": 131.458584,
        "lat": 31.967665,
        "h": 71
      },
      {
        "name": "県営花ヶ島東団地　７棟",
        "address": "宮崎県宮崎市大字芳士祝田1077-1",
        "lng": 131.443526,
        "lat": 31.961645,
        "h": 16
      },
      {
        "name": "宮崎市赤江老人福祉センター",
        "address": "宮崎県宮崎市大字本郷南方2487-4",
        "lng": 131.433426,
        "lat": 31.854035,
        "h": 71
      },
      {
        "name": "宮崎市本郷地区交流センター",
        "address": "宮崎県宮崎市大字本郷南方2793",
        "lng": 131.431084,
        "lat": 31.859378,
        "h": 71
      },
      {
        "name": "市営住宅立和原団地　２棟",
        "address": "宮崎県宮崎市大字本郷南方2919-1",
        "lng": 131.435285,
        "lat": 31.865847,
        "h": 16
      },
      {
        "name": "市営住宅立和原団地　２棟",
        "address": "宮崎県宮崎市大字本郷南方3207",
        "lng": 131.435401,
        "lat": 31.866213,
        "h": 16
      },
      {
        "name": "ほんごうマンション",
        "address": "宮崎県宮崎市大字本郷南方4016",
        "lng": 131.431268,
        "lat": 31.864425,
        "h": 16
      },
      {
        "name": "県営住宅本郷南　７棟",
        "address": "宮崎県宮崎市大字本郷南方4023",
        "lng": 131.431493,
        "lat": 31.86318,
        "h": 16
      },
      {
        "name": "ライフピア瑞光苑",
        "address": "宮崎県宮崎市大字本郷南方4046-2",
        "lng": 131.432851,
        "lat": 31.862202,
        "h": 16
      },
      {
        "name": "バグースヒルズ",
        "address": "宮崎県宮崎市大字本郷南方4191-1",
        "lng": 131.43111,
        "lat": 31.860618,
        "h": 16
      },
      {
        "name": "国富ホーム",
        "address": "宮崎県宮崎市大字本郷南方5",
        "lng": 131.434215,
        "lat": 31.856582,
        "h": 16
      },
      {
        "name": "本郷中学校グラウンド",
        "address": "宮崎県宮崎市大字本郷南方5460",
        "lng": 131.424064,
        "lat": 31.86244,
        "h": 40
      },
      {
        "name": "宮崎市立本郷中学校",
        "address": "宮崎県宮崎市大字本郷南方5460",
        "lng": 131.424279,
        "lat": 31.862639,
        "h": 71
      },
      {
        "name": "国富ヶ丘児童遊園",
        "address": "宮崎県宮崎市大字本郷南方４５６３－１国富ヶ丘自治公民館北側",
        "lng": 131.428164,
        "lat": 31.856257,
        "h": 40
      },
      {
        "name": "サニーコート",
        "address": "宮崎県宮崎市大字本郷北方1183",
        "lng": 131.434896,
        "lat": 31.886127,
        "h": 16
      },
      {
        "name": "サニーコートⅡ",
        "address": "宮崎県宮崎市大字本郷北方1319-2",
        "lng": 131.434867,
        "lat": 31.885817,
        "h": 16
      },
      {
        "name": "特別養護老人ホーム　ヴィラ・サザン",
        "address": "宮崎県宮崎市大字本郷北方2717-15",
        "lng": 131.409411,
        "lat": 31.874701,
        "h": 71
      },
      {
        "name": "宮崎市立本郷小学校",
        "address": "宮崎県宮崎市大字本郷北方3926",
        "lng": 131.4241,
        "lat": 31.863432,
        "h": 71
      },
      {
        "name": "本郷小学校グラウンド",
        "address": "宮崎県宮崎市大字本郷北方3926",
        "lng": 131.424193,
        "lat": 31.863461,
        "h": 40
      },
      {
        "name": "山崎台センター",
        "address": "宮崎県宮崎市大字本郷北方字乙戸3406-79",
        "lng": 131.425164,
        "lat": 31.868594,
        "h": 71
      },
      {
        "name": "高山３号緑地広場",
        "address": "宮崎県宮崎市大字本郷北方字高山2440-1",
        "lng": 131.411758,
        "lat": 31.87846,
        "h": 40
      },
      {
        "name": "宮崎市立共同利用施設津和田センター",
        "address": "宮崎県宮崎市大字本郷北方字大丸36-1",
        "lng": 131.430639,
        "lat": 31.873182,
        "h": 71
      },
      {
        "name": "城ノ下・池田自治公民館",
        "address": "宮崎県宮崎市大字本郷北方字池田4485-12",
        "lng": 131.431252,
        "lat": 31.869666,
        "h": 71
      },
      {
        "name": "有田ふれあい館",
        "address": "宮崎県宮崎市大字有田髙峯ノ下1980",
        "lng": 131.372044,
        "lat": 31.95073,
        "h": 71
      },
      {
        "name": "大塚台２号街区公園",
        "address": "宮崎県宮崎市大塚台西1-15-1",
        "lng": 131.381692,
        "lat": 31.920178,
        "h": 40
      },
      {
        "name": "大塚台１号街区公園",
        "address": "宮崎県宮崎市大塚台西1-6-1",
        "lng": 131.386533,
        "lat": 31.921265,
        "h": 40
      },
      {
        "name": "大塚台３号街区公園",
        "address": "宮崎県宮崎市大塚台西2-14-1",
        "lng": 131.383076,
        "lat": 31.91615,
        "h": 40
      },
      {
        "name": "宮崎西小学校グラウンド",
        "address": "宮崎県宮崎市大塚台西2-19-1",
        "lng": 131.384268,
        "lat": 31.914984,
        "h": 40
      },
      {
        "name": "宮崎市立宮崎西小学校",
        "address": "宮崎県宮崎市大塚台西2-19-1",
        "lng": 131.384387,
        "lat": 31.91494,
        "h": 71
      },
      {
        "name": "大塚台西３丁目地区コミュニティーセンター",
        "address": "宮崎県宮崎市大塚台西3-15-18",
        "lng": 131.382667,
        "lat": 31.908654,
        "h": 71
      },
      {
        "name": "宮崎市大塚台児童センター",
        "address": "宮崎県宮崎市大塚台西3-22-3",
        "lng": 131.38283,
        "lat": 31.910757,
        "h": 71
      },
      {
        "name": "大塚台公園",
        "address": "宮崎県宮崎市大塚台東2-3-1",
        "lng": 131.386114,
        "lat": 31.914622,
        "h": 40
      },
      {
        "name": "大塚中学校グラウンド",
        "address": "宮崎県宮崎市大塚町鎌ケ迫2296",
        "lng": 131.389536,
        "lat": 31.919913,
        "h": 40
      },
      {
        "name": "宮崎市立大塚中学校",
        "address": "宮崎県宮崎市大塚町鎌ケ迫2296",
        "lng": 131.389476,
        "lat": 31.919887,
        "h": 71
      },
      {
        "name": "宮崎市立大塚小学校",
        "address": "宮崎県宮崎市大塚町鎌ケ迫2296-2",
        "lng": 131.389219,
        "lat": 31.917796,
        "h": 71
      },
      {
        "name": "大塚小学校グラウンド",
        "address": "宮崎県宮崎市大塚町鎌ケ迫2296-2",
        "lng": 131.389354,
        "lat": 31.917846,
        "h": 40
      },
      {
        "name": "宮崎市大塚地区交流センター",
        "address": "宮崎県宮崎市大塚町鎌ケ迫2296-3",
        "lng": 131.389642,
        "lat": 31.918791,
        "h": 71
      },
      {
        "name": "サンマンション大塚",
        "address": "宮崎県宮崎市大塚町窪田3272",
        "lng": 131.396103,
        "lat": 31.911937,
        "h": 16
      },
      {
        "name": "日高マンション",
        "address": "宮崎県宮崎市大塚町窪田3321-4",
        "lng": 131.395734,
        "lat": 31.91397,
        "h": 16
      },
      {
        "name": "小原田ふれあい広場",
        "address": "宮崎県宮崎市大塚町小原田2146-2",
        "lng": 131.393957,
        "lat": 31.918833,
        "h": 40
      },
      {
        "name": "コアマンション大塚Ⅱ",
        "address": "宮崎県宮崎市大塚町水流5188-2",
        "lng": 131.402643,
        "lat": 31.911007,
        "h": 16
      },
      {
        "name": "コアマンション大塚",
        "address": "宮崎県宮崎市大塚町正市5590-1",
        "lng": 131.400793,
        "lat": 31.917828,
        "h": 16
      },
      {
        "name": "県営住宅大塚Ａ　６棟",
        "address": "宮崎県宮崎市大塚町地蔵田4651",
        "lng": 131.393646,
        "lat": 31.909724,
        "h": 16
      },
      {
        "name": "小松台南街区公園",
        "address": "宮崎県宮崎市大塚町池ノ内1099-63",
        "lng": 131.391738,
        "lat": 31.9275,
        "h": 40
      },
      {
        "name": "おおつかの杜　リハビリテーションふれあいセンター",
        "address": "宮崎県宮崎市大塚町池ノ内1199",
        "lng": 131.393707,
        "lat": 31.923528,
        "h": 16
      },
      {
        "name": "シャンテ長沼Ⅱ",
        "address": "宮崎県宮崎市大塚町竹原2046-1",
        "lng": 131.39634,
        "lat": 31.918345,
        "h": 16
      },
      {
        "name": "県営住宅大塚Ｂ　４棟",
        "address": "宮崎県宮崎市大塚町馬場崎3563",
        "lng": 131.394286,
        "lat": 31.912713,
        "h": 16
      },
      {
        "name": "あさひこども園",
        "address": "宮崎県宮崎市大塚町八所3606-7",
        "lng": 131.389043,
        "lat": 31.914399,
        "h": 16
      },
      {
        "name": "大塚町中区自治公民館",
        "address": "宮崎県宮崎市大塚町樋ノ口1992-1",
        "lng": 131.398157,
        "lat": 31.91897,
        "h": 71
      },
      {
        "name": "ＧＲＥＡＴ・Ｓ－７",
        "address": "宮崎県宮崎市大塚町浜川田4912-1",
        "lng": 131.395577,
        "lat": 31.911381,
        "h": 16
      },
      {
        "name": "宮崎西高校グラウンド",
        "address": "宮崎県宮崎市大塚町柳ケ迫3975-2",
        "lng": 131.386457,
        "lat": 31.907986,
        "h": 40
      },
      {
        "name": "宮崎県立宮崎西高等学校",
        "address": "宮崎県宮崎市大塚町柳ケ迫3975-2",
        "lng": 131.386457,
        "lat": 31.907968,
        "h": 71
      },
      {
        "name": "県営住宅大塚Ｃ　６棟",
        "address": "宮崎県宮崎市大塚町乱橋4512",
        "lng": 131.391771,
        "lat": 31.906068,
        "h": 16
      },
      {
        "name": "公務員団地大塚住宅（１～３棟）",
        "address": "宮崎県宮崎市大塚町流合5056-1",
        "lng": 131.4002,
        "lat": 31.912325,
        "h": 16
      },
      {
        "name": "多宝寺",
        "address": "宮崎県宮崎市大塚町六ツ合686",
        "lng": 131.400625,
        "lat": 31.924888,
        "h": 71
      },
      {
        "name": "愛宕山公園",
        "address": "宮崎県宮崎市大坪町梁田2666",
        "lng": 131.406806,
        "lat": 31.906334,
        "h": 40
      },
      {
        "name": "原地区子ども広場",
        "address": "宮崎県宮崎市大島町原ノ前1445-67",
        "lng": 131.437671,
        "lat": 31.935565,
        "h": 40
      },
      {
        "name": "平原公園",
        "address": "宮崎県宮崎市大島町四反田623-2",
        "lng": 131.442803,
        "lat": 31.938145,
        "h": 40
      },
      {
        "name": "宮崎市立東大宮小学校",
        "address": "宮崎県宮崎市大島町西田2143",
        "lng": 131.435568,
        "lat": 31.943853,
        "h": 71
      },
      {
        "name": "東大宮小学校グラウンド",
        "address": "宮崎県宮崎市大島町西田2143",
        "lng": 131.435332,
        "lat": 31.943882,
        "h": 40
      },
      {
        "name": "市営住宅南窪団地　３棟",
        "address": "宮崎県宮崎市大島町南窪874",
        "lng": 131.445443,
        "lat": 31.933363,
        "h": 16
      },
      {
        "name": "ジュネシス大島Ａ",
        "address": "宮崎県宮崎市大島町平原966-1",
        "lng": 131.441753,
        "lat": 31.9348,
        "h": 16
      },
      {
        "name": "ジュネシス大島Ｂ",
        "address": "宮崎県宮崎市大島町平原966-1-2",
        "lng": 131.441704,
        "lat": 31.934563,
        "h": 16
      },
      {
        "name": "サンコート大島Ａ",
        "address": "宮崎県宮崎市大島町平原977-1-1",
        "lng": 131.441854,
        "lat": 31.935408,
        "h": 16
      },
      {
        "name": "サンコート大島Ｂ",
        "address": "宮崎県宮崎市大島町平原977-1-2",
        "lng": 131.441741,
        "lat": 31.935174,
        "h": 16
      },
      {
        "name": "サンコート大島Ｃ",
        "address": "宮崎県宮崎市大島町平原980",
        "lng": 131.442134,
        "lat": 31.934953,
        "h": 16
      },
      {
        "name": "ジュネシス大島Ｃ",
        "address": "宮崎県宮崎市大島町平原989-1-1",
        "lng": 131.442949,
        "lat": 31.934127,
        "h": 16
      },
      {
        "name": "ジュネシス大島Ｄ",
        "address": "宮崎県宮崎市大島町平原989-1-2",
        "lng": 131.442906,
        "lat": 31.933896,
        "h": 16
      },
      {
        "name": "市営住宅北ノ原団地　１棟",
        "address": "宮崎県宮崎市大島町北ノ原1011",
        "lng": 131.444686,
        "lat": 31.93472,
        "h": 16
      },
      {
        "name": "市営住宅大淀団地　１棟",
        "address": "宮崎県宮崎市大淀1-1-24",
        "lng": 131.423766,
        "lat": 31.901,
        "h": 16
      },
      {
        "name": "ＭＴＫＢＬＤ",
        "address": "宮崎県宮崎市大淀1-5-10",
        "lng": 131.42509,
        "lat": 31.900821,
        "h": 16
      },
      {
        "name": "宮交シティ",
        "address": "宮崎県宮崎市大淀4-6-28",
        "lng": 131.419595,
        "lat": 31.894786,
        "h": 16
      },
      {
        "name": "イオン南宮崎店",
        "address": "宮崎県宮崎市大淀4-7-30",
        "lng": 131.419274,
        "lat": 31.895477,
        "h": 16
      },
      {
        "name": "日向学院グラウンド",
        "address": "宮崎県宮崎市大和町110",
        "lng": 131.436646,
        "lat": 31.917979,
        "h": 40
      },
      {
        "name": "学校法人日向学院",
        "address": "宮崎県宮崎市大和町110",
        "lng": 131.436641,
        "lat": 31.917928,
        "h": 71
      },
      {
        "name": "ライフシティ谷川",
        "address": "宮崎県宮崎市谷川1-4-22",
        "lng": 131.415268,
        "lat": 31.903511,
        "h": 16
      },
      {
        "name": "宮崎市立池内小学校",
        "address": "宮崎県宮崎市池内町榎迫508",
        "lng": 131.417022,
        "lat": 31.956112,
        "h": 71
      },
      {
        "name": "池内小学校グラウンド",
        "address": "宮崎県宮崎市池内町榎迫508",
        "lng": 131.416904,
        "lat": 31.955974,
        "h": 40
      },
      {
        "name": "宮崎市平和が丘児童センター",
        "address": "宮崎県宮崎市池内町陣ノ平594-5",
        "lng": 131.416117,
        "lat": 31.953895,
        "h": 71
      },
      {
        "name": "ユーミーなでしこＡ・Ｂ",
        "address": "宮崎県宮崎市中西町107-1",
        "lng": 131.443694,
        "lat": 31.90312,
        "h": 16
      },
      {
        "name": "コーラルリーフ",
        "address": "宮崎県宮崎市中西町137-12",
        "lng": 131.442743,
        "lat": 31.902594,
        "h": 16
      },
      {
        "name": "ケイアイビル",
        "address": "宮崎県宮崎市中西町193-1",
        "lng": 131.445531,
        "lat": 31.904199,
        "h": 16
      },
      {
        "name": "フジマンション",
        "address": "宮崎県宮崎市中西町276",
        "lng": 131.445082,
        "lat": 31.901587,
        "h": 16
      },
      {
        "name": "村上屋ビル",
        "address": "宮崎県宮崎市中村東2-3-11",
        "lng": 131.419218,
        "lat": 31.899332,
        "h": 16
      },
      {
        "name": "パワーステージ中村",
        "address": "宮崎県宮崎市中村東2-4-3",
        "lng": 131.418584,
        "lat": 31.898866,
        "h": 16
      },
      {
        "name": "ビジネスホテル有明",
        "address": "宮崎県宮崎市中村東2-5-16",
        "lng": 131.418889,
        "lat": 31.897953,
        "h": 16
      },
      {
        "name": "サーパス中津瀬",
        "address": "宮崎県宮崎市中津瀬町85",
        "lng": 131.418083,
        "lat": 31.922766,
        "h": 16
      },
      {
        "name": "公務員住宅　潮見住宅　（１～３号棟）",
        "address": "宮崎県宮崎市潮見町110-1",
        "lng": 131.439131,
        "lat": 31.903251,
        "h": 16
      },
      {
        "name": "宮崎市立潮見小学校",
        "address": "宮崎県宮崎市潮見町118",
        "lng": 131.43947,
        "lat": 31.904789,
        "h": 87
      },
      {
        "name": "公務員住宅　潮見西住宅",
        "address": "宮崎県宮崎市潮見町16-2",
        "lng": 131.436932,
        "lat": 31.905364,
        "h": 16
      },
      {
        "name": "市営住宅小戸団地　３棟",
        "address": "宮崎県宮崎市鶴島3-125",
        "lng": 131.410757,
        "lat": 31.914283,
        "h": 16
      },
      {
        "name": "県営住宅小戸　４棟",
        "address": "宮崎県宮崎市鶴島3-159",
        "lng": 131.409578,
        "lat": 31.914703,
        "h": 16
      },
      {
        "name": "市営住宅鶴島団地　１棟",
        "address": "宮崎県宮崎市鶴島3-91",
        "lng": 131.408927,
        "lat": 31.912496,
        "h": 16
      },
      {
        "name": "宮崎市立小戸保育所",
        "address": "宮崎県宮崎市鶴島3-92",
        "lng": 131.408699,
        "lat": 31.913088,
        "h": 71
      },
      {
        "name": "大淀中学校グラウンド",
        "address": "宮崎県宮崎市天満1-2-6",
        "lng": 131.414531,
        "lat": 31.901438,
        "h": 40
      },
      {
        "name": "宮崎市立大淀中学校",
        "address": "宮崎県宮崎市天満1-2-6",
        "lng": 131.414408,
        "lat": 31.901458,
        "h": 71
      },