{
  "27100": {
    "source": "国土地理院「指定緊急避難場所データ」",
    "asOf": "2026-06-19",
    "sites": [
      {
        "name": "晴明丘公園",
        "address": "大阪府大阪市阿倍野区阿倍野元町15",
        "lng": 135.507825,
        "lat": 34.629679,
        "h": 24
      },
      {
        "name": "金塚小学校（運動場）",
        "address": "大阪府大阪市阿倍野区旭町3-4-46",
        "lng": 135.507534,
        "lat": 34.642484,
        "h": 24
      },
      {
        "name": "北畠公園",
        "address": "大阪府大阪市阿倍野区王子町3-8",
        "lng": 135.509672,
        "lat": 34.628553,
        "h": 24
      },
      {
        "name": "阪南公園",
        "address": "大阪府大阪市阿倍野区王子町4-1",
        "lng": 135.511767,
        "lat": 34.626003,
        "h": 24
      },
      {
        "name": "大阪キリスト教短期大学（運動場）",
        "address": "大阪府大阪市阿倍野区丸山通1-3-61",
        "lng": 135.507039,
        "lat": 34.636878,
        "h": 24
      },
      {
        "name": "丸山小学校（運動場）",
        "address": "大阪府大阪市阿倍野区丸山通1-4-43",
        "lng": 135.508643,
        "lat": 34.636655,
        "h": 24
      },
      {
        "name": "共立児童遊園",
        "address": "大阪府大阪市阿倍野区共立通1-1",
        "lng": 135.50866,
        "lat": 34.639818,
        "h": 24
      },
      {
        "name": "大谷高等学校（運動場）",
        "address": "大阪府大阪市阿倍野区共立通2-8-4",
        "lng": 135.505991,
        "lat": 34.638671,
        "h": 24
      },
      {
        "name": "阪南西公園",
        "address": "大阪府大阪市阿倍野区阪南町1-19",
        "lng": 135.512863,
        "lat": 34.637163,
        "h": 24
      },
      {
        "name": "阪南北公園",
        "address": "大阪府大阪市阿倍野区阪南町1-23",
        "lng": 135.51508,
        "lat": 34.636711,
        "h": 24
      },
      {
        "name": "苗代小学校（運動場）",
        "address": "大阪府大阪市阿倍野区阪南町1-26-30",
        "lng": 135.516619,
        "lat": 34.635396,
        "h": 24
      },
      {
        "name": "阿倍野高等学校（運動場）",
        "address": "大阪府大阪市阿倍野区阪南町1-30-34",
        "lng": 135.514795,
        "lat": 34.635436,
        "h": 24
      },
      {
        "name": "阪南中公園",
        "address": "大阪府大阪市阿倍野区阪南町1-49",
        "lng": 135.514731,
        "lat": 34.633596,
        "h": 24
      },
      {
        "name": "阿倍野小学校（運動場）",
        "address": "大阪府大阪市阿倍野区阪南町2-17-21",
        "lng": 135.513273,
        "lat": 34.631805,
        "h": 24
      },
      {
        "name": "新阪南公園",
        "address": "大阪府大阪市阿倍野区阪南町3-34",
        "lng": 135.514983,
        "lat": 34.627678,
        "h": 24
      },
      {
        "name": "阪南小学校（運動場）",
        "address": "大阪府大阪市阿倍野区阪南町5-7-40",
        "lng": 135.51244,
        "lat": 34.624218,
        "h": 24
      },
      {
        "name": "阪南播磨公園",
        "address": "大阪府大阪市阿倍野区阪南町6-3",
        "lng": 135.511404,
        "lat": 34.62099,
        "h": 24
      },
      {
        "name": "三明北公園",
        "address": "大阪府大阪市阿倍野区三明町1-4",
        "lng": 135.521449,
        "lat": 34.64225,
        "h": 24
      },
      {
        "name": "大阪府立天王寺高等学校",
        "address": "大阪府大阪市阿倍野区三明町2-4-23",
        "lng": 135.52098,
        "lat": 34.639777,
        "h": 24
      },
      {
        "name": "三明町公園",
        "address": "大阪府大阪市阿倍野区三明町2-9",
        "lng": 135.519383,
        "lat": 34.639919,
        "h": 24
      },
      {
        "name": "桃山学院高等学校（運動場）",
        "address": "大阪府大阪市阿倍野区昭和町3-1-64",
        "lng": 135.517334,
        "lat": 34.629419,
        "h": 24
      },
      {
        "name": "阿倍野中学校（運動場）",
        "address": "大阪府大阪市阿倍野区昭和町3-2-4",
        "lng": 135.518405,
        "lat": 34.628297,
        "h": 24
      },
      {
        "name": "大阪教育大学附属天王寺小学校（運動場）",
        "address": "大阪府大阪市阿倍野区松崎町1-2-45",
        "lng": 135.518484,
        "lat": 34.644419,
        "h": 24
      },
      {
        "name": "常盤小学校（運動場）",
        "address": "大阪府大阪市阿倍野区松崎町3-11-12",
        "lng": 135.517187,
        "lat": 34.641016,
        "h": 24
      },
      {
        "name": "常盤公園",
        "address": "大阪府大阪市阿倍野区松崎町3-2",
        "lng": 135.517851,
        "lat": 34.641818,
        "h": 24
      },
      {
        "name": "松崎公園",
        "address": "大阪府大阪市阿倍野区松崎町3-7",
        "lng": 135.513689,
        "lat": 34.641558,
        "h": 24
      },
      {
        "name": "まつむし広場",
        "address": "大阪府大阪市阿倍野区松虫通1-2",
        "lng": 135.509655,
        "lat": 34.636691,
        "h": 24
      },
      {
        "name": "聖天山公園",
        "address": "大阪府大阪市阿倍野区松虫通3-2",
        "lng": 135.503537,
        "lat": 34.635808,
        "h": 24
      },
      {
        "name": "松虫中学校（運動場）",
        "address": "大阪府大阪市阿倍野区松虫通3-4-45",
        "lng": 135.50483,
        "lat": 34.634787,
        "h": 24
      },
      {
        "name": "晴明丘小学校（運動場）",
        "address": "大阪府大阪市阿倍野区晴明通10-34",
        "lng": 135.503976,
        "lat": 34.632148,
        "h": 24
      },
      {
        "name": "晴明通児童遊園",
        "address": "大阪府大阪市阿倍野区晴明通3",
        "lng": 135.507531,
        "lat": 34.633136,
        "h": 24
      },
      {
        "name": "晴明丘相生公園",
        "address": "大阪府大阪市阿倍野区相生通2-7",
        "lng": 135.503413,
        "lat": 34.630432,
        "h": 24
      },
      {
        "name": "長池公園",
        "address": "大阪府大阪市阿倍野区長池町14",
        "lng": 135.518625,
        "lat": 34.621838,
        "h": 24
      },
      {
        "name": "長池小学校（運動場）",
        "address": "大阪府大阪市阿倍野区長池町20-26",
        "lng": 135.517166,
        "lat": 34.621983,
        "h": 24
      },
      {
        "name": "晴明丘南小学校（運動場）",
        "address": "大阪府大阪市阿倍野区帝塚山1-23-8",
        "lng": 135.496442,
        "lat": 34.624401,
        "h": 24
      },
      {
        "name": "八反田児童遊園",
        "address": "大阪府大阪市阿倍野区天王寺町南1-6",
        "lng": 135.522187,
        "lat": 34.642829,
        "h": 24
      },
      {
        "name": "高松南公園",
        "address": "大阪府大阪市阿倍野区天王寺町南3-12",
        "lng": 135.52596,
        "lat": 34.639862,
        "h": 24
      },
      {
        "name": "睦児童遊園",
        "address": "大阪府大阪市阿倍野区天王寺町北2-2",
        "lng": 135.524812,
        "lat": 34.647371,
        "h": 24
      },
      {
        "name": "曙児童遊園",
        "address": "大阪府大阪市阿倍野区天王寺町北2-24",
        "lng": 135.523169,
        "lat": 34.644928,
        "h": 24
      },
      {
        "name": "高松公園",
        "address": "大阪府大阪市阿倍野区天王寺町北3-17",
        "lng": 135.524477,
        "lat": 34.64383,
        "h": 24
      },
      {
        "name": "高松小学校（運動場）",
        "address": "大阪府大阪市阿倍野区天王寺町北3-17-19",
        "lng": 135.525279,
        "lat": 34.643467,
        "h": 24
      },
      {
        "name": "あべの翔学高等学校（運動場）",
        "address": "大阪府大阪市阿倍野区天王寺南町2-8-19",
        "lng": 135.526232,
        "lat": 34.641894,
        "h": 24
      },
      {
        "name": "桃ヶ池公園",
        "address": "大阪府大阪市阿倍野区桃ケ池町1",
        "lng": 135.521442,
        "lat": 34.630755,
        "h": 24
      },
      {
        "name": "昭和中学校（運動場）",
        "address": "大阪府大阪市阿倍野区桃ケ池町2-3-17",
        "lng": 135.521331,
        "lat": 34.628345,
        "h": 24
      },
      {
        "name": "播磨大領公園",
        "address": "大阪府大阪市阿倍野区播磨町3-4",
        "lng": 135.508346,
        "lat": 34.61796,
        "h": 24
      },
      {
        "name": "文の里中学校（運動場）",
        "address": "大阪府大阪市阿倍野区美章園1-5-52",
        "lng": 135.522414,
        "lat": 34.639556,
        "h": 24
      },
      {
        "name": "美章園公園",
        "address": "大阪府大阪市阿倍野区美章園2-13",
        "lng": 135.525232,
        "lat": 34.639075,
        "h": 24
      },
      {
        "name": "工芸高等学校（運動場）",
        "address": "大阪府大阪市阿倍野区文の里1-7-2",
        "lng": 135.519229,
        "lat": 34.638657,
        "h": 24
      },
      {
        "name": "明浄学院高等学校（運動場）",
        "address": "大阪府大阪市阿倍野区文の里3-15-7",
        "lng": 135.521296,
        "lat": 34.635146,
        "h": 24
      },
      {
        "name": "文の里公園",
        "address": "大阪府大阪市阿倍野区文の里3-6",
        "lng": 135.521767,
        "lat": 34.636342,
        "h": 24
      },
      {
        "name": "阪南中学校（運動場）",
        "address": "大阪府大阪市阿倍野区北畠1-16-24",
        "lng": 135.506347,
        "lat": 34.626559,
        "h": 24
      },
      {
        "name": "晴明丘中央公園",
        "address": "大阪府大阪市阿倍野区北畠1-18",
        "lng": 135.505182,
        "lat": 34.626102,
        "h": 24
      },
      {
        "name": "住吉高等学校（運動場）",
        "address": "大阪府大阪市阿倍野区北畠2-4-1",
        "lng": 135.50407,
        "lat": 34.627276,
        "h": 24
      },
      {
        "name": "晴明丘西公園",
        "address": "大阪府大阪市阿倍野区北畠3-3",
        "lng": 135.500186,
        "lat": 34.629652,
        "h": 24
      },
      {
        "name": "高殿西公園",
        "address": "大阪府大阪市旭区高殿1-3",
        "lng": 135.534762,
        "lat": 34.718889,
        "h": 8
      },
      {
        "name": "西浪橋公園",
        "address": "大阪府大阪市旭区高殿1-9",
        "lng": 135.532927,
        "lat": 34.721072,
        "h": 24
      },
      {
        "name": "市営高殿西第４住宅１号館",
        "address": "大阪府大阪市旭区高殿2-16-1",
        "lng": 135.536481,
        "lat": 34.719559,
        "h": 17
      },
      {
        "name": "高殿南公園",
        "address": "大阪府大阪市旭区高殿2-4",
        "lng": 135.537199,
        "lat": 34.71646,
        "h": 24
      },
      {
        "name": "高殿南小学校",
        "address": "大阪府大阪市旭区高殿3-10-30",
        "lng": 135.539402,
        "lat": 34.713928,
        "h": 17
      },
      {
        "name": "高殿南小学校（運動場）",
        "address": "大阪府大阪市旭区高殿3-10-30",
        "lng": 135.539393,
        "lat": 34.714268,
        "h": 24
      },
      {
        "name": "高殿南三公園",
        "address": "大阪府大阪市旭区高殿3-5",
        "lng": 135.539572,
        "lat": 34.712938,
        "h": 24
      },
      {
        "name": "高殿南四公園",
        "address": "大阪府大阪市旭区高殿4-7",
        "lng": 135.541727,
        "lat": 34.715019,
        "h": 24
      },
      {
        "name": "市営高殿西住宅９号館",
        "address": "大阪府大阪市旭区高殿5-1-9",
        "lng": 135.538523,
        "lat": 34.717714,
        "h": 17
      },
      {
        "name": "市営高殿北住宅１号館",
        "address": "大阪府大阪市旭区高殿5-12-1",
        "lng": 135.539497,
        "lat": 34.719946,
        "h": 17
      },
      {
        "name": "市営高殿北住宅２号館",
        "address": "大阪府大阪市旭区高殿5-12-2",
        "lng": 135.539503,
        "lat": 34.720436,
        "h": 17
      },
      {
        "name": "市営高殿西住宅８号館",
        "address": "大阪府大阪市旭区高殿5-2-8",
        "lng": 135.53958,
        "lat": 34.717016,
        "h": 17
      },
      {
        "name": "大阪府立旭高等学校（運動場）",
        "address": "大阪府大阪市旭区高殿5-6-41",
        "lng": 135.542008,
        "lat": 34.717666,
        "h": 8
      },
      {
        "name": "旭公園",
        "address": "大阪府大阪市旭区高殿5-7",
        "lng": 135.540878,
        "lat": 34.718433,
        "h": 8
      },
      {
        "name": "旭陽中学校",
        "address": "大阪府大阪市旭区高殿5-9-31",
        "lng": 135.54011,
        "lat": 34.718303,
        "h": 17
      },
      {
        "name": "旭陽中学校（運動場）",
        "address": "大阪府大阪市旭区高殿5-9-31",
        "lng": 135.539581,
        "lat": 34.718933,
        "h": 8
      },
      {
        "name": "高殿小学校（運動場）",
        "address": "大阪府大阪市旭区高殿6-9-10",
        "lng": 135.543375,
        "lat": 34.717917,
        "h": 8
      },
      {
        "name": "高殿小学校",
        "address": "大阪府大阪市旭区高殿6-9-10",
        "lng": 135.542977,
        "lat": 34.71787,
        "h": 17
      },
      {
        "name": "高殿７公園",
        "address": "大阪府大阪市旭区高殿7-15",
        "lng": 135.549149,
        "lat": 34.717699,
        "h": 24
      },
      {
        "name": "今市公園",
        "address": "大阪府大阪市旭区今市2-7",
        "lng": 135.553922,
        "lat": 34.726589,
        "h": 24
      },
      {
        "name": "新森南公園",
        "address": "大阪府大阪市旭区新森1-4",
        "lng": 135.550151,
        "lat": 34.716062,
        "h": 24
      },
      {
        "name": "新森南小公園",
        "address": "大阪府大阪市旭区新森1-7",
        "lng": 135.551628,
        "lat": 34.717239,
        "h": 24
      },
      {
        "name": "新森北公園",
        "address": "大阪府大阪市旭区新森3-12",
        "lng": 135.554241,
        "lat": 34.720104,
        "h": 24
      },
      {
        "name": "セントポリア新森公園",
        "address": "大阪府大阪市旭区新森4-1-27",
        "lng": 135.556769,
        "lat": 34.715427,
        "h": 17
      },
      {
        "name": "新森中央公園",
        "address": "大阪府大阪市旭区新森4-22",
        "lng": 135.556771,
        "lat": 34.718116,
        "h": 24
      },
      {
        "name": "新森小路小学校（運動場）",
        "address": "大阪府大阪市旭区新森6-3-13",
        "lng": 135.561953,
        "lat": 34.715953,
        "h": 24
      },
      {
        "name": "新森小路小学校",
        "address": "大阪府大阪市旭区新森6-3-13",
        "lng": 135.562032,
        "lat": 34.716373,
        "h": 17
      },
      {
        "name": "旭東中学校（運動場）",
        "address": "大阪府大阪市旭区新森6-7-25",
        "lng": 135.561446,
        "lat": 34.717844,
        "h": 24
      },
      {
        "name": "旭東中学校",
        "address": "大阪府大阪市旭区新森6-7-25",
        "lng": 135.561289,
        "lat": 34.717408,
        "h": 17
      },
      {
        "name": "新森東公園",
        "address": "大阪府大阪市旭区新森6-8",
        "lng": 135.563041,
        "lat": 34.718166,
        "h": 24
      },
      {
        "name": "森小路南公園",
        "address": "大阪府大阪市旭区森小路1-12",
        "lng": 135.548998,
        "lat": 34.72099,
        "h": 24
      },
      {
        "name": "森小路東公園",
        "address": "大阪府大阪市旭区森小路1-7",
        "lng": 135.550081,
        "lat": 34.720256,
        "h": 24
      },
      {
        "name": "古市小学校（運動場）",
        "address": "大阪府大阪市旭区森小路2-10-35",
        "lng": 135.551493,
        "lat": 34.722275,
        "h": 24
      },
      {
        "name": "古市小学校",
        "address": "大阪府大阪市旭区森小路2-10-35",
        "lng": 135.551402,
        "lat": 34.722737,
        "h": 17
      },
      {
        "name": "森小路公園",
        "address": "大阪府大阪市旭区森小路2-5",
        "lng": 135.549747,
        "lat": 34.723571,
        "h": 24
      },
      {
        "name": "清水南公園",
        "address": "大阪府大阪市旭区清水2-13",
        "lng": 135.558964,
        "lat": 34.72189,
        "h": 24
      },
      {
        "name": "清水小公園",
        "address": "大阪府大阪市旭区清水2-6",
        "lng": 135.558688,
        "lat": 34.720984,
        "h": 24
      },
      {
        "name": "清水中公園",
        "address": "大阪府大阪市旭区清水3-31",
        "lng": 135.560124,
        "lat": 34.723718,
        "h": 24
      },
      {
        "name": "清水北公園",
        "address": "大阪府大阪市旭区清水3-9",
        "lng": 135.557646,
        "lat": 34.724759,
        "h": 24
      },
      {
        "name": "市営両国住宅１号館",
        "address": "大阪府大阪市旭区清水4-11-1",
        "lng": 135.564044,
        "lat": 34.72192,
        "h": 17
      },
      {
        "name": "両国町公園",
        "address": "大阪府大阪市旭区清水4-12",
        "lng": 135.564822,
        "lat": 34.721888,
        "h": 24
      },
      {
        "name": "清水小学校（運動場）",
        "address": "大阪府大阪市旭区清水5-1-12",
        "lng": 135.561581,
        "lat": 34.722925,
        "h": 24
      },
      {
        "name": "清水小学校",
        "address": "大阪府大阪市旭区清水5-1-12",
        "lng": 135.561498,
        "lat": 34.723191,
        "h": 17
      },
      {
        "name": "市営両国住宅５号館",
        "address": "大阪府大阪市旭区清水5-4-5",
        "lng": 135.563464,
        "lat": 34.722488,
        "h": 17
      },
      {
        "name": "生江小学校（運動場）",
        "address": "大阪府大阪市旭区生江1-10-21",
        "lng": 135.537545,
        "lat": 34.722958,
        "h": 24
      },
      {
        "name": "生江小学校",
        "address": "大阪府大阪市旭区生江1-10-21",
        "lng": 135.537546,
        "lat": 34.723275,
        "h": 17
      },
      {
        "name": "生江西公園",
        "address": "大阪府大阪市旭区生江1-2",
        "lng": 135.535409,
        "lat": 34.722114,
        "h": 24
      },
      {
        "name": "生江南公園",
        "address": "大阪府大阪市旭区生江1-4",
        "lng": 135.5349,
        "lat": 34.723343,
        "h": 24
      },
      {
        "name": "生江東公園",
        "address": "大阪府大阪市旭区生江2-11",
        "lng": 135.53755,
        "lat": 34.724644,
        "h": 24
      },
      {
        "name": "市営新生江住宅２号館",
        "address": "大阪府大阪市旭区生江3-16-2",
        "lng": 135.535569,
        "lat": 34.728543,
        "h": 17
      },
      {
        "name": "市営新生江住宅３号館",
        "address": "大阪府大阪市旭区生江3-20-3",
        "lng": 135.5343,
        "lat": 34.72816,
        "h": 17
      },
      {
        "name": "市営新生江住宅１号館",
        "address": "大阪府大阪市旭区生江3-21-1",
        "lng": 135.533872,
        "lat": 34.728679,
        "h": 17
      },
      {
        "name": "市営生江住宅９号館",
        "address": "大阪府大阪市旭区生江3-24-9",
        "lng": 135.534581,
        "lat": 34.729282,
        "h": 17
      },
      {
        "name": "城北公園",
        "address": "大阪府大阪市旭区生江3-29",
        "lng": 135.538079,
        "lat": 34.728868,
        "h": 56
      },
      {
        "name": "赤川南公園",
        "address": "大阪府大阪市旭区赤川1-4",
        "lng": 135.532263,
        "lat": 34.723407,
        "h": 24
      },
      {
        "name": "城北小学校（運動場）",
        "address": "大阪府大阪市旭区赤川3-13-47",
        "lng": 135.529855,
        "lat": 34.727384,
        "h": 24
      },
      {
        "name": "城北小学校",
        "address": "大阪府大阪市旭区赤川3-13-47",
        "lng": 135.529628,
        "lat": 34.727861,
        "h": 17
      },
      {
        "name": "赤川公園",
        "address": "大阪府大阪市旭区赤川4-21",
        "lng": 135.530489,
        "lat": 34.729196,
        "h": 24
      },
      {
        "name": "千林公園",
        "address": "大阪府大阪市旭区千林2-9",
        "lng": 135.551316,
        "lat": 34.724727,
        "h": 24
      },
      {
        "name": "太子橋小学校",
        "address": "大阪府大阪市旭区太子橋1-12-15",
        "lng": 135.554136,
        "lat": 34.732581,
        "h": 17
      },
      {
        "name": "太子橋西公園",
        "address": "大阪府大阪市旭区太子橋1-17",
        "lng": 135.552047,
        "lat": 34.73269,
        "h": 24
      },
      {
        "name": "太子橋南公園",
        "address": "大阪府大阪市旭区太子橋1-8",
        "lng": 135.550906,
        "lat": 34.730262,
        "h": 24
      },
      {
        "name": "市営今市住宅１号館",
        "address": "大阪府大阪市旭区太子橋1-9-1",
        "lng": 135.550717,
        "lat": 34.730793,
        "h": 17
      },
      {
        "name": "太子橋中公園",
        "address": "大阪府大阪市旭区太子橋2-7",
        "lng": 135.556033,
        "lat": 34.735798,
        "h": 24
      },
      {
        "name": "太子橋東公園",
        "address": "大阪府大阪市旭区太子橋3-3",
        "lng": 135.559231,
        "lat": 34.738532,
        "h": 24
      },
      {
        "name": "市営橋寺住宅１号館",
        "address": "大阪府大阪市旭区太子橋3-8-1",
        "lng": 135.558744,
        "lat": 34.739387,
        "h": 17
      },
      {
        "name": "大宮南公園",
        "address": "大阪府大阪市旭区大宮1-1",
        "lng": 135.544926,
        "lat": 34.720817,
        "h": 8
      },
      {
        "name": "大宮中公園",
        "address": "大阪府大阪市旭区大宮3-1",
        "lng": 135.54521,
        "lat": 34.725855,
        "h": 24
      },
      {
        "name": "大宮ふれあい公園",
        "address": "大阪府大阪市旭区大宮4-2",
        "lng": 135.545595,
        "lat": 34.727142,
        "h": 24
      },
      {
        "name": "大宮小学校（運動場）",
        "address": "大阪府大阪市旭区大宮4-9-16",
        "lng": 135.546748,
        "lat": 34.727084,
        "h": 24
      },
      {
        "name": "大宮小学校",
        "address": "大阪府大阪市旭区大宮4-9-16",
        "lng": 135.546891,
        "lat": 34.727376,
        "h": 17
      },
      {
        "name": "大宮北公園",
        "address": "大阪府大阪市旭区大宮5",
        "lng": 135.546511,
        "lat": 34.730652,
        "h": 24
      },
      {
        "name": "市営城北住宅１３号館",
        "address": "大阪府大阪市旭区大宮5-1-13",
        "lng": 135.546274,
        "lat": 34.729379,
        "h": 17
      },
      {
        "name": "大阪府立思斉支援学校（運動場）",
        "address": "大阪府大阪市旭区大宮5-11-7",
        "lng": 135.549006,
        "lat": 34.730526,
        "h": 24
      },
      {
        "name": "市営大宮住宅１号館",
        "address": "大阪府大阪市旭区大宮5-12-1",
        "lng": 135.55007,
        "lat": 34.730573,
        "h": 17
      },
      {
        "name": "今市中学校（運動場）",
        "address": "大阪府大阪市旭区大宮5-13-40",
        "lng": 135.549502,
        "lat": 34.732011,
        "h": 24
      },
      {
        "name": "今市中学校",
        "address": "大阪府大阪市旭区大宮5-13-40",
        "lng": 135.549881,
        "lat": 34.732417,
        "h": 17
      },
      {
        "name": "常翔学園中学校・高等学校　東館",
        "address": "大阪府大阪市旭区大宮5-16-1",
        "lng": 135.547045,
        "lat": 34.731077,
        "h": 17
      },
      {
        "name": "市営城北住宅１４号館",
        "address": "大阪府大阪市旭区大宮5-2-14",
        "lng": 135.547642,
        "lat": 34.729509,
        "h": 17
      },
      {
        "name": "市営城北住宅１５号館",
        "address": "大阪府大阪市旭区大宮5-7-15",
        "lng": 135.547583,
        "lat": 34.729895,
        "h": 17
      },
      {
        "name": "市営城北住宅１２号館",
        "address": "大阪府大阪市旭区大宮5-8-12",
        "lng": 135.546209,
        "lat": 34.729767,
        "h": 17
      },
      {
        "name": "市営城北住宅１号館",
        "address": "大阪府大阪市旭区大宮5-9-1",
        "lng": 135.546093,
        "lat": 34.730169,
        "h": 17
      },
      {
        "name": "市営城北住宅２号館",
        "address": "大阪府大阪市旭区大宮5-9-2",
        "lng": 135.54561,
        "lat": 34.730111,
        "h": 17
      },
      {
        "name": "中宮１公園",
        "address": "大阪府大阪市旭区中宮1-11",
        "lng": 135.542091,
        "lat": 34.720922,
        "h": 24
      },
      {
        "name": "大宮西小学校（運動場）",
        "address": "大阪府大阪市旭区中宮1-8-14",
        "lng": 135.541504,
        "lat": 34.722558,
        "h": 8
      },
      {
        "name": "大宮西小学校",
        "address": "大阪府大阪市旭区中宮1-8-14",
        "lng": 135.541753,
        "lat": 34.722786,
        "h": 17
      },
      {
        "name": "江野公園",
        "address": "大阪府大阪市旭区中宮2-18",
        "lng": 135.542034,
        "lat": 34.723511,
        "h": 8
      },
      {
        "name": "大宮中学校",
        "address": "大阪府大阪市旭区中宮4-7-11",
        "lng": 135.541166,
        "lat": 34.726655,
        "h": 17
      },
      {
        "name": "大宮中学校（運動場）",
        "address": "大阪府大阪市旭区中宮4-7-11",
        "lng": 135.541296,
        "lat": 34.726986,
        "h": 24
      },
      {
        "name": "市営城北中宮住宅１号館",
        "address": "大阪府大阪市旭区中宮5-1-1",
        "lng": 135.540783,
        "lat": 34.728614,
        "h": 17
      },
      {
        "name": "市岡中学校（運動場）",
        "address": "大阪府大阪市港区磯路1-5-21",
        "lng": 135.462452,
        "lat": 34.666737,
        "h": 8
      },
      {
        "name": "市岡中学校",
        "address": "大阪府大阪市港区磯路1-5-21",
        "lng": 135.461659,
        "lat": 34.666622,
        "h": 17
      },
      {
        "name": "ライフ弁天町店",
        "address": "大阪府大阪市港区磯路1-9-25",
        "lng": 135.461083,
        "lat": 34.667526,
        "h": 17
      },
      {
        "name": "磯路中央公園",
        "address": "大阪府大阪市港区磯路2-17",
        "lng": 135.458806,
        "lat": 34.665808,
        "h": 8
      },
      {
        "name": "日本交通株式会社　弁天営業所",
        "address": "大阪府大阪市港区磯路2-23-27",
        "lng": 135.457074,
        "lat": 34.666026,
        "h": 17
      },
      {
        "name": "メゾンシルク",
        "address": "大阪府大阪市港区磯路3-14-2",
        "lng": 135.456932,
        "lat": 34.66358,
        "h": 17
      },
      {
        "name": "みなと生協診療所",
        "address": "大阪府大阪市港区磯路3-3-4",
        "lng": 135.458245,
        "lat": 34.664235,
        "h": 17
      },
      {
        "name": "磯路小学校（運動場）",
        "address": "大阪府大阪市港区磯路3-7-7",
        "lng": 135.456756,
        "lat": 34.665357,
        "h": 8
      },
      {
        "name": "磯路小学校",
        "address": "大阪府大阪市港区磯路3-7-7",
        "lng": 135.457183,
        "lat": 34.665233,
        "h": 17
      },
      {
        "name": "大阪みなとドライビングスクール",
        "address": "大阪府大阪市港区磯路3-9-15",
        "lng": 135.454552,
        "lat": 34.665502,
        "h": 17
      },
      {
        "name": "ホテルシーガルてんぽーざん大阪",
        "address": "大阪府大阪市港区海岸通1-5-15",
        "lng": 135.429424,
        "lat": 34.653195,
        "h": 17
      },
      {
        "name": "中谷ビル",
        "address": "大阪府大阪市港区海岸通1-5-22",
        "lng": 135.43016,
        "lat": 34.6528,
        "h": 17
      },
      {
        "name": "㈱間口　本社ビル",
        "address": "大阪府大阪市港区海岸通1-5-29",
        "lng": 135.429808,
        "lat": 34.652581,
        "h": 17
      },
      {
        "name": "海岸通ハウス",
        "address": "大阪府大阪市港区海岸通2-7-23",
        "lng": 135.438309,
        "lat": 34.651473,
        "h": 17
      },
      {
        "name": "日本通運㈱　中央国際物流センター",
        "address": "大阪府大阪市港区海岸通3-4-55",
        "lng": 135.442319,
        "lat": 34.648077,
        "h": 17
      },
      {
        "name": "港晴小学校",
        "address": "大阪府大阪市港区港晴1-3-12",
        "lng": 135.444012,
        "lat": 34.656628,
        "h": 17
      },
      {
        "name": "港晴小学校（運動場）",
        "address": "大阪府大阪市港区港晴1-3-12",
        "lng": 135.444529,
        "lat": 34.656485,
        "h": 8
      },
      {
        "name": "市営八幡屋宝町第３住宅１号館",
        "address": "大阪府大阪市港区港晴1-6-1",
        "lng": 135.443879,
        "lat": 34.655734,
        "h": 17
      },
      {
        "name": "市営八幡屋宝町第２住宅１号館",
        "address": "大阪府大阪市港区港晴2-3-1",
        "lng": 135.442271,
        "lat": 34.655605,
        "h": 17
      },
      {
        "name": "市営八幡屋宝町住宅１号館",
        "address": "大阪府大阪市港区港晴2-5",
        "lng": 135.443573,
        "lat": 34.654956,
        "h": 17
      },
      {
        "name": "港晴南公園",
        "address": "大阪府大阪市港区港晴2-8",
        "lng": 135.441292,
        "lat": 34.655525,
        "h": 8
      },
      {
        "name": "パークシティ朝潮橋",
        "address": "大阪府大阪市港区港晴3-1-12",
        "lng": 135.444522,
        "lat": 34.658276,
        "h": 17
      },
      {
        "name": "港晴東公園",
        "address": "大阪府大阪市港区港晴3-11",
        "lng": 135.441885,
        "lat": 34.659148,
        "h": 8
      },
      {
        "name": "ティアラ港",
        "address": "大阪府大阪市港区港晴3-2-10",
        "lng": 135.443242,
        "lat": 34.657705,
        "h": 17
      },
      {
        "name": "港晴北公園",
        "address": "大阪府大阪市港区港晴4-17",
        "lng": 135.440015,
        "lat": 34.657232,
        "h": 8
      },
      {
        "name": "株式会社メロスビル",
        "address": "大阪府大阪市港区港晴4-18-29",
        "lng": 135.439939,
        "lat": 34.657878,
        "h": 17
      },
      {
        "name": "奥村組土木興業㈱　本社ビル",
        "address": "大阪府大阪市港区三先1-11-18",
        "lng": 135.452729,
        "lat": 34.660721,
        "h": 17
      },
      {
        "name": "港南公園",
        "address": "大阪府大阪市港区三先1-5",
        "lng": 135.456607,
        "lat": 34.661015,
        "h": 8
      },
      {
        "name": "港南中学校（運動場）",
        "address": "大阪府大阪市港区三先1-5-28",
        "lng": 135.457222,
        "lat": 34.660491,
        "h": 8
      },
      {
        "name": "港南中学校",
        "address": "大阪府大阪市港区三先1-5-28",
        "lng": 135.456796,
        "lat": 34.660257,
        "h": 17
      },
      {
        "name": "三先住宅１０号館",
        "address": "大阪府大阪市港区三先2-17",
        "lng": 135.45141,
        "lat": 34.658381,
        "h": 17
      },
      {
        "name": "ファミリープラザ朝潮橋",
        "address": "大阪府大阪市港区三先2-20-1",
        "lng": 135.4534,
        "lat": 34.657484,
        "h": 17
      },
      {
        "name": "三先公園",
        "address": "大阪府大阪市港区三先2-3",
        "lng": 135.452507,
        "lat": 34.659737,
        "h": 8
      },
      {
        "name": "三先小学校",
        "address": "大阪府大阪市港区三先2-6-32",
        "lng": 135.453196,
        "lat": 34.658842,
        "h": 17
      },
      {
        "name": "三先小学校（運動場）",
        "address": "大阪府大阪市港区三先2-6-32",
        "lng": 135.453,
        "lat": 34.659023,
        "h": 8
      },
      {
        "name": "市岡西公園",
        "address": "大阪府大阪市港区市岡1-15",
        "lng": 135.46062,
        "lat": 34.663614,
        "h": 8
      },
      {
        "name": "市岡中央公園",
        "address": "大阪府大阪市港区市岡1-3",
        "lng": 135.463628,
        "lat": 34.663784,
        "h": 8
      },
      {
        "name": "キコーナ市岡店",
        "address": "大阪府大阪市港区市岡2-5-10",
        "lng": 135.458633,
        "lat": 34.662778,
        "h": 17
      },
      {
        "name": "ヤマト工業㈱　市岡社員寮",
        "address": "大阪府大阪市港区市岡3-11-14",
        "lng": 135.463728,
        "lat": 34.662539,
        "h": 17
      },
      {
        "name": "市岡小学校",
        "address": "大阪府大阪市港区市岡3-2-24",
        "lng": 135.464737,
        "lat": 34.663632,
        "h": 17
      },
      {
        "name": "市岡小学校（運動場）",
        "address": "大阪府大阪市港区市岡3-2-24",
        "lng": 135.464663,
        "lat": 34.663319,
        "h": 8
      },
      {
        "name": "エトワール山村",
        "address": "大阪府大阪市港区市岡3-3-5",
        "lng": 135.465394,
        "lat": 34.662686,
        "h": 17
      },
      {
        "name": "市岡浜公園",
        "address": "大阪府大阪市港区市岡4-2",
        "lng": 135.462536,
        "lat": 34.660795,
        "h": 8
      },
      {
        "name": "市岡公園",
        "address": "大阪府大阪市港区市岡4-6",
        "lng": 135.461656,
        "lat": 34.659838,
        "h": 8
      },
      {
        "name": "がんこフードサービス　商品センター",
        "address": "大阪府大阪市港区市岡4-6-69",
        "lng": 135.460936,
        "lat": 34.659184,
        "h": 17
      },
      {
        "name": "太陽ファスナー㈱　本社ビル",
        "address": "大阪府大阪市港区市岡元町1-3-18",
        "lng": 135.468337,
        "lat": 34.671096,
        "h": 17
      },
      {
        "name": "㈱ツガワ工場",
        "address": "大阪府大阪市港区市岡元町1-4-5",
        "lng": 135.469235,
        "lat": 34.670161,
        "h": 17
      },
      {
        "name": "㈱日本電商　西営業所ビル",
        "address": "大阪府大阪市港区市岡元町1-6-28",
        "lng": 135.469628,
        "lat": 34.668323,
        "h": 17
      },
      {
        "name": "大阪府立市岡高等学校（運動場）",
        "address": "大阪府大阪市港区市岡元町2-12-12",
        "lng": 135.466747,
        "lat": 34.667779,
        "h": 8
      },
      {
        "name": "大阪府立市岡高等学校",
        "address": "大阪府大阪市港区市岡元町2-12-12",
        "lng": 135.466313,
        "lat": 34.667451,
        "h": 17
      },
      {
        "name": "市岡小公園",
        "address": "大阪府大阪市港区市岡元町2-9",
        "lng": 135.466895,
        "lat": 34.668733,
        "h": 8
      },
      {
        "name": "市岡元町公園",
        "address": "大阪府大阪市港区市岡元町3-12",
        "lng": 135.464529,
        "lat": 34.666884,
        "h": 8
      },
      {
        "name": "市岡東中学校",
        "address": "大阪府大阪市港区市岡元町3-2-18",
        "lng": 135.465085,
        "lat": 34.666958,
        "h": 17
      },
      {
        "name": "市岡東中学校（運動場）",
        "address": "大阪府大阪市港区市岡元町3-2-18",
        "lng": 135.465406,
        "lat": 34.667199,
        "h": 8
      },
      {
        "name": "大塚倉庫㈱　本社ビル",
        "address": "大阪府大阪市港区石田1-3-16",
        "lng": 135.453427,
        "lat": 34.668746,
        "h": 17
      },
      {
        "name": "港中学校",
        "address": "大阪府大阪市港区池島1-5-35",
        "lng": 135.448512,
        "lat": 34.657567,
        "h": 17
      },
      {
        "name": "港中学校（運動場）",
        "address": "大阪府大阪市港区池島1-5-35",
        "lng": 135.448841,
        "lat": 34.657267,
        "h": 8
      },
      {
        "name": "池島公園",
        "address": "大阪府大阪市港区池島2-4",
        "lng": 135.451977,
        "lat": 34.656947,
        "h": 8
      },
      {
        "name": "池島小学校（運動場）",
        "address": "大阪府大阪市港区池島2-5-47",
        "lng": 135.451191,
        "lat": 34.654986,
        "h": 8
      },
      {
        "name": "池島小学校",
        "address": "大阪府大阪市港区池島2-5-47",
        "lng": 135.451194,
        "lat": 34.655538,
        "h": 17
      },
      {
        "name": "市営池島住宅２号館",
        "address": "大阪府大阪市港区池島3-1-2",
        "lng": 135.449198,
        "lat": 34.655357,
        "h": 17
      },
      {
        "name": "市営池島住宅１号館",
        "address": "大阪府大阪市港区池島3-3",
        "lng": 135.450458,
        "lat": 34.655125,
        "h": 17
      },
      {
        "name": "市営池島南住宅１号館",
        "address": "大阪府大阪市港区池島3-8",
        "lng": 135.448603,
        "lat": 34.653959,
        "h": 17
      },
      {
        "name": "築港小学校",
        "address": "大阪府大阪市港区築港1-10-38",
        "lng": 135.436198,
        "lat": 34.653016,
        "h": 17
      },
      {
        "name": "築港小学校（運動場）",
        "address": "大阪府大阪市港区築港1-10-38",
        "lng": 135.436441,
        "lat": 34.652632,
        "h": 8
      },
      {
        "name": "築港南公園",
        "address": "大阪府大阪市港区築港1-2",
        "lng": 135.437454,
        "lat": 34.653284,
        "h": 8
      },
      {
        "name": "築港中学校",
        "address": "大阪府大阪市港区築港1-2-41",
        "lng": 135.437934,
        "lat": 34.652807,
        "h": 17
      },
      {
        "name": "築港中学校（運動場）",
        "address": "大阪府大阪市港区築港1-2-41",
        "lng": 135.43829,
        "lat": 34.652529,
        "h": 8
      },
      {
        "name": "ポートサイド築港",
        "address": "大阪府大阪市港区築港1-9-1",
        "lng": 135.435848,
        "lat": 34.653481,
        "h": 17
      },
      {
        "name": "コーシャハイツ港",
        "address": "大阪府大阪市港区築港2-4-1",
        "lng": 135.434231,
        "lat": 34.651376,
        "h": 17
      },
      {
        "name": "コーシャハイツ港（２号棟）",
        "address": "大阪府大阪市港区築港2-4-2",
        "lng": 135.433836,
        "lat": 34.65184,
        "h": 17
      },
      {
        "name": "天保山公園",
        "address": "大阪府大阪市港区築港3-2",
        "lng": 135.432959,
        "lat": 34.657727,
        "h": 8
      },
      {
        "name": "Ｏｓａｋａ　Ｍｅｔｒｏ　大阪港駅",
        "address": "大阪府大阪市港区築港3-5-9",
        "lng": 135.434283,
        "lat": 34.653865,
        "h": 17
      },
      {
        "name": "㈱辰巳商會",
        "address": "大阪府大阪市港区築港4-1-1",
        "lng": 135.432715,
        "lat": 34.653633,
        "h": 17
      },
      {
        "name": "大阪港湾合同庁舎",
        "address": "大阪府大阪市港区築港4-10-3",
        "lng": 135.430675,
        "lat": 34.653183,
        "h": 17
      },
      {
        "name": "日本貨物検数協会ビル",
        "address": "大阪府大阪市港区築港4-11-9",
        "lng": 135.430085,
        "lat": 34.654301,
        "h": 17
      },
      {
        "name": "市営一条通住宅１号館",
        "address": "大阪府大阪市港区築港4-5-1",
        "lng": 135.431046,
        "lat": 34.654943,
        "h": 17
      },
      {
        "name": "東田中公園",
        "address": "大阪府大阪市港区田中1-1",
        "lng": 135.451566,
        "lat": 34.665274,
        "h": 8
      },
      {
        "name": "石田公園",
        "address": "大阪府大阪市港区田中1-7",
        "lng": 135.449477,
        "lat": 34.666131,
        "h": 8
      },
      {
        "name": "田中小学校",
        "address": "大阪府大阪市港区田中2-10-34",
        "lng": 135.447218,
        "lat": 34.663558,
        "h": 17
      },
      {
        "name": "田中小学校（運動場）",
        "address": "大阪府大阪市港区田中2-10-34",
        "lng": 135.447445,
        "lat": 34.663191,
        "h": 8
      },
      {
        "name": "八幡屋公園",
        "address": "大阪府大阪市港区田中3-1",
        "lng": 135.446224,
        "lat": 34.660351,
        "h": 40
      },
      {
        "name": "港スポーツセンター",
        "address": "大阪府大阪市港区田中3-1-128",
        "lng": 135.445731,
        "lat": 34.661897,
        "h": 17
      },
      {
        "name": "Ｏｓａｋａ　Ｍｅｔｒｏ　朝潮橋駅",
        "address": "大阪府大阪市港区田中3-1-4",
        "lng": 135.448963,
        "lat": 34.661569,
        "h": 17
      },
      {
        "name": "Ａｓｕｅアリーナ大阪",
        "address": "大阪府大阪市港区田中3-1-40",
        "lng": 135.444824,
        "lat": 34.659108,
        "h": 17
      },
      {
        "name": "南市岡西公園",
        "address": "大阪府大阪市港区南市岡2-12",
        "lng": 135.467872,
        "lat": 34.665117,
        "h": 8
      },
      {
        "name": "南市岡小学校",
        "address": "大阪府大阪市港区南市岡2-6-35",
        "lng": 135.468882,
        "lat": 34.665833,
        "h": 17
      },
      {
        "name": "南市岡小学校（運動場）",
        "address": "大阪府大阪市港区南市岡2-6-35",
        "lng": 135.468926,
        "lat": 34.665559,
        "h": 8
      },
      {
        "name": "南市岡公園",
        "address": "大阪府大阪市港区南市岡2-7",
        "lng": 135.46822,
        "lat": 34.66581,
        "h": 8
      },
      {
        "name": "港友マンション",
        "address": "大阪府大阪市港区南市岡3-1-12",
        "lng": 135.466145,
        "lat": 34.665718,
        "h": 17
      },
      {
        "name": "プレサンスロジェ弁天町",
        "address": "大阪府大阪市港区南市岡3-11-23",
        "lng": 135.464907,
        "lat": 34.665187,
        "h": 17
      },
      {
        "name": "エスリード弁天町南",
        "address": "大阪府大阪市港区南市岡3-2-15",
        "lng": 135.465286,
        "lat": 34.665421,
        "h": 17
      },
      {
        "name": "キングスクエアランドレックス",
        "address": "大阪府大阪市港区南市岡3-6-20",
        "lng": 135.466745,
        "lat": 34.664212,
        "h": 17
      },
      {
        "name": "市営波除第２住宅５号館",
        "address": "大阪府大阪市港区波除1-2",
        "lng": 135.462949,
        "lat": 34.675772,
        "h": 17
      },
      {
        "name": "波除第２住宅３号館",
        "address": "大阪府大阪市港区波除1-5",
        "lng": 135.462963,
        "lat": 34.674945,
        "h": 17
      },
      {
        "name": "市営波除第２住宅４号館",
        "address": "大阪府大阪市港区波除1-6",
        "lng": 135.462451,
        "lat": 34.675434,
        "h": 17
      },
      {
        "name": "市営波除第２住宅６号館",
        "address": "大阪府大阪市港区波除1-6-6",
        "lng": 135.461981,
        "lat": 34.675797,
        "h": 17
      },
      {
        "name": "抱月公園",
        "address": "大阪府大阪市港区波除2-2",
        "lng": 135.465299,
        "lat": 34.672023,
        "h": 8
      },
      {
        "name": "市営波除住宅１号館",
        "address": "大阪府大阪市港区波除2-2-19",
        "lng": 135.464599,
        "lat": 34.672322,
        "h": 17
      },
      {
        "name": "大阪府立港高等学校",
        "address": "大阪府大阪市港区波除2-3-1",
        "lng": 135.465537,
        "lat": 34.670919,
        "h": 17
      },
      {
        "name": "大阪府立港高等学校（運動場）",
        "address": "大阪府大阪市港区波除2-3-1",
        "lng": 135.465963,
        "lat": 34.671374,
        "h": 8
      },
      {
        "name": "Ｏｓａｋａ　Ｍｅｔｒｏ　弁天町駅",
        "address": "大阪府大阪市港区波除3-11-6",
        "lng": 135.462171,
        "lat": 34.669521,
        "h": 17
      },
      {
        "name": "波除小学校（運動場）",
        "address": "大阪府大阪市港区波除3-6-8",
        "lng": 135.462646,
        "lat": 34.671622,
        "h": 8
      },
      {
        "name": "波除小学校",
        "address": "大阪府大阪市港区波除3-6-8",
        "lng": 135.462312,
        "lat": 34.671856,
        "h": 17
      },
      {
        "name": "Ｈ　Ｒ　Ｃビル　（愛称ＡＩＡＩ（アイアイ）おおさか）",
        "address": "大阪府大阪市港区波除4-1-37",
        "lng": 135.463751,
        "lat": 34.673738,
        "h": 17
      },
      {
        "name": "市営波除第２住宅１号館",
        "address": "大阪府大阪市港区波除4-5",
        "lng": 135.463002,
        "lat": 34.673695,
        "h": 17
      },
      {
        "name": "㈱小林産業　本社ビル",
        "address": "大阪府大阪市港区波除4-5-7",
        "lng": 135.46253,
        "lat": 34.673612,
        "h": 17
      },
      {
        "name": "抱月小公園",
        "address": "大阪府大阪市港区波除4-6",
        "lng": 135.463236,
        "lat": 34.674309,
        "h": 8
      },
      {
        "name": "市営波除第２住宅２号館",
        "address": "大阪府大阪市港区波除4-7",
        "lng": 135.462706,
        "lat": 34.674216,
        "h": 17
      },
      {
        "name": "市営波除第２住宅８号館",
        "address": "大阪府大阪市港区波除4-8",
        "lng": 135.461746,
        "lat": 34.6746,
        "h": 17
      },
      {
        "name": "市営波除第２住宅７号館",
        "address": "大阪府大阪市港区波除4-8",
        "lng": 135.462275,
        "lat": 34.674733,
        "h": 17
      },
      {
        "name": "波除公園",
        "address": "大阪府大阪市港区波除5-5",
        "lng": 135.461228,
        "lat": 34.673918,
        "h": 8
      },
      {
        "name": "入舟公園",
        "address": "大阪府大阪市港区八幡屋1-4",
        "lng": 135.447725,
        "lat": 34.657099,
        "h": 8
      },
      {
        "name": "八幡屋第２住宅４号館",
        "address": "大阪府大阪市港区八幡屋3-10",
        "lng": 135.445602,
        "lat": 34.653831,
        "h": 17
      },
      {
        "name": "八幡屋小学校",
        "address": "大阪府大阪市港区八幡屋3-3-5",
        "lng": 135.445861,
        "lat": 34.654832,
        "h": 17
      },
      {
        "name": "八幡屋小学校（運動場）",
        "address": "大阪府大阪市港区八幡屋3-3-5",
        "lng": 135.446235,
        "lat": 34.654934,
        "h": 8
      },
      {
        "name": "入舟南公園",
        "address": "大阪府大阪市港区八幡屋3-4",
        "lng": 135.446612,
        "lat": 34.654255,
        "h": 8
      },
      {
        "name": "八幡屋南公園",
        "address": "大阪府大阪市港区八幡屋4-3",
        "lng": 135.447543,
        "lat": 34.65225,
        "h": 8
      },
      {
        "name": "特別養護老人ホーム愛港園",
        "address": "大阪府大阪市港区八幡屋4-8-1",
        "lng": 135.446778,
        "lat": 34.651571,
        "h": 17
      },
      {
        "name": "港大阪祭典",
        "address": "大阪府大阪市港区福崎1-1-62",
        "lng": 135.458039,
        "lat": 34.659817,
        "h": 17
      },
      {
        "name": "日本郵便輸送㈱　近畿支社",
        "address": "大阪府大阪市港区福崎1-3-30",
        "lng": 135.460356,
        "lat": 34.657683,
        "h": 17
      },
      {
        "name": "オンワード樫山　大阪支店",
        "address": "大阪府大阪市港区福崎1-4-14",
        "lng": 135.458323,
        "lat": 34.658544,
        "h": 17
      },
      {
        "name": "㈱八木製作所",
        "address": "大阪府大阪市港区福崎3-1-111",
        "lng": 135.457619,
        "lat": 34.656252,
        "h": 17
      },
      {
        "name": "ホームセンターコーナン弁天町店",
        "address": "大阪府大阪市港区弁天1-2-24",
        "lng": 135.460084,
        "lat": 34.669331,
        "h": 17
      },
      {
        "name": "コーシャハイツ弁天",
        "address": "大阪府大阪市港区弁天1-4-18",
        "lng": 135.459912,
        "lat": 34.668176,
        "h": 17
      },
      {
        "name": "弁天西公園",
        "address": "大阪府大阪市港区弁天2-4",
        "lng": 135.457009,
        "lat": 34.668297,
        "h": 8
      },
      {
        "name": "弁天小学校",
        "address": "大阪府大阪市港区弁天2-9-35",
        "lng": 135.455667,
        "lat": 34.668707,
        "h": 17
      },
      {
        "name": "弁天小学校（運動場）",
        "address": "大阪府大阪市港区弁天2-9-35",
        "lng": 135.455652,
        "lat": 34.668226,
        "h": 8
      },
      {
        "name": "１２３弁天町店",
        "address": "大阪府大阪市港区弁天3-1-8",
        "lng": 135.454922,
        "lat": 34.666438,
        "h": 17
      },
      {
        "name": "弁天公園",
        "address": "大阪府大阪市港区弁天3-5",
        "lng": 135.453579,
        "lat": 34.667582,
        "h": 8
      },
      {
        "name": "介護老人保健施設　港さつき苑",
        "address": "大阪府大阪市港区弁天4-16-18",
        "lng": 135.456079,
        "lat": 34.671123,
        "h": 17
      },
      {
        "name": "弁天東公園",
        "address": "大阪府大阪市港区弁天5-12",
        "lng": 135.456675,
        "lat": 34.673037,
        "h": 8
      },
      {
        "name": "㈱山櫻　大阪支店",
        "address": "大阪府大阪市港区弁天5-15-13",
        "lng": 135.455354,
        "lat": 34.672095,
        "h": 17
      },
      {
        "name": "㈱梅田精密　本社ビル",
        "address": "大阪府大阪市港区弁天5-17-27",
        "lng": 135.456637,
        "lat": 34.671723,
        "h": 17
      },
      {
        "name": "奥村ナイスワークビル",
        "address": "大阪府大阪市港区弁天6-1-3",
        "lng": 135.458303,
        "lat": 34.674426,
        "h": 17
      },
      {
        "name": "大綱㈱　本社ビル",
        "address": "大阪府大阪市港区弁天6-1-5",
        "lng": 135.457906,
        "lat": 34.674517,
        "h": 17
      },
      {
        "name": "弁天埠頭公園",
        "address": "大阪府大阪市港区弁天6-7",
        "lng": 135.453513,
        "lat": 34.672696,
        "h": 8
      },
      {
        "name": "友宗電気㈱　本社ビル",
        "address": "大阪府大阪市港区夕凪2-15-5",
        "lng": 135.451311,
        "lat": 34.661404,
        "h": 17
      },
      {
        "name": "アソカ学園",
        "address": "大阪府大阪市港区夕凪2-3-5",
        "lng": 135.452437,
        "lat": 34.661917,
        "h": 17
      },
      {
        "name": "夕凪公園",
        "address": "大阪府大阪市港区夕凪2-6",
        "lng": 135.451905,
        "lat": 34.662839,
        "h": 8
      },
      {
        "name": "大阪市下水道科学館",
        "address": "大阪府大阪市此花区高見1-2-53",
        "lng": 135.462475,
        "lat": 34.693485,
        "h": 17
      },
      {
        "name": "高見小学校（運動場）",
        "address": "大阪府大阪市此花区高見1-3-35",
        "lng": 135.460971,
        "lat": 34.690534,
        "h": 8
      },
      {
        "name": "高見小学校",
        "address": "大阪府大阪市此花区高見1-3-35",
        "lng": 135.460358,
        "lat": 34.690546,
        "h": 17
      },
      {
        "name": "市営高見住宅５２号館",
        "address": "大阪府大阪市此花区高見1-4",
        "lng": 135.45853,
        "lat": 34.690847,
        "h": 17
      },
      {
        "name": "市営高見住宅５１号館",
        "address": "大阪府大阪市此花区高見1-4",
        "lng": 135.458648,
        "lat": 34.689678,
        "h": 17
      },
      {
        "name": "市営高見住宅５７号館",
        "address": "大阪府大阪市此花区高見1-4",
        "lng": 135.459393,
        "lat": 34.689307,
        "h": 17
      },
      {
        "name": "市営高見住宅４４号館",
        "address": "大阪府大阪市此花区高見1-5",
        "lng": 135.458728,
        "lat": 34.693264,
        "h": 17
      },
      {
        "name": "市営高見住宅４１号館",
        "address": "大阪府大阪市此花区高見1-5",
        "lng": 135.458494,
        "lat": 34.692076,
        "h": 17
      },
      {
        "name": "高見公園",
        "address": "大阪府大阪市此花区高見1-5",
        "lng": 135.458582,
        "lat": 34.691432,
        "h": 8
      },
      {
        "name": "市営高見住宅２４号館",
        "address": "大阪府大阪市此花区高見1-6",
        "lng": 135.460706,
        "lat": 34.692635,
        "h": 17
      },
      {
        "name": "市営高見住宅２６号館",
        "address": "大阪府大阪市此花区高見1-6",
        "lng": 135.462052,
        "lat": 34.692397,
        "h": 17
      },
      {
        "name": "市営高見住宅２５号館",
        "address": "大阪府大阪市此花区高見1-6",
        "lng": 135.461569,
        "lat": 34.692851,
        "h": 17
      },
      {
        "name": "高見北公園",
        "address": "大阪府大阪市此花区高見1-7",
        "lng": 135.459871,
        "lat": 34.692791,
        "h": 8
      },
      {
        "name": "此花中学校",
        "address": "大阪府大阪市此花区高見2-14-31",
        "lng": 135.455283,
        "lat": 34.69007,
        "h": 17
      },
      {
        "name": "此花中学校（運動場）",
        "address": "大阪府大阪市此花区高見2-14-31",
        "lng": 135.455638,
        "lat": 34.690608,
        "h": 8
      },
      {
        "name": "高見西公園",
        "address": "大阪府大阪市此花区高見3-14",
        "lng": 135.455444,
        "lat": 34.69212,
        "h": 8
      },
      {
        "name": "桜島北公園",
        "address": "大阪府大阪市此花区桜島2-1",
        "lng": 135.431474,
        "lat": 34.661616,
        "h": 17
      },
      {
        "name": "株式会社セントラル・コールド・ストレージ",
        "address": "大阪府大阪市此花区桜島3-2-17",
        "lng": 135.427338,
        "lat": 34.662456,
        "h": 8
      },
      {
        "name": "桜島公園",
        "address": "大阪府大阪市此花区桜島3-5",
        "lng": 135.428339,
        "lat": 34.661572,
        "h": 8
      },
      {
        "name": "市営桜島住宅１号館",
        "address": "大阪府大阪市此花区桜島3-6-30",
        "lng": 135.428208,
        "lat": 34.66089,
        "h": 17
      },
      {
        "name": "千鳥橋公園",
        "address": "大阪府大阪市此花区四貫島1-1",
        "lng": 135.457112,
        "lat": 34.685629,
        "h": 8
      },
      {
        "name": "此花区民一休ホール",
        "address": "大阪府大阪市此花区四貫島1-1-18",
        "lng": 135.457175,
        "lat": 34.685854,
        "h": 8
      },
      {
        "name": "四貫島小学校",
        "address": "大阪府大阪市此花区四貫島2-16-29",
        "lng": 135.454574,
        "lat": 34.685012,
        "h": 17
      },
      {
        "name": "四貫島小学校（運動場）",
        "address": "大阪府大阪市此花区四貫島2-16-29",
        "lng": 135.454109,
        "lat": 34.684851,
        "h": 8
      },
      {
        "name": "四貫島西公園",
        "address": "大阪府大阪市此花区四貫島2-25",
        "lng": 135.452631,
        "lat": 34.684862,
        "h": 8
      },
      {
        "name": "春日出小学校",
        "address": "大阪府大阪市此花区春日出中1-13-23",
        "lng": 135.452324,
        "lat": 34.680607,
        "h": 17
      },
      {
        "name": "春日出小学校（運動場）",
        "address": "大阪府大阪市此花区春日出中1-13-23",
        "lng": 135.452645,
        "lat": 34.680502,
        "h": 8
      },
      {
        "name": "春日出中公園",
        "address": "大阪府大阪市此花区春日出中1-26",
        "lng": 135.451885,
        "lat": 34.681504,
        "h": 8
      },
      {
        "name": "住友電気工業株式会社大阪製作所社員クラブ",
        "address": "大阪府大阪市此花区春日出中1-5-1",
        "lng": 135.452614,
        "lat": 34.679036,
        "h": 17
      },
      {
        "name": "市営春日出中第２住宅１号館",
        "address": "大阪府大阪市此花区春日出中1-5-1",
        "lng": 135.452601,
        "lat": 34.679036,
        "h": 17
      },
      {
        "name": "春日出パークホームズⅡ",
        "address": "大阪府大阪市此花区春日出中1-8-23",
        "lng": 135.453581,
        "lat": 34.68005,
        "h": 17
      },
      {
        "name": "住友化学株式会社　大阪工場（グラウンド）",
        "address": "大阪府大阪市此花区春日出中3-1-98",
        "lng": 135.448319,
        "lat": 34.678891,
        "h": 8
      },
      {
        "name": "春日出公園",
        "address": "大阪府大阪市此花区春日出南1-2",
        "lng": 135.458104,
        "lat": 34.679402,
        "h": 8
      },
      {
        "name": "春日出中学校",
        "address": "大阪府大阪市此花区春日出南1-2-8",
        "lng": 135.45794,
        "lat": 34.678549,
        "h": 17
      },
      {
        "name": "春日出中学校（運動場）",
        "address": "大阪府大阪市此花区春日出南1-2-8",
        "lng": 135.457915,
        "lat": 34.67893,
        "h": 8
      },
      {
        "name": "春日出南公園",
        "address": "大阪府大阪市此花区春日出南2-10",
        "lng": 135.453593,
        "lat": 34.678352,
        "h": 8
      },
      {
        "name": "キングス夢咲シティ　ひかりの街",
        "address": "大阪府大阪市此花区春日出南3-3",
        "lng": 135.446744,
        "lat": 34.673928,
        "h": 17
      },
      {
        "name": "特別養護老人ホーム　クレーネ大阪",
        "address": "大阪府大阪市此花区春日出北1-22-3",
        "lng": 135.450644,
        "lat": 34.684047,
        "h": 17
      },
      {
        "name": "此花公園",
        "address": "大阪府大阪市此花区春日出北1-5",
        "lng": 135.450523,
        "lat": 34.682485,
        "h": 8
      },
      {
        "name": "春日出北公園",
        "address": "大阪府大阪市此花区春日出北2-16",
        "lng": 135.447493,
        "lat": 34.682356,
        "h": 8
      },
      {
        "name": "市営春日出住宅２号館",
        "address": "大阪府大阪市此花区春日出北2-5",
        "lng": 135.449133,
        "lat": 34.681578,
        "h": 17
      },
      {
        "name": "市営春日出住宅１号館",
        "address": "大阪府大阪市此花区春日出北2-5",
        "lng": 135.449363,
        "lat": 34.681335,
        "h": 17
      },
      {
        "name": "梅香中学校（運動場）",
        "address": "大阪府大阪市此花区春日出北3-12-24",
        "lng": 135.445086,
        "lat": 34.681341,
        "h": 8
      },
      {
        "name": "梅香中学校",
        "address": "大阪府大阪市此花区春日出北3-12-24",
        "lng": 135.44406,
        "lat": 34.680863,
        "h": 17
      },
      {
        "name": "株式会社日立物流　第一ビル",
        "address": "大阪府大阪市此花区西九条1-28-13",
        "lng": 135.468108,
        "lat": 34.680911,
        "h": 17
      },
      {
        "name": "西九条公民館",
        "address": "大阪府大阪市此花区西九条1-3-16",
        "lng": 135.469157,
        "lat": 34.683378,
        "h": 8
      },
      {
        "name": "西九条上公園",
        "address": "大阪府大阪市此花区西九条1-30",
        "lng": 135.467616,
        "lat": 34.681731,
        "h": 8
      },
      {
        "name": "株式会社日立物流　安治川物流センター",
        "address": "大阪府大阪市此花区西九条1-37-32",
        "lng": 135.46783,
        "lat": 34.680142,
        "h": 17
      },
      {
        "name": "西九条南公園",
        "address": "大阪府大阪市此花区西九条2-1",
        "lng": 135.465876,
        "lat": 34.679786,
        "h": 8
      },
      {
        "name": "ルモン西九条",
        "address": "大阪府大阪市此花区西九条2-1-32",
        "lng": 135.466105,
        "lat": 34.679603,
        "h": 17
      },
      {
        "name": "西九条福祉会館",
        "address": "大阪府大阪市此花区西九条2-3-15",
        "lng": 135.466191,
        "lat": 34.680707,
        "h": 8
      },
      {
        "name": "ファミール西九条",
        "address": "大阪府大阪市此花区西九条3-4-34",
        "lng": 135.467027,
        "lat": 34.685544,
        "h": 17
      },
      {
        "name": "西九条小公園",
        "address": "大阪府大阪市此花区西九条3-8",
        "lng": 135.466172,
        "lat": 34.684255,
        "h": 8
      },
      {
        "name": "西九条小学校（運動場）",
        "address": "大阪府大阪市此花区西九条4-3-41",
        "lng": 135.464791,
        "lat": 34.682313,
        "h": 8
      },
      {
        "name": "西九条小学校",
        "address": "大阪府大阪市此花区西九条4-3-41",
        "lng": 135.464745,
        "lat": 34.682611,
        "h": 17
      },
      {
        "name": "西九条西公園",
        "address": "大阪府大阪市此花区西九条4-4",
        "lng": 135.464057,
        "lat": 34.681746,
        "h": 8
      },
      {
        "name": "西九条公園",
        "address": "大阪府大阪市此花区西九条5-4",
        "lng": 135.464995,
        "lat": 34.68389,
        "h": 8
      },
      {
        "name": "此花屋内プール",
        "address": "大阪府大阪市此花区西九条5-4-21",
        "lng": 135.464553,
        "lat": 34.683586,
        "h": 17
      },
      {
        "name": "此花会館／梅香殿",
        "address": "大阪府大阪市此花区西九条5-4-24",
        "lng": 135.464432,
        "lat": 34.683657,
        "h": 17
      },
      {
        "name": "朝日橋公園",
        "address": "大阪府大阪市此花区西九条6-1",
        "lng": 135.462217,
        "lat": 34.681529,
        "h": 8
      },
      {
        "name": "ライフ西九条店",
        "address": "大阪府大阪市此花区西九条6-1-132",
        "lng": 135.464094,
        "lat": 34.683059,
        "h": 17
      },
      {
        "name": "男女共同参画センター西部館及びこども文化センター",
        "address": "大阪府大阪市此花区西九条6-1-20",
        "lng": 135.46333,
        "lat": 34.681799,
        "h": 17
      },
      {
        "name": "咲くやこの花中学校・高等学校",
        "address": "大阪府大阪市此花区西九条6-1-44",
        "lng": 135.461605,
        "lat": 34.680536,
        "h": 17
      },
      {
        "name": "咲くやこの花中学校・高等学校（運動場）",
        "address": "大阪府大阪市此花区西九条6-1-44",
        "lng": 135.461194,
        "lat": 34.680055,
        "h": 8
      },
      {
        "name": "昇陽中学校・高等学校",
        "address": "大阪府大阪市此花区朝日1-1-9",
        "lng": 135.462581,
        "lat": 34.684955,
        "h": 17
      },
      {
        "name": "昇陽中学校・高等学校（運動場）",
        "address": "大阪府大阪市此花区朝日1-1-9",
        "lng": 135.462304,
        "lat": 34.685164,
        "h": 8
      },
      {
        "name": "正蓮寺川公園（東端の高台部分）",
        "address": "大阪府大阪市此花区朝日2",
        "lng": 135.463723,
        "lat": 34.687306,
        "h": 24
      },
      {
        "name": "嬉ヶ崎公園",
        "address": "大阪府大阪市此花区朝日2-1",
        "lng": 135.463157,
        "lat": 34.686175,
        "h": 8
      },
      {
        "name": "千鳥橋みどり公園",
        "address": "大阪府大阪市此花区伝法1-2",
        "lng": 135.46033,
        "lat": 34.688746,
        "h": 8
      },
      {
        "name": "市営伝法住宅１号館",
        "address": "大阪府大阪市此花区伝法1-4",
        "lng": 135.459063,
        "lat": 34.687521,
        "h": 17
      },
      {
        "name": "市営伝法住宅２号館",
        "address": "大阪府大阪市此花区伝法1-4",
        "lng": 135.459598,
        "lat": 34.687798,
        "h": 17
      },
      {
        "name": "伝法コミュニティひろば",
        "address": "大阪府大阪市此花区伝法2-1",
        "lng": 135.456976,
        "lat": 34.687251,
        "h": 8
      },
      {
        "name": "伝法東公園",
        "address": "大阪府大阪市此花区伝法2-11",
        "lng": 135.45493,
        "lat": 34.687839,
        "h": 8
      },
      {
        "name": "市営千鳥橋住宅１号館",
        "address": "大阪府大阪市此花区伝法2-2-2",
        "lng": 135.458001,
        "lat": 34.687339,
        "h": 17
      },
      {
        "name": "伝法小学校",
        "address": "大阪府大阪市此花区伝法3-13-10",
        "lng": 135.451509,
        "lat": 34.690268,
        "h": 17
      },
      {
        "name": "伝法小学校（運動場）",
        "address": "大阪府大阪市此花区伝法3-13-10",
        "lng": 135.451774,
        "lat": 34.690009,
        "h": 8
      },
      {
        "name": "伝法中公園",
        "address": "大阪府大阪市此花区伝法3-14",
        "lng": 135.450522,
        "lat": 34.688926,
        "h": 8
      },
      {
        "name": "伝法公園",
        "address": "大阪府大阪市此花区伝法3-14",
        "lng": 135.450723,
        "lat": 34.689508,
        "h": 8
      },
      {
        "name": "此花区在宅サービスセンター",
        "address": "大阪府大阪市此花区伝法3-2-27",
        "lng": 135.454603,
        "lat": 34.690337,
        "h": 25
      },
      {
        "name": "伝法北公園",
        "address": "大阪府大阪市此花区伝法3-7",
        "lng": 135.452561,
        "lat": 34.690802,
        "h": 8
      },
      {
        "name": "ライオンズマンション此花千鳥橋",
        "address": "大阪府大阪市此花区伝法4-1-3",
        "lng": 135.4542,
        "lat": 34.687176,
        "h": 17
      },
      {
        "name": "伝法南公園",
        "address": "大阪府大阪市此花区伝法4-7",
        "lng": 135.451849,
        "lat": 34.686689,
        "h": 8
      },
      {
        "name": "日新製鋼株式会社　伝法寮",
        "address": "大阪府大阪市此花区伝法5-1-18",
        "lng": 135.448926,
        "lat": 34.687222,
        "h": 17
      },
      {
        "name": "キングマンション此花Ⅱ",
        "address": "大阪府大阪市此花区伝法5-1-24",
        "lng": 135.448501,
        "lat": 34.687038,
        "h": 17
      },
      {
        "name": "伝法西公園",
        "address": "大阪府大阪市此花区伝法5-3",
        "lng": 135.447254,
        "lat": 34.687099,
        "h": 8
      },
      {
        "name": "淀川リバーサイドヴィラ",
        "address": "大阪府大阪市此花区伝法5-4-12",
        "lng": 135.449331,
        "lat": 34.687752,
        "h": 17
      },
      {
        "name": "イカリソース跡地ひろば",
        "address": "大阪府大阪市此花区伝法5-6",
        "lng": 135.448425,
        "lat": 34.688691,
        "h": 8
      },
      {
        "name": "㈱鴻池組　恩貴島鴻和寮",
        "address": "大阪府大阪市此花区伝法6-1-49",
        "lng": 135.448733,
        "lat": 34.684716,
        "h": 17
      },
      {
        "name": "阪神住建グランドヴィラ此花Ⅰ",
        "address": "大阪府大阪市此花区伝法6-2-1",
        "lng": 135.45116,
        "lat": 34.686309,
        "h": 17
      },
      {
        "name": "住友電気工業株式会社　大阪製作所　大阪事務所",
        "address": "大阪府大阪市此花区島屋1-1-3",
        "lng": 135.444592,
        "lat": 34.678577,
        "h": 8
      },
      {
        "name": "市営島屋住宅１号館",
        "address": "大阪府大阪市此花区島屋2-8",
        "lng": 135.438767,
        "lat": 34.678293,
        "h": 17
      },
      {
        "name": "島屋小学校",
        "address": "大阪府大阪市此花区島屋2-9-36",
        "lng": 135.439317,
        "lat": 34.677789,
        "h": 17
      },
      {
        "name": "島屋小学校（運動場）",
        "address": "大阪府大阪市此花区島屋2-9-36",
        "lng": 135.43918,
        "lat": 34.677451,
        "h": 8
      },
      {
        "name": "シンプルハートホテル大阪",
        "address": "大阪府大阪市此花区島屋3-10-31",
        "lng": 135.443163,
        "lat": 34.675471,
        "h": 17
      },
      {
        "name": "島屋公園",
        "address": "大阪府大阪市此花区島屋3-3",
        "lng": 135.443465,
        "lat": 34.676573,
        "h": 8
      },
      {
        "name": "マルハン此花島屋店",
        "address": "大阪府大阪市此花区島屋3-8-14",
        "lng": 135.443642,
        "lat": 34.676063,
        "h": 17
      },
      {
        "name": "サーパス此花ネオスタイル",
        "address": "大阪府大阪市此花区島屋3-8-16",
        "lng": 135.442796,
        "lat": 34.676151,
        "h": 17
      },
      {
        "name": "ガーデン天使",
        "address": "大阪府大阪市此花区島屋4-1-11",
        "lng": 135.443735,
        "lat": 34.674039,
        "h": 17
      },
      {
        "name": "日本郵便株式会社　新大阪郵便局",
        "address": "大阪府大阪市此花区島屋4-1-18",
        "lng": 135.442124,
        "lat": 34.673835,
        "h": 8
      },
      {
        "name": "島屋西公園",
        "address": "大阪府大阪市此花区島屋5-1",
        "lng": 135.436455,
        "lat": 34.668677,
        "h": 8
      },
      {
        "name": "新日鐵住金株式会社　製鋼所（グラウンド）",
        "address": "大阪府大阪市此花区島屋5-1-109",
        "lng": 135.437146,
        "lat": 34.673598,
        "h": 8
      },
      {
        "name": "島屋南公園",
        "address": "大阪府大阪市此花区島屋6-2",
        "lng": 135.440998,
        "lat": 34.670768,
        "h": 8
      },
      {
        "name": "リバーガーデン　ＥＣＯ　シティアリスの森",
        "address": "大阪府大阪市此花区島屋6-2-110",
        "lng": 135.440483,
        "lat": 34.670259,
        "h": 17
      },
      {
        "name": "市営秀野西住宅３号館",
        "address": "大阪府大阪市此花区酉島1-11",
        "lng": 135.444084,
        "lat": 34.684028,
        "h": 17
      },
      {
        "name": "秀野西住宅２号館",
        "address": "大阪府大阪市此花区酉島1-12",
        "lng": 135.443696,
        "lat": 34.684495,
        "h": 17
      },
      {
        "name": "酉島東公園",
        "address": "大阪府大阪市此花区酉島1-13",
        "lng": 135.44375,
        "lat": 34.684885,
        "h": 8
      },
      {
        "name": "市営秀野西住宅４号館",
        "address": "大阪府大阪市此花区酉島1-16",
        "lng": 135.443064,
        "lat": 34.683686,
        "h": 17
      },
      {
        "name": "市営秀野西住宅５号館",
        "address": "大阪府大阪市此花区酉島1-17",
        "lng": 135.443248,
        "lat": 34.683212,
        "h": 17
      },
      {
        "name": "ドルミ新淀川１５号館",
        "address": "大阪府大阪市此花区酉島1-2-15",
        "lng": 135.447066,
        "lat": 34.685322,
        "h": 17
      },
      {
        "name": "市営酉島東住宅１号館",
        "address": "大阪府大阪市此花区酉島1-3",
        "lng": 135.44575,
        "lat": 34.685203,
        "h": 17
      },
      {
        "name": "市営秀野西住宅１号館",
        "address": "大阪府大阪市此花区酉島1-5",
        "lng": 135.444942,
        "lat": 34.684956,
        "h": 17
      },
      {
        "name": "市営酉島東住宅２号館",
        "address": "大阪府大阪市此花区酉島2-1",
        "lng": 135.446612,
        "lat": 34.686264,
        "h": 17
      },
      {
        "name": "もと此花総合高等学校（新館）",
        "address": "大阪府大阪市此花区酉島2-3-16",
        "lng": 135.444941,
        "lat": 34.685861,
        "h": 17
      },
      {
        "name": "もと此花総合高等学校（運動場）",
        "address": "大阪府大阪市此花区酉島2-3-16",
        "lng": 135.444063,
        "lat": 34.685676,
        "h": 8
      },
      {
        "name": "酉島小学校",
        "address": "大阪府大阪市此花区酉島2-5-12",
        "lng": 135.442288,
        "lat": 34.685575,
        "h": 17
      },
      {
        "name": "酉島小学校（運動場）",
        "address": "大阪府大阪市此花区酉島2-5-12",
        "lng": 135.442134,
        "lat": 34.685824,
        "h": 8
      },
      {
        "name": "市営酉島第２住宅１号棟",
        "address": "大阪府大阪市此花区酉島3-12-20",
        "lng": 135.440971,
        "lat": 34.682399,
        "h": 17
      },
      {
        "name": "酉島中公園",
        "address": "大阪府大阪市此花区酉島3-13",
        "lng": 135.44178,
        "lat": 34.682349,
        "h": 8
      },
      {
        "name": "府住宅供給公社　春日出団地",
        "address": "大阪府大阪市此花区酉島3-14-24",
        "lng": 135.441475,
        "lat": 34.681928,
        "h": 17
      },
      {
        "name": "レピア此花",
        "address": "大阪府大阪市此花区酉島3-16-17",
        "lng": 135.439991,
        "lat": 34.682046,
        "h": 17
      },
      {
        "name": "酉島南公園",
        "address": "大阪府大阪市此花区酉島3-19",
        "lng": 135.439186,
        "lat": 34.682695,
        "h": 8
      },
      {
        "name": "住友電気工業株式会社　大阪製作所　浩気寮",
        "address": "大阪府大阪市此花区酉島3-23-5",
        "lng": 135.438485,
        "lat": 34.682138,
        "h": 17
      },
      {
        "name": "市営酉島住宅２１号館",
        "address": "大阪府大阪市此花区酉島4-1",
        "lng": 135.439016,
        "lat": 34.683858,
        "h": 17
      },
      {
        "name": "コーシャハイツ酉島",
        "address": "大阪府大阪市此花区酉島4-1-1",
        "lng": 135.440835,
        "lat": 34.685623,
        "h": 17
      },
      {
        "name": "市営酉島住宅２２号館",
        "address": "大阪府大阪市此花区酉島4-2",
        "lng": 135.43783,
        "lat": 34.683604,
        "h": 17
      },
      {
        "name": "酉島公園",
        "address": "大阪府大阪市此花区酉島6-1",
        "lng": 135.435262,
        "lat": 34.683303,
        "h": 8
      },
      {
        "name": "ルネ・パークプラザ",
        "address": "大阪府大阪市此花区酉島6-3-4",
        "lng": 135.435713,
        "lat": 34.682584,
        "h": 17
      },
      {
        "name": "梅香東公園",
        "address": "大阪府大阪市此花区梅香1-3",
        "lng": 135.459757,
        "lat": 34.682331,
        "h": 8
      },
      {
        "name": "梅香小学校（運動場）",
        "address": "大阪府大阪市此花区梅香3-17-29",
        "lng": 135.455044,
        "lat": 34.682094,
        "h": 8
      },
      {
        "name": "梅香小学校",
        "address": "大阪府大阪市此花区梅香3-17-29",
        "lng": 135.455326,
        "lat": 34.682307,
        "h": 17
      },
      {
        "name": "梅香公園",
        "address": "大阪府大阪市此花区梅香3-3",
        "lng": 135.455699,
        "lat": 34.681453,
        "h": 8
      },
      {
        "name": "㈱アド・ダイセン　関西メールセンター",
        "address": "大阪府大阪市此花区北港1-1-1",
        "lng": 135.430307,
        "lat": 34.671807,
        "h": 17
      },
      {
        "name": "大阪港舞洲食品流通センター",
        "address": "大阪府大阪市此花区北港白津1-11-52",
        "lng": 135.40251,
        "lat": 34.661732,
        "h": 17
      },
      {
        "name": "英明幼稚園遠里小野（運動場）",
        "address": "大阪府大阪市住吉区遠里小野1-2-25",
        "lng": 135.49924,
        "lat": 34.600494,
        "h": 24
      },
      {
        "name": "大和川中学校",
        "address": "大阪府大阪市住吉区遠里小野2-11-4",
        "lng": 135.496889,
        "lat": 34.597509,
        "h": 17
      },
      {
        "name": "大和川中学校（運動場）",
        "address": "大阪府大阪市住吉区遠里小野2-11-4",
        "lng": 135.497656,
        "lat": 34.597288,
        "h": 24
      },
      {
        "name": "市営遠里小野住宅５号館",
        "address": "大阪府大阪市住吉区遠里小野2-15",
        "lng": 135.495798,
        "lat": 34.595659,
        "h": 17
      },
      {
        "name": "遠里小野公園",
        "address": "大阪府大阪市住吉区遠里小野5-19",
        "lng": 135.493364,
        "lat": 34.599134,
        "h": 24
      },
      {
        "name": "遠里小野小学校（運動場）",
        "address": "大阪府大阪市住吉区遠里小野6-6-27",
        "lng": 135.494996,
        "lat": 34.597351,
        "h": 24
      },
      {
        "name": "遠里小野小学校",
        "address": "大阪府大阪市住吉区遠里小野6-6-27",
        "lng": 135.495321,
        "lat": 34.597421,
        "h": 17
      },
      {
        "name": "おりおの南公園",
        "address": "大阪府大阪市住吉区遠里小野7-5",
        "lng": 135.492471,
        "lat": 34.596931,
        "h": 24
      },
      {
        "name": "市営遠里小野第２住宅１号館",
        "address": "大阪府大阪市住吉区遠里小野7-6-29",
        "lng": 135.492338,
        "lat": 34.596423,
        "h": 17
      },
      {
        "name": "市営我孫子第２住宅１号館",
        "address": "大阪府大阪市住吉区我孫子1-5",
        "lng": 135.510494,
        "lat": 34.604236,
        "h": 17
      },
      {
        "name": "市営我孫子第２住宅３号館",
        "address": "大阪府大阪市住吉区我孫子1-6",
        "lng": 135.510011,
        "lat": 34.603785,
        "h": 17
      },
      {
        "name": "市営我孫子第２住宅２号館",
        "address": "大阪府大阪市住吉区我孫子1-6",
        "lng": 135.510553,
        "lat": 34.603746,
        "h": 17
      },
      {
        "name": "市営我孫子第３住宅１号館",
        "address": "大阪府大阪市住吉区我孫子1-8",
        "lng": 135.50942,
        "lat": 34.60492,
        "h": 17
      },
      {
        "name": "市営我孫子東第７住宅１号館",
        "address": "大阪府大阪市住吉区我孫子2-1",
        "lng": 135.510519,
        "lat": 34.603313,
        "h": 17
      },
      {
        "name": "市営我孫子東第７住宅２号館",
        "address": "大阪府大阪市住吉区我孫子2-2",
        "lng": 135.510273,
        "lat": 34.602827,
        "h": 17
      },
      {
        "name": "市営我孫子東第７住宅３号館",
        "address": "大阪府大阪市住吉区我孫子2-3",
        "lng": 135.5102,
        "lat": 34.602277,
        "h": 17
      },
      {
        "name": "依羅小学校",
        "address": "大阪府大阪市住吉区我孫子4-11-48",
        "lng": 135.507828,
        "lat": 34.597241,
        "h": 17
      },
      {
        "name": "依羅小学校（運動場）",
        "address": "大阪府大阪市住吉区我孫子4-11-48",
        "lng": 135.508216,
        "lat": 34.597414,
        "h": 24
      },
      {
        "name": "我孫子公園",
        "address": "大阪府大阪市住吉区我孫子5-2",
        "lng": 135.507415,
        "lat": 34.599527,
        "h": 24
      },
      {
        "name": "市営我孫子住宅１号館",
        "address": "大阪府大阪市住吉区我孫子5-7",
        "lng": 135.506109,
        "lat": 34.597578,
        "h": 17
      },
      {
        "name": "市営我孫子西住宅１号館",
        "address": "大阪府大阪市住吉区我孫子西1-10",
        "lng": 135.507183,
        "lat": 34.605742,
        "h": 17
      },
      {
        "name": "市営我孫子西住宅４号館",
        "address": "大阪府大阪市住吉区我孫子西1-12",
        "lng": 135.506909,
        "lat": 34.604821,
        "h": 17
      },
      {
        "name": "大空小学校",
        "address": "大阪府大阪市住吉区我孫子西1-6-12",
        "lng": 135.508231,
        "lat": 34.605195,
        "h": 17
      },
      {
        "name": "大空小学校（運動場）",
        "address": "大阪府大阪市住吉区我孫子西1-6-12",
        "lng": 135.508003,
        "lat": 34.605467,
        "h": 24
      },
      {
        "name": "市営我孫子東第７住宅７号館",
        "address": "大阪府大阪市住吉区我孫子東1-10",
        "lng": 135.512716,
        "lat": 34.60335,
        "h": 17
      },
      {
        "name": "市営我孫子東第７住宅４号館",
        "address": "大阪府大阪市住吉区我孫子東1-12",
        "lng": 135.511509,
        "lat": 34.602176,
        "h": 17
      },
      {
        "name": "市営我孫子東第７住宅５号館",
        "address": "大阪府大阪市住吉区我孫子東1-13",
        "lng": 135.511498,
        "lat": 34.601748,
        "h": 17
      },
      {
        "name": "我孫子中学校",
        "address": "大阪府大阪市住吉区我孫子東1-4-32",
        "lng": 135.511797,
        "lat": 34.604642,
        "h": 17
      },
      {
        "name": "我孫子中学校（運動場）",
        "address": "大阪府大阪市住吉区我孫子東1-4-32",
        "lng": 135.51225,
        "lat": 34.604996,
        "h": 24
      },
      {
        "name": "市営我孫子第２住宅５号館",
        "address": "大阪府大阪市住吉区我孫子東1-5",
        "lng": 135.51267,
        "lat": 34.604077,
        "h": 17
      },
      {
        "name": "市営我孫子第２住宅４号館",
        "address": "大阪府大阪市住吉区我孫子東1-6",
        "lng": 135.511969,
        "lat": 34.604187,
        "h": 17
      },
      {
        "name": "市営我孫子第２住宅６号館",
        "address": "大阪府大阪市住吉区我孫子東1-7",
        "lng": 135.511597,
        "lat": 34.603706,
        "h": 17
      },
      {
        "name": "市営我孫子東第７住宅６号館",
        "address": "大阪府大阪市住吉区我孫子東1-8",
        "lng": 135.511949,
        "lat": 34.603222,
        "h": 17
      },
      {
        "name": "市営我孫子南住宅１号館",
        "address": "大阪府大阪市住吉区我孫子東3-10",
        "lng": 135.511333,
        "lat": 34.594939,
        "h": 17
      },
      {
        "name": "市営我孫子南住宅６号館",
        "address": "大阪府大阪市住吉区我孫子東3-10",
        "lng": 135.510808,
        "lat": 34.594987,
        "h": 17
      },
      {
        "name": "市営我孫子南住宅５号館",
        "address": "大阪府大阪市住吉区我孫子東3-11",
        "lng": 135.511344,
        "lat": 34.594502,
        "h": 17
      },
      {
        "name": "市営我孫子南住宅４号館",
        "address": "大阪府大阪市住吉区我孫子東3-12",
        "lng": 135.511307,
        "lat": 34.59417,
        "h": 17
      },
      {
        "name": "市営我孫子南住宅３号館",
        "address": "大阪府大阪市住吉区我孫子東3-13",
        "lng": 135.511977,
        "lat": 34.59425,
        "h": 17
      },
      {
        "name": "市営我孫子南住宅８号館",
        "address": "大阪府大阪市住吉区我孫子東3-5",
        "lng": 135.511103,
        "lat": 34.596356,
        "h": 17
      },
      {
        "name": "市営我孫子南住宅７号館",
        "address": "大阪府大阪市住吉区我孫子東3-6",
        "lng": 135.511049,
        "lat": 34.595884,
        "h": 17
      },
      {
        "name": "市営我孫子南住宅９号館",
        "address": "大阪府大阪市住吉区我孫子東3-7",
        "lng": 135.512138,
        "lat": 34.596082,
        "h": 17
      },
      {
        "name": "市営我孫子南住宅２号館",
        "address": "大阪府大阪市住吉区我孫子東3-8",
        "lng": 135.512036,
        "lat": 34.595142,
        "h": 17
      },
      {
        "name": "苅田北小学校（運動場）",
        "address": "大阪府大阪市住吉区苅田1-11-39",
        "lng": 135.520386,
        "lat": 34.60364,
        "h": 24
      },
      {
        "name": "苅田北小学校",
        "address": "大阪府大阪市住吉区苅田1-11-39",
        "lng": 135.520792,
        "lat": 34.603799,
        "h": 17
      },
      {
        "name": "東我孫子中学校（運動場）",
        "address": "大阪府大阪市住吉区苅田1-16-2",
        "lng": 135.51923,
        "lat": 34.602746,
        "h": 24
      },
      {
        "name": "東我孫子中学校",
        "address": "大阪府大阪市住吉区苅田1-16-2",
        "lng": 135.519783,
        "lat": 34.603026,
        "h": 17
      },
      {
        "name": "苅田南小学校",
        "address": "大阪府大阪市住吉区苅田10-1-35",
        "lng": 135.51385,
        "lat": 34.594568,
        "h": 17
      },
      {
        "name": "苅田南小学校（運動場）",
        "address": "大阪府大阪市住吉区苅田10-1-35",
        "lng": 135.514805,
        "lat": 34.594202,
        "h": 24
      },
      {
        "name": "苅田北公園",
        "address": "大阪府大阪市住吉区苅田2-11",
        "lng": 135.515335,
        "lat": 34.603933,
        "h": 24
      },
      {
        "name": "苅田どんぐり公園",
        "address": "大阪府大阪市住吉区苅田3-4",
        "lng": 135.517594,
        "lat": 34.601601,
        "h": 24
      },
      {
        "name": "苅田小学校（運動場）",
        "address": "大阪府大阪市住吉区苅田3-5-34",
        "lng": 135.516677,
        "lat": 34.601774,
        "h": 24
      },
      {
        "name": "苅田小学校",
        "address": "大阪府大阪市住吉区苅田3-5-34",
        "lng": 135.516208,
        "lat": 34.601941,
        "h": 17
      },
      {
        "name": "大阪府教育センター附属高等学校（運動場）",
        "address": "大阪府大阪市住吉区苅田4-1-72",
        "lng": 135.520759,
        "lat": 34.601464,
        "h": 24
      },
      {
        "name": "市営苅田北住宅４号館",
        "address": "大阪府大阪市住吉区苅田4-7-4",
        "lng": 135.521558,
        "lat": 34.599692,
        "h": 17
      },
      {
        "name": "市営苅田北住宅５号館",
        "address": "大阪府大阪市住吉区苅田4-7-5",
        "lng": 135.522183,
        "lat": 34.599684,
        "h": 17
      },
      {
        "name": "市営苅田北住宅２号館",
        "address": "大阪府大阪市住吉区苅田4-8-2",
        "lng": 135.520308,
        "lat": 34.599817,
        "h": 17
      },
      {
        "name": "市営苅田北住宅３号館",
        "address": "大阪府大阪市住吉区苅田4-8-3",
        "lng": 135.520894,
        "lat": 34.599718,
        "h": 17
      },
      {
        "name": "市営苅田北住宅１号館",
        "address": "大阪府大阪市住吉区苅田4-9-1",
        "lng": 135.519509,
        "lat": 34.599701,
        "h": 17
      },
      {
        "name": "苅田中公園",
        "address": "大阪府大阪市住吉区苅田6-16",
        "lng": 135.517638,
        "lat": 34.599187,
        "h": 24
      },
      {
        "name": "市営苅田南住宅１号館",
        "address": "大阪府大阪市住吉区苅田9-10-1",
        "lng": 135.513922,
        "lat": 34.59556,
        "h": 17
      },
      {
        "name": "市営苅田南住宅２号館",
        "address": "大阪府大阪市住吉区苅田9-10-2",
        "lng": 135.51452,
        "lat": 34.595349,
        "h": 17
      },
      {
        "name": "市営苅田南住宅３号館",
        "address": "大阪府大阪市住吉区苅田9-10-3",
        "lng": 135.514295,
        "lat": 34.595062,
        "h": 17
      },
      {
        "name": "コーシャハイツ苅田",
        "address": "大阪府大阪市住吉区苅田9-16-21",
        "lng": 135.512837,
        "lat": 34.596238,
        "h": 17
      },
      {
        "name": "市営苅田住宅１号館",
        "address": "大阪府大阪市住吉区苅田9-17",
        "lng": 135.512804,
        "lat": 34.595473,
        "h": 17
      },
      {
        "name": "苅田南公園",
        "address": "大阪府大阪市住吉区苅田9-5",
        "lng": 135.516109,
        "lat": 34.597282,
        "h": 24
      },
      {
        "name": "苅田土地改良記念会館",
        "address": "大阪府大阪市住吉区苅田9-5-27",
        "lng": 135.516481,
        "lat": 34.597324,
        "h": 17
      },
      {
        "name": "山之内北公園",
        "address": "大阪府大阪市住吉区山之内1-1",
        "lng": 135.504816,
        "lat": 34.600703,
        "h": 24
      },
      {
        "name": "リバーガーデン我孫子前",
        "address": "大阪府大阪市住吉区山之内1-10-12",
        "lng": 135.502512,
        "lat": 34.600388,
        "h": 17
      },
      {
        "name": "浪速中学校・高等学校（運動場）",
        "address": "大阪府大阪市住吉区山之内2-13-57",
        "lng": 135.500761,
        "lat": 34.597304,
        "h": 24
      },
      {
        "name": "山之内小学校（運動場）",
        "address": "大阪府大阪市住吉区山之内2-17-39",
        "lng": 135.500256,
        "lat": 34.59596,
        "h": 24
      },
      {
        "name": "山之内小学校",
        "address": "大阪府大阪市住吉区山之内2-17-39",
        "lng": 135.499874,
        "lat": 34.595894,
        "h": 17
      },
      {
        "name": "山之内中央公園",
        "address": "大阪府大阪市住吉区山之内3-17",
        "lng": 135.500412,
        "lat": 34.593098,
        "h": 24
      },
      {
        "name": "市営山之内住宅３号館",
        "address": "大阪府大阪市住吉区山之内4-10",
        "lng": 135.501128,
        "lat": 34.59044,
        "h": 17
      },
      {
        "name": "タイホ防災株式会社社屋",
        "address": "大阪府大阪市住吉区山之内4-12-12",
        "lng": 135.501315,
        "lat": 34.591117,
        "h": 17
      },
      {
        "name": "市営山之内住宅１号館",
        "address": "大阪府大阪市住吉区山之内4-13",
        "lng": 135.500459,
        "lat": 34.591085,
        "h": 17
      },
      {
        "name": "市営山之内住宅９号館",
        "address": "大阪府大阪市住吉区山之内4-5",
        "lng": 135.501449,
        "lat": 34.588283,
        "h": 17
      },
      {
        "name": "市営山之内住宅６号館",
        "address": "大阪府大阪市住吉区山之内4-7",
        "lng": 135.501112,
        "lat": 34.589247,
        "h": 17
      },
      {
        "name": "市営山之内住宅５号館",
        "address": "大阪府大阪市住吉区山之内4-8",
        "lng": 135.501052,
        "lat": 34.589645,
        "h": 17
      },
      {
        "name": "市営山之内住宅４号館",
        "address": "大阪府大阪市住吉区山之内4-9",
        "lng": 135.501074,
        "lat": 34.590038,
        "h": 17
      },
      {
        "name": "山之内公園",
        "address": "大阪府大阪市住吉区山之内5-2",
        "lng": 135.50169,
        "lat": 34.587667,
        "h": 24
      },
      {
        "name": "住吉一二三公園",
        "address": "大阪府大阪市住吉区住吉1-7",
        "lng": 135.496856,
        "lat": 34.613994,
        "h": 24
      },
      {
        "name": "上住吉住宅３号館",
        "address": "大阪府大阪市住吉区上住吉1-1",
        "lng": 135.500528,
        "lat": 34.611084,
        "h": 17
      },
      {
        "name": "市営杉本住宅１号館",
        "address": "大阪府大阪市住吉区杉本1-2",
        "lng": 135.509492,
        "lat": 34.595942,
        "h": 17
      },
      {
        "name": "杉本町公園",
        "address": "大阪府大阪市住吉区杉本2-6",
        "lng": 135.507221,
        "lat": 34.594956,
        "h": 24
      },
      {
        "name": "大阪公立大学",
        "address": "大阪府大阪市住吉区杉本3",
        "lng": 135.50755,
        "lat": 34.592521,
        "h": 56
      },
      {
        "name": "英明幼稚園住吉（運動場）",
        "address": "大阪府大阪市住吉区清水丘1-24-10",
        "lng": 135.491452,
        "lat": 34.603357,
        "h": 24
      },
      {
        "name": "遠沢公園",
        "address": "大阪府大阪市住吉区清水丘2-2",
        "lng": 135.494116,
        "lat": 34.602804,
        "h": 24
      },
      {
        "name": "清水丘公園",
        "address": "大阪府大阪市住吉区清水丘2-22",
        "lng": 135.491327,
        "lat": 34.602547,
        "h": 24
      },
      {
        "name": "清水丘小学校",
        "address": "大阪府大阪市住吉区清水丘2-9-41",
        "lng": 135.492845,
        "lat": 34.601779,
        "h": 17
      },
      {
        "name": "清水丘小学校（運動場）",
        "address": "大阪府大阪市住吉区清水丘2-9-41",
        "lng": 135.492482,
        "lat": 34.601638,
        "h": 24
      },
      {
        "name": "市営清水丘住宅２号館",
        "address": "大阪府大阪市住吉区清水丘3-4-2",
        "lng": 135.490838,
        "lat": 34.597401,
        "h": 17
      },
      {
        "name": "市営清水丘住宅１号館",
        "address": "大阪府大阪市住吉区清水丘3-5-1",
        "lng": 135.490608,
        "lat": 34.596889,
        "h": 17
      },
      {
        "name": "清水丘ふれあい公園",
        "address": "大阪府大阪市住吉区清水丘3-8",
        "lng": 135.490279,
        "lat": 34.597482,
        "h": 24
      },
      {
        "name": "三稜中学校",
        "address": "大阪府大阪市住吉区千躰1-5-22",
        "lng": 135.499735,
        "lat": 34.607259,
        "h": 17
      },
      {
        "name": "三稜中学校（運動場）",
        "address": "大阪府大阪市住吉区千躰1-5-22",
        "lng": 135.500547,
        "lat": 34.607414,
        "h": 24
      },
      {
        "name": "市営千躰住宅１号館",
        "address": "大阪府大阪市住吉区千躰2-3",
        "lng": 135.497692,
        "lat": 34.607481,
        "h": 17
      },
      {
        "name": "浅香中央公園",
        "address": "大阪府大阪市住吉区浅香1-6",
        "lng": 135.51015,
        "lat": 34.591109,
        "h": 24
      },
      {
        "name": "我孫子南中学校（運動場）",
        "address": "大阪府大阪市住吉区浅香1-8-55",
        "lng": 135.511688,
        "lat": 34.592987,
        "h": 24
      },
      {
        "name": "我孫子南中学校",
        "address": "大阪府大阪市住吉区浅香1-8-55",
        "lng": 135.511307,
        "lat": 34.593207,
        "h": 17
      },
      {
        "name": "市営浅香西住宅１号館",
        "address": "大阪府大阪市住吉区浅香2-1",
        "lng": 135.507399,
        "lat": 34.590658,
        "h": 17
      },
      {
        "name": "市営浅香西住宅３号館",
        "address": "大阪府大阪市住吉区浅香2-1",
        "lng": 135.507359,
        "lat": 34.591571,
        "h": 17
      },
      {
        "name": "市営浅香西住宅２号館",
        "address": "大阪府大阪市住吉区浅香2-1",
        "lng": 135.507252,
        "lat": 34.591173,
        "h": 17
      },
      {
        "name": "浅香町公園",
        "address": "大阪府大阪市住吉区浅香2-1",
        "lng": 135.507688,
        "lat": 34.590159,
        "h": 24
      },
      {
        "name": "浅香住宅９号館",
        "address": "大阪府大阪市住吉区浅香2-1",
        "lng": 135.506725,
        "lat": 34.591562,
        "h": 17
      },
      {
        "name": "市営浅香中住宅１号館",
        "address": "大阪府大阪市住吉区浅香2-2",
        "lng": 135.508369,
        "lat": 34.589359,
        "h": 17
      },
      {
        "name": "大領小学校",
        "address": "大阪府大阪市住吉区大領3-3-5",
        "lng": 135.507518,
        "lat": 34.615609,
        "h": 17
      },
      {
        "name": "大領小学校（運動場）",
        "address": "大阪府大阪市住吉区大領3-3-5",
        "lng": 135.507075,
        "lat": 34.615806,
        "h": 24
      },
      {
        "name": "大領中学校",
        "address": "大阪府大阪市住吉区大領4-3-25",
        "lng": 135.507314,
        "lat": 34.613681,
        "h": 17
      },
      {
        "name": "大領中学校（運動場）",
        "address": "大阪府大阪市住吉区大領4-3-25",
        "lng": 135.507473,
        "lat": 34.61401,
        "h": 24
      },
      {
        "name": "鶴ヶ丘児童遊園",
        "address": "大阪府大阪市住吉区長居1-10",
        "lng": 135.510462,
        "lat": 34.614105,
        "h": 24
      },
      {
        "name": "市営長居１丁目住宅１号館",
        "address": "大阪府大阪市住吉区長居1-14-1",
        "lng": 135.513237,
        "lat": 34.614126,
        "h": 17
      },
      {
        "name": "市営長居住宅１号館",
        "address": "大阪府大阪市住吉区長居1-15",
        "lng": 135.513967,
        "lat": 34.614353,
        "h": 17
      },
      {
        "name": "大阪学芸高等学校（運動場）",
        "address": "大阪府大阪市住吉区長居1-4-15",
        "lng": 135.512448,
        "lat": 34.615626,
        "h": 24
      },
      {
        "name": "市営長居西第２住宅１号館",
        "address": "大阪府大阪市住吉区長居西1-10-1",
        "lng": 135.508699,
        "lat": 34.614203,
        "h": 17
      },
      {
        "name": "市営長居西第２住宅２号館",
        "address": "大阪府大阪市住吉区長居西1-10-2",
        "lng": 135.508716,
        "lat": 34.614566,
        "h": 17
      },
      {
        "name": "西長居公園",
        "address": "大阪府大阪市住吉区長居西1-14",
        "lng": 135.509336,
        "lat": 34.612278,
        "h": 24
      },
      {
        "name": "市営長居西第２住宅３号館",
        "address": "大阪府大阪市住吉区長居西1-3-3",
        "lng": 135.508783,
        "lat": 34.614948,
        "h": 17
      },
      {
        "name": "市営長居西第２住宅４号館",
        "address": "大阪府大阪市住吉区長居西1-3-4",
        "lng": 135.509075,
        "lat": 34.61565,
        "h": 17
      },
      {
        "name": "市営東長居住宅１号館",
        "address": "大阪府大阪市住吉区長居東3-20",
        "lng": 135.516796,
        "lat": 34.605762,
        "h": 17
      },
      {
        "name": "長居小学校（運動場）",
        "address": "大阪府大阪市住吉区長居東3-3-40",
        "lng": 135.514462,
        "lat": 34.608831,
        "h": 24
      },
      {
        "name": "長居小学校",
        "address": "大阪府大阪市住吉区長居東3-3-40",
        "lng": 135.514543,
        "lat": 34.609131,
        "h": 17
      },
      {
        "name": "住吉中学校（運動場）",
        "address": "大阪府大阪市住吉区帝塚山西3-5-6",
        "lng": 135.496026,
        "lat": 34.618907,
        "h": 24
      },
      {
        "name": "住吉中学校",
        "address": "大阪府大阪市住吉区帝塚山西3-5-6",
        "lng": 135.495761,
        "lat": 34.619335,
        "h": 17
      },
      {
        "name": "住吉小学校（運動場）",
        "address": "大阪府大阪市住吉区帝塚山西4-1-35",
        "lng": 135.496902,
        "lat": 34.617714,
        "h": 24
      },
      {
        "name": "住吉小学校",
        "address": "大阪府大阪市住吉区帝塚山西4-1-35",
        "lng": 135.4963,
        "lat": 34.61767,
        "h": 17
      },
      {
        "name": "帝塚山学院（運動場）",
        "address": "大阪府大阪市住吉区帝塚山中1-6-7",
        "lng": 135.498882,
        "lat": 34.620469,
        "h": 24
      },
      {
        "name": "市営住吉住宅１号館",
        "address": "大阪府大阪市住吉区帝塚山東5",
        "lng": 135.498172,
        "lat": 34.614349,
        "h": 17
      },
      {
        "name": "神ノ木公園",
        "address": "大阪府大阪市住吉区帝塚山東5-3",
        "lng": 135.498115,
        "lat": 34.615186,
        "h": 24
      },
      {
        "name": "住吉住宅６号館",
        "address": "大阪府大阪市住吉区帝塚山東5-3",
        "lng": 135.498049,
        "lat": 34.61493,
        "h": 17
      },
      {
        "name": "市営住吉住宅３号館",
        "address": "大阪府大阪市住吉区帝塚山東5-6-3",
        "lng": 135.497896,
        "lat": 34.614649,
        "h": 17
      },
      {
        "name": "庭井公園",
        "address": "大阪府大阪市住吉区庭井2-18",
        "lng": 135.518393,
        "lat": 34.595518,
        "h": 24
      },
      {
        "name": "大阪府立阪南高等学校",
        "address": "大阪府大阪市住吉区庭井2-18-81",
        "lng": 135.516492,
        "lat": 34.595516,
        "h": 17
      },
      {
        "name": "東粉浜小学校",
        "address": "大阪府大阪市住吉区東粉浜2-3-26",
        "lng": 135.494585,
        "lat": 34.619572,
        "h": 17
      },
      {
        "name": "東粉浜小学校（運動場）",
        "address": "大阪府大阪市住吉区東粉浜2-3-26",
        "lng": 135.494668,
        "lat": 34.620114,
        "h": 24
      },
      {
        "name": "市営南住吉第９住宅４号館",
        "address": "大阪府大阪市住吉区南住吉1-12",
        "lng": 135.504376,
        "lat": 34.609552,
        "h": 17
      },
      {
        "name": "市営南住吉第９住宅３号館",
        "address": "大阪府大阪市住吉区南住吉1-13",
        "lng": 135.503228,
        "lat": 34.609547,
        "h": 17
      },
      {
        "name": "市営南住吉第９住宅２号館",
        "address": "大阪府大阪市住吉区南住吉1-14",
        "lng": 135.503207,
        "lat": 34.610064,
        "h": 17
      },
      {
        "name": "市営南住吉第９住宅１号館",
        "address": "大阪府大阪市住吉区南住吉1-21",
        "lng": 135.501862,
        "lat": 34.610063,
        "h": 17
      },
      {
        "name": "市営南住吉第５住宅１号館",
        "address": "大阪府大阪市住吉区南住吉2-11",
        "lng": 135.504385,
        "lat": 34.607989,
        "h": 17
      },
      {
        "name": "市営南住吉第５住宅３号館",
        "address": "大阪府大阪市住吉区南住吉2-12",
        "lng": 135.504369,
        "lat": 34.607486,
        "h": 17
      },
      {
        "name": "市営南住吉第５住宅２号館",
        "address": "大阪府大阪市住吉区南住吉2-12",
        "lng": 135.503993,
        "lat": 34.60757,
        "h": 17
      },
      {
        "name": "市営南住吉第５住宅４号館",
        "address": "大阪府大阪市住吉区南住吉2-12",
        "lng": 135.504761,
        "lat": 34.607592,
        "h": 17
      },
      {
        "name": "市営南住吉第５住宅５号館",
        "address": "大阪府大阪市住吉区南住吉2-13",
        "lng": 135.503988,
        "lat": 34.607142,
        "h": 17
      },
      {
        "name": "市営南住吉第６住宅１号館",
        "address": "大阪府大阪市住吉区南住吉2-15",
        "lng": 135.502921,
        "lat": 34.6075,
        "h": 17
      },
      {
        "name": "市営南住吉第８住宅１号館",
        "address": "大阪府大阪市住吉区南住吉2-19",
        "lng": 135.501836,
        "lat": 34.609009,
        "h": 17
      },
      {
        "name": "南住吉第７住宅１号館",
        "address": "大阪府大阪市住吉区南住吉2-20",
        "lng": 135.501744,
        "lat": 34.608436,
        "h": 17
      },
      {
        "name": "沢之町公園一帯",
        "address": "大阪府大阪市住吉区南住吉3",
        "lng": 135.501943,
        "lat": 34.604088,
        "h": 56
      },
      {
        "name": "沢之町公園",
        "address": "大阪府大阪市住吉区南住吉3-15",
        "lng": 135.501933,
        "lat": 34.604443,
        "h": 24
      },
      {
        "name": "南住吉小学校（運動場）",
        "address": "大阪府大阪市住吉区南住吉3-5-1",
        "lng": 135.503239,
        "lat": 34.604531,
        "h": 24
      },
      {
        "name": "南住吉小学校",
        "address": "大阪府大阪市住吉区南住吉3-5-1",
        "lng": 135.503688,
        "lat": 34.604667,
        "h": 17
      },
      {
        "name": "市営南住吉第４住宅１号館",
        "address": "大阪府大阪市住吉区南住吉3-7",
        "lng": 135.504784,
        "lat": 34.605392,
        "h": 17
      },
      {
        "name": "市営南住吉第１住宅２号館",
        "address": "大阪府大阪市住吉区南住吉4-10",
        "lng": 135.502065,
        "lat": 34.601741,
        "h": 17
      },
      {
        "name": "市営南住吉第１住宅３号館",
        "address": "大阪府大阪市住吉区南住吉4-13",
        "lng": 135.500595,
        "lat": 34.601741,
        "h": 17
      },
      {
        "name": "市営南住吉第１住宅１号館",
        "address": "大阪府大阪市住吉区南住吉4-4",
        "lng": 135.503089,
        "lat": 34.602156,
        "h": 17
      },
      {
        "name": "市営南住吉第１住宅５号館",
        "address": "大阪府大阪市住吉区南住吉4-9",
        "lng": 135.502001,
        "lat": 34.602139,
        "h": 17
      },
      {
        "name": "墨江小学校（運動場）",
        "address": "大阪府大阪市住吉区墨江2-3-46",
        "lng": 135.496273,
        "lat": 34.608162,
        "h": 24
      },
      {
        "name": "墨江小学校",
        "address": "大阪府大阪市住吉区墨江2-3-46",
        "lng": 135.495917,
        "lat": 34.608342,
        "h": 17
      },
      {
        "name": "清明学院高等学校（運動場）",
        "address": "大阪府大阪市住吉区墨江2-4-4",
        "lng": 135.4945,
        "lat": 34.607302,
        "h": 24
      },
      {
        "name": "墨江丘中学校",
        "address": "大阪府大阪市住吉区墨江4-15-34",
        "lng": 135.49445,
        "lat": 34.606113,
        "h": 17
      },
      {
        "name": "墨江丘中学校（運動場）",
        "address": "大阪府大阪市住吉区墨江4-15-34",
        "lng": 135.494655,
        "lat": 34.606512,
        "h": 24
      },
      {
        "name": "市営万代住宅１号館",
        "address": "大阪府大阪市住吉区万代2-9",
        "lng": 135.504487,
        "lat": 34.621401,
        "h": 17
      },
      {
        "name": "万代池公園",
        "address": "大阪府大阪市住吉区万代3-7",
        "lng": 135.503515,
        "lat": 34.62028,
        "h": 24
      },
      {
        "name": "市営住吉住宅１７号館",
        "address": "大阪府大阪市住吉区万代6-7",
        "lng": 135.499402,
        "lat": 34.614319,
        "h": 17
      },
      {
        "name": "万代東公園",
        "address": "大阪府大阪市住吉区万代東1-1",
        "lng": 135.507861,
        "lat": 34.621638,
        "h": 24
      },
      {
        "name": "万領中央公園",
        "address": "大阪府大阪市住吉区万代東3-1",
        "lng": 135.504358,
        "lat": 34.616692,
        "h": 24
      },
      {
        "name": "南万領公園",
        "address": "大阪府大阪市住吉区万代東4-2",
        "lng": 135.503295,
        "lat": 34.613152,
        "h": 24
      },
      {
        "name": "安立北公園",
        "address": "大阪府大阪市住之江区安立1-10",
        "lng": 135.49003,
        "lat": 34.607474,
        "h": 8
      },
      {
        "name": "グランコート住ノ江",
        "address": "大阪府大阪市住之江区安立1-11-25",
        "lng": 135.489311,
        "lat": 34.607082,
        "h": 17
      },
      {
        "name": "霰松原公園",
        "address": "大阪府大阪市住之江区安立2-11",
        "lng": 135.488681,
        "lat": 34.604327,
        "h": 8
      },
      {
        "name": "安立南公園",
        "address": "大阪府大阪市住之江区安立3-8",
        "lng": 135.487536,
        "lat": 34.601576,
        "h": 8
      },
      {
        "name": "ソレイユあんりゅう・なかのクリニック",
        "address": "大阪府大阪市住之江区安立4-4-15",
        "lng": 135.486986,
        "lat": 34.599915,
        "h": 17
      },
      {
        "name": "御崎北公園",
        "address": "大阪府大阪市住之江区御崎1-8",
        "lng": 135.482162,
        "lat": 34.611412,
        "h": 8
      },
      {
        "name": "市営御崎住宅８号館",
        "address": "大阪府大阪市住之江区御崎2-14",
        "lng": 135.477909,
        "lat": 34.611493,
        "h": 17
      },
      {
        "name": "真住中学校（運動場）",
        "address": "大阪府大阪市住之江区御崎2-2-32",
        "lng": 135.478709,
        "lat": 34.613008,
        "h": 8
      },
      {
        "name": "真住中学校",
        "address": "大阪府大阪市住之江区御崎2-2-32",
        "lng": 135.477796,
        "lat": 34.613281,
        "h": 17
      },
      {
        "name": "市営御崎住宅１０号館",
        "address": "大阪府大阪市住之江区御崎2-8",
        "lng": 135.477803,
        "lat": 34.612486,
        "h": 17
      },
      {
        "name": "御崎東公園",
        "address": "大阪府大阪市住之江区御崎3-3",
        "lng": 135.480947,
        "lat": 34.61039,
        "h": 8
      },
      {
        "name": "市営御崎住宅１号館",
        "address": "大阪府大阪市住之江区御崎4-10",
        "lng": 135.477939,
        "lat": 34.609169,
        "h": 17
      },
      {
        "name": "市営御崎住宅４号館",
        "address": "大阪府大阪市住之江区御崎4-11",
        "lng": 135.476944,
        "lat": 34.609408,
        "h": 17
      },
      {
        "name": "住之江区在宅サービスセンターさざなみ",
        "address": "大阪府大阪市住之江区御崎4-6-10",
        "lng": 135.479945,
        "lat": 34.609252,
        "h": 17
      },
      {
        "name": "住之江小学校（運動場）",
        "address": "大阪府大阪市住之江区御崎4-6-43",
        "lng": 135.479556,
        "lat": 34.609699,
        "h": 8
      },
      {
        "name": "住之江小学校",
        "address": "大阪府大阪市住之江区御崎4-6-43",
        "lng": 135.47924,
        "lat": 34.609933,
        "h": 17
      },
      {
        "name": "市営御崎住宅５号館",
        "address": "大阪府大阪市住之江区御崎4-9",
        "lng": 135.477288,
        "lat": 34.609828,
        "h": 17
      },
      {
        "name": "御崎中公園",
        "address": "大阪府大阪市住之江区御崎5-1",
        "lng": 135.483056,
        "lat": 34.608677,
        "h": 8
      },
      {
        "name": "市営敷津浦住宅１号館",
        "address": "大阪府大阪市住之江区御崎5-7",
        "lng": 135.480671,
        "lat": 34.608633,
        "h": 17
      },
      {
        "name": "清江小学校（運動場）",
        "address": "大阪府大阪市住之江区御崎5-7-18",
        "lng": 135.480778,
        "lat": 34.608023,
        "h": 8
      },
      {
        "name": "清江小学校",
        "address": "大阪府大阪市住之江区御崎5-7-18",
        "lng": 135.480431,
        "lat": 34.60796,
        "h": 17
      },
      {
        "name": "市営御崎第２住宅１号館",
        "address": "大阪府大阪市住之江区御崎6-7",
        "lng": 135.479654,
        "lat": 34.607757,
        "h": 17
      },
      {
        "name": "市営敷津浦第２住宅１号館",
        "address": "大阪府大阪市住之江区御崎7-1",
        "lng": 135.482822,
        "lat": 34.605625,
        "h": 17
      },
      {
        "name": "住吉商業高等学校（運動場）",
        "address": "大阪府大阪市住之江区御崎7-12-55",
        "lng": 135.481023,
        "lat": 34.603738,
        "h": 8
      },
      {
        "name": "住吉商業高等学校",
        "address": "大阪府大阪市住之江区御崎7-12-55",
        "lng": 135.479755,
        "lat": 34.604011,
        "h": 17
      },
      {
        "name": "敷津浦東公園",
        "address": "大阪府大阪市住之江区御崎7-15",
        "lng": 135.479712,
        "lat": 34.60313,
        "h": 8
      },
      {
        "name": "御崎南公園",
        "address": "大阪府大阪市住之江区御崎7-3",
        "lng": 135.481256,
        "lat": 34.605423,
        "h": 8
      },
      {
        "name": "住之江中学校",
        "address": "大阪府大阪市住之江区御崎8-1-6",
        "lng": 135.478401,
        "lat": 34.605838,
        "h": 17
      },
      {
        "name": "住之江中学校（運動場）",
        "address": "大阪府大阪市住之江区御崎8-1-6",
        "lng": 135.47785,
        "lat": 34.605913,
        "h": 8
      },
      {
        "name": "ヤマト運輸（株）大阪主管支店",
        "address": "大阪府大阪市住之江区柴谷1-2-70",
        "lng": 135.464253,
        "lat": 34.621042,
        "h": 17
      },
      {
        "name": "市営柴谷住宅３号棟",
        "address": "大阪府大阪市住之江区柴谷2-1",
        "lng": 135.468889,
        "lat": 34.618828,
        "h": 17
      },
      {
        "name": "市営柴谷住宅２号棟",
        "address": "大阪府大阪市住之江区柴谷2-1",
        "lng": 135.468975,
        "lat": 34.61942,
        "h": 17
      },
      {
        "name": "市営柴谷住宅１号棟",
        "address": "大阪府大阪市住之江区柴谷2-1",
        "lng": 135.468991,
        "lat": 34.619782,
        "h": 17
      },
      {
        "name": "柴谷公園",
        "address": "大阪府大阪市住之江区柴谷2-7",
        "lng": 135.46616,
        "lat": 34.617719,
        "h": 8
      },
      {
        "name": "ＧＬＰ大阪Ⅱ",
        "address": "大阪府大阪市住之江区柴谷2-8-76",
        "lng": 135.467718,
        "lat": 34.615992,
        "h": 17
      },
      {
        "name": "安立小学校（運動場）",
        "address": "大阪府大阪市住之江区住之江1-4-29",
        "lng": 135.487958,
        "lat": 34.605095,
        "h": 8
      },
      {
        "name": "安立小学校",
        "address": "大阪府大阪市住之江区住之江1-4-29",
        "lng": 135.488243,
        "lat": 34.60441,
        "h": 17
      },
      {
        "name": "ラ・メール",
        "address": "大阪府大阪市住之江区住之江1-4-36",
        "lng": 135.487096,
        "lat": 34.604233,
        "h": 17
      },
      {
        "name": "ロイヤル住之江",
        "address": "大阪府大阪市住之江区住之江1-4-47",
        "lng": 135.487389,
        "lat": 34.605379,
        "h": 17
      },
      {
        "name": "ロイヤル安立",
        "address": "大阪府大阪市住之江区住之江2-10-17",
        "lng": 135.486695,
        "lat": 34.601328,
        "h": 17
      },
      {
        "name": "アクシスコート住之江",
        "address": "大阪府大阪市住之江区住之江2-3-18",
        "lng": 135.486814,
        "lat": 34.603532,
        "h": 17
      },
      {
        "name": "ミシェール住之江",
        "address": "大阪府大阪市住之江区住之江2-7-11",
        "lng": 135.486324,
        "lat": 34.60267,
        "h": 17
      },
      {
        "name": "市営住之江住宅１号棟",
        "address": "大阪府大阪市住之江区住之江3-11",
        "lng": 135.485623,
        "lat": 34.599092,
        "h": 17
      },
      {
        "name": "市営住之江住宅２号棟",
        "address": "大阪府大阪市住之江区住之江3-12",
        "lng": 135.48528,
        "lat": 34.598686,
        "h": 17
      },
      {
        "name": "市営住之江住宅３号棟",
        "address": "大阪府大阪市住之江区住之江3-14",
        "lng": 135.485151,
        "lat": 34.598341,
        "h": 17
      },
      {
        "name": "安住公園",
        "address": "大阪府大阪市住之江区住之江3-17",
        "lng": 135.484889,
        "lat": 34.597815,
        "h": 8
      },
      {
        "name": "アジア太平洋トレードセンター",
        "address": "大阪府大阪市住之江区住之江区南港北2-1-10",
        "lng": 135.413063,
        "lat": 34.637365,
        "h": 17
      },
      {
        "name": "新北島南公園",
        "address": "大阪府大阪市住之江区新北島2-3",
        "lng": 135.471151,
        "lat": 34.603733,
        "h": 8
      },
      {
        "name": "新北島東公園",
        "address": "大阪府大阪市住之江区新北島3-5",
        "lng": 135.469727,
        "lat": 34.606872,
        "h": 8
      },
      {
        "name": "新北島中公園",
        "address": "大阪府大阪市住之江区新北島3-7",
        "lng": 135.466401,
        "lat": 34.607338,
        "h": 8
      },
      {
        "name": "市営新北島住宅２号館",
        "address": "大阪府大阪市住之江区新北島4-1",
        "lng": 135.467559,
        "lat": 34.605211,
        "h": 17
      },
      {
        "name": "市営新北島住宅１号館",
        "address": "大阪府大阪市住之江区新北島4-1",
        "lng": 135.468859,
        "lat": 34.60486,
        "h": 17
      },
      {
        "name": "新北島会館南公園",
        "address": "大阪府大阪市住之江区新北島5-3",
        "lng": 135.462867,
        "lat": 34.607439,
        "h": 8
      },
      {
        "name": "サニーコットン住之江",
        "address": "大阪府大阪市住之江区新北島6-1-5",
        "lng": 135.464334,
        "lat": 34.605982,
        "h": 17
      },
      {
        "name": "新北島小学校（運動場）",
        "address": "大阪府大阪市住之江区新北島6-2-56",
        "lng": 135.462944,
        "lat": 34.605682,
        "h": 8
      },
      {
        "name": "新北島小学校",
        "address": "大阪府大阪市住之江区新北島6-2-56",
        "lng": 135.463693,
        "lat": 34.605576,
        "h": 17
      },
      {
        "name": "新北島西公園",
        "address": "大阪府大阪市住之江区新北島7-3",
        "lng": 135.460615,
        "lat": 34.609312,
        "h": 8
      },
      {
        "name": "大和川北公園",
        "address": "大阪府大阪市住之江区新北島8-1",
        "lng": 135.460963,
        "lat": 34.607032,
        "h": 8
      },
      {
        "name": "市営新北島第２住宅１号館",
        "address": "大阪府大阪市住之江区新北島8-2",
        "lng": 135.460812,
        "lat": 34.606148,
        "h": 17
      },
      {
        "name": "新北島中学校",
        "address": "大阪府大阪市住之江区新北島8-2-46",
        "lng": 135.459839,
        "lat": 34.607042,
        "h": 17
      },
      {
        "name": "新北島中学校（運動場）",
        "address": "大阪府大阪市住之江区新北島8-2-46",
        "lng": 135.459709,
        "lat": 34.606729,
        "h": 8
      },
      {
        "name": "市営中加賀屋住宅８号館",
        "address": "大阪府大阪市住之江区西加賀屋1-3",
        "lng": 135.47839,
        "lat": 34.619991,
        "h": 17
      },
      {
        "name": "加賀屋中学校（運動場）",
        "address": "大阪府大阪市住之江区西加賀屋2-9-20",
        "lng": 135.476766,
        "lat": 34.619216,
        "h": 8
      },
      {
        "name": "加賀屋中学校",
        "address": "大阪府大阪市住之江区西加賀屋2-9-20",
        "lng": 135.476142,
        "lat": 34.619388,
        "h": 17
      },
      {
        "name": "ハイネス住之江公園",
        "address": "大阪府大阪市住之江区西加賀屋3-19-4",
        "lng": 135.474434,
        "lat": 34.616624,
        "h": 17
      },
      {
        "name": "シャルマンハイツ",
        "address": "大阪府大阪市住之江区西加賀屋3-4-1",
        "lng": 135.47793,
        "lat": 34.616135,
        "h": 17
      },
      {
        "name": "西加賀屋公園",
        "address": "大阪府大阪市住之江区西加賀屋3-8",
        "lng": 135.476537,
        "lat": 34.616213,
        "h": 8
      },