{
  "25201": {
    "source": "国土地理院「指定緊急避難場所データ」",
    "asOf": "2026-06-19",
    "sites": [
      {
        "name": "滋賀県立県民交流センター（ピアザ淡海）",
        "address": "滋賀県大津市におの浜1-1-20",
        "lng": 135.878526,
        "lat": 35.006639,
        "h": 74
      },
      {
        "name": "県立体育館",
        "address": "滋賀県大津市におの浜4-2-12",
        "lng": 135.887411,
        "lat": 35.004991,
        "h": 74
      },
      {
        "name": "県立武道館",
        "address": "滋賀県大津市におの浜4-2-15",
        "lng": 135.886355,
        "lat": 35.005294,
        "h": 74
      },
      {
        "name": "東レスタジアム",
        "address": "滋賀県大津市粟津町13",
        "lng": 135.899237,
        "lat": 34.977775,
        "h": 75
      },
      {
        "name": "伊香立児童クラブ",
        "address": "滋賀県大津市伊香立下在地町1222-1",
        "lng": 135.873728,
        "lat": 35.143382,
        "h": 75
      },
      {
        "name": "伊香立環境交流館",
        "address": "滋賀県大津市伊香立下在地町1222-1",
        "lng": 135.873878,
        "lat": 35.143461,
        "h": 75
      },
      {
        "name": "伊香立中学校グラウンド",
        "address": "滋賀県大津市伊香立下在地町414",
        "lng": 135.879086,
        "lat": 35.149679,
        "h": 75
      },
      {
        "name": "伊香立中学校体育館",
        "address": "滋賀県大津市伊香立下在地町414",
        "lng": 135.878319,
        "lat": 35.149543,
        "h": 75
      },
      {
        "name": "伊香立保育園グラウンド",
        "address": "滋賀県大津市伊香立下龍華町566",
        "lng": 135.892887,
        "lat": 35.152993,
        "h": 73
      },
      {
        "name": "伊香立児童館",
        "address": "滋賀県大津市伊香立下龍華町584-157",
        "lng": 135.89405,
        "lat": 35.149966,
        "h": 75
      },
      {
        "name": "伊香立ふれあいセンター",
        "address": "滋賀県大津市伊香立下龍華町584-157",
        "lng": 135.893777,
        "lat": 35.15022,
        "h": 75
      },
      {
        "name": "伊香立小学校グラウンド",
        "address": "滋賀県大津市伊香立生津町132-1",
        "lng": 135.871732,
        "lat": 35.142726,
        "h": 75
      },
      {
        "name": "伊香立小学校体育館",
        "address": "滋賀県大津市伊香立生津町132-1",
        "lng": 135.872161,
        "lat": 35.142336,
        "h": 75
      },
      {
        "name": "伊香立市民センター",
        "address": "滋賀県大津市伊香立生津町133-1",
        "lng": 135.872606,
        "lat": 35.142261,
        "h": 75
      },
      {
        "name": "瀬田東幼稚園グラウンド",
        "address": "滋賀県大津市一里山2-20-1",
        "lng": 135.929844,
        "lat": 34.983884,
        "h": 75
      },
      {
        "name": "瀬田東幼稚園",
        "address": "滋賀県大津市一里山2-20-1",
        "lng": 135.929775,
        "lat": 34.9842,
        "h": 75
      },
      {
        "name": "瀬田東小学校グラウンド",
        "address": "滋賀県大津市一里山2-20-2",
        "lng": 135.930595,
        "lat": 34.983481,
        "h": 11
      },
      {
        "name": "瀬田東小学校体育館",
        "address": "滋賀県大津市一里山2-20-2",
        "lng": 135.930627,
        "lat": 34.982466,
        "h": 75
      },
      {
        "name": "一里山公園",
        "address": "滋賀県大津市一里山3-16",
        "lng": 135.935288,
        "lat": 34.984658,
        "h": 11
      },
      {
        "name": "一里山公園緑のふれあいセンター",
        "address": "滋賀県大津市一里山3-16-1",
        "lng": 135.934665,
        "lat": 34.985079,
        "h": 75
      },
      {
        "name": "瀬田東市民センター",
        "address": "滋賀県大津市一里山3-16-1",
        "lng": 135.934466,
        "lat": 34.984807,
        "h": 75
      },
      {
        "name": "瀬田公園",
        "address": "滋賀県大津市一里山6-9",
        "lng": 135.935338,
        "lat": 34.976461,
        "h": 43
      },
      {
        "name": "瀬田公園体育館",
        "address": "滋賀県大津市一里山6-9",
        "lng": 135.938512,
        "lat": 34.976618,
        "h": 75
      },
      {
        "name": "田上市民体育館",
        "address": "滋賀県大津市稲津1-10-18",
        "lng": 135.914563,
        "lat": 34.9469,
        "h": 67
      },
      {
        "name": "南ふれあいセンター",
        "address": "滋賀県大津市稲津1-10-20",
        "lng": 135.914837,
        "lat": 34.946939,
        "h": 67
      },
      {
        "name": "稲津南児童公園",
        "address": "滋賀県大津市稲津1-14",
        "lng": 135.913903,
        "lat": 34.946049,
        "h": 11
      },
      {
        "name": "田上児童館",
        "address": "滋賀県大津市稲津1-14-30",
        "lng": 135.913557,
        "lat": 34.946373,
        "h": 11
      },
      {
        "name": "湖南台地西児童公園",
        "address": "滋賀県大津市稲津3-18",
        "lng": 135.91804,
        "lat": 34.944103,
        "h": 75
      },
      {
        "name": "湖南台地東児童公園",
        "address": "滋賀県大津市稲津3-6",
        "lng": 135.920448,
        "lat": 34.944626,
        "h": 9
      },
      {
        "name": "羽栗公園",
        "address": "滋賀県大津市羽栗1-19",
        "lng": 135.934409,
        "lat": 34.950914,
        "h": 10
      },
      {
        "name": "園山公園",
        "address": "滋賀県大津市園山2-11",
        "lng": 135.887188,
        "lat": 34.978343,
        "h": 107
      },
      {
        "name": "富士見市民センター",
        "address": "滋賀県大津市園山2-15-33",
        "lng": 135.886039,
        "lat": 34.98061,
        "h": 75
      },
      {
        "name": "藤尾市民センター",
        "address": "滋賀県大津市横木2-4-1",
        "lng": 135.832877,
        "lat": 34.993044,
        "h": 75
      },
      {
        "name": "逢坂小学校体育館",
        "address": "滋賀県大津市音羽台6-1",
        "lng": 135.864381,
        "lat": 35.001912,
        "h": 75
      },
      {
        "name": "逢坂小学校グラウンド",
        "address": "滋賀県大津市音羽台6-1",
        "lng": 135.865234,
        "lat": 35.001425,
        "h": 11
      },
      {
        "name": "逢坂幼稚園",
        "address": "滋賀県大津市音羽台6-2",
        "lng": 135.863797,
        "lat": 35.001955,
        "h": 75
      },
      {
        "name": "逢坂幼稚園グラウンド",
        "address": "滋賀県大津市音羽台6-2",
        "lng": 135.863953,
        "lat": 35.001806,
        "h": 75
      },
      {
        "name": "逢坂保育園グラウンド",
        "address": "滋賀県大津市音羽台6-20",
        "lng": 135.865938,
        "lat": 35.001415,
        "h": 11
      },
      {
        "name": "下阪本市民センター",
        "address": "滋賀県大津市下阪本3-14-30",
        "lng": 135.876223,
        "lat": 35.062361,
        "h": 75
      },
      {
        "name": "下阪本小学校グラウンド",
        "address": "滋賀県大津市下阪本4-10-1",
        "lng": 135.876641,
        "lat": 35.0632,
        "h": 11
      },
      {
        "name": "下阪本小学校体育館",
        "address": "滋賀県大津市下阪本4-10-1",
        "lng": 135.877092,
        "lat": 35.062822,
        "h": 75
      },
      {
        "name": "下阪本幼稚園グラウンド",
        "address": "滋賀県大津市下阪本4-15-12",
        "lng": 135.876562,
        "lat": 35.064658,
        "h": 75
      },
      {
        "name": "下阪本幼稚園",
        "address": "滋賀県大津市下阪本4-15-12",
        "lng": 135.876401,
        "lat": 35.064952,
        "h": 75
      },
      {
        "name": "新唐崎公園",
        "address": "滋賀県大津市下阪本6-2",
        "lng": 135.885266,
        "lat": 35.066181,
        "h": 10
      },
      {
        "name": "日吉中学校グラウンド",
        "address": "滋賀県大津市下阪本6-38-26",
        "lng": 135.878633,
        "lat": 35.068118,
        "h": 11
      },
      {
        "name": "日吉中学校体育館",
        "address": "滋賀県大津市下阪本6-38-26",
        "lng": 135.879115,
        "lat": 35.068737,
        "h": 75
      },
      {
        "name": "花園児童公園",
        "address": "滋賀県大津市花園町13",
        "lng": 135.915459,
        "lat": 35.138531,
        "h": 75
      },
      {
        "name": "麗湖こども園",
        "address": "滋賀県大津市花園町13-36",
        "lng": 135.916161,
        "lat": 35.138978,
        "h": 75
      },
      {
        "name": "麗湖こども園グラウンド",
        "address": "滋賀県大津市花園町13-36",
        "lng": 135.916223,
        "lat": 35.138856,
        "h": 75
      },
      {
        "name": "葛川小・中学校グラウンド",
        "address": "滋賀県大津市葛川中村町108-1",
        "lng": 135.862548,
        "lat": 35.233384,
        "h": 73
      },
      {
        "name": "葛川中学校校舎",
        "address": "滋賀県大津市葛川中村町108-1",
        "lng": 135.862594,
        "lat": 35.234127,
        "h": 75
      },
      {
        "name": "葛川小学校校舎",
        "address": "滋賀県大津市葛川中村町108-1",
        "lng": 135.862508,
        "lat": 35.233855,
        "h": 75
      },
      {
        "name": "葛川保育園",
        "address": "滋賀県大津市葛川中村町108-1",
        "lng": 135.862776,
        "lat": 35.233754,
        "h": 75
      },
      {
        "name": "葛川市民センター",
        "address": "滋賀県大津市葛川坊村町237-37",
        "lng": 135.866553,
        "lat": 35.246674,
        "h": 75
      },
      {
        "name": "葛川少年自然の家",
        "address": "滋賀県大津市葛川坊村町243",
        "lng": 135.86585,
        "lat": 35.24421,
        "h": 75
      },
      {
        "name": "志賀幼稚園グラウンド",
        "address": "滋賀県大津市勧学1-8-1",
        "lng": 135.857385,
        "lat": 35.034635,
        "h": 11
      },
      {
        "name": "志賀幼稚園",
        "address": "滋賀県大津市勧学1-8-1",
        "lng": 135.857787,
        "lat": 35.034819,
        "h": 75
      },
      {
        "name": "田上幼稚園グラウンド",
        "address": "滋賀県大津市関津6-19-8",
        "lng": 135.929783,
        "lat": 34.933895,
        "h": 75
      },
      {
        "name": "田上幼稚園",
        "address": "滋賀県大津市関津6-19-8",
        "lng": 135.929687,
        "lat": 34.934163,
        "h": 75
      },
      {
        "name": "逢坂市民センター",
        "address": "滋賀県大津市京町3-1-3",
        "lng": 135.865508,
        "lat": 35.004342,
        "h": 75
      },
      {
        "name": "旧仰木幼稚園グラウンド",
        "address": "滋賀県大津市仰木4-1-30",
        "lng": 135.880837,
        "lat": 35.10884,
        "h": 75
      },
      {
        "name": "仰木市民センター",
        "address": "滋賀県大津市仰木4-15-11",
        "lng": 135.882188,
        "lat": 35.108111,
        "h": 75
      },
      {
        "name": "仰木小学校グラウンド",
        "address": "滋賀県大津市仰木4-15-8",
        "lng": 135.882623,
        "lat": 35.108515,
        "h": 75
      },
      {
        "name": "仰木小学校体育館",
        "address": "滋賀県大津市仰木4-15-8",
        "lng": 135.881738,
        "lat": 35.108704,
        "h": 75
      },
      {
        "name": "仰木太鼓会館",
        "address": "滋賀県大津市仰木4-2-50",
        "lng": 135.880263,
        "lat": 35.108239,
        "h": 75
      },
      {
        "name": "滋賀県立北大津高校体育館",
        "address": "滋賀県大津市仰木の里1-23-1",
        "lng": 135.892826,
        "lat": 35.103009,
        "h": 75
      },
      {
        "name": "仰木西公園・北大津高校グラウンド",
        "address": "滋賀県大津市仰木の里1-28",
        "lng": 135.889356,
        "lat": 35.103004,
        "h": 107
      },
      {
        "name": "認定こども園はぐくみの家仰木星の子　駐車場",
        "address": "滋賀県大津市仰木の里1-28-1",
        "lng": 135.888004,
        "lat": 35.102288,
        "h": 75
      },
      {
        "name": "仰木の里幼稚園グラウンド",
        "address": "滋賀県大津市仰木の里3-10-1",
        "lng": 135.888276,
        "lat": 35.10559,
        "h": 75
      },
      {
        "name": "仰木の里幼稚園",
        "address": "滋賀県大津市仰木の里3-10-1",
        "lng": 135.887911,
        "lat": 35.105621,
        "h": 75
      },
      {
        "name": "仰木の里小学校グラウンド",
        "address": "滋賀県大津市仰木の里4-4-1",
        "lng": 135.891983,
        "lat": 35.106249,
        "h": 75
      },
      {
        "name": "仰木の里小学校体育館",
        "address": "滋賀県大津市仰木の里4-4-1",
        "lng": 135.891559,
        "lat": 35.107158,
        "h": 75
      },
      {
        "name": "仰木中学校グラウンド",
        "address": "滋賀県大津市仰木の里5-1-1",
        "lng": 135.890421,
        "lat": 35.107467,
        "h": 75
      },
      {
        "name": "仰木中学校体育館",
        "address": "滋賀県大津市仰木の里5-1-1",
        "lng": 135.889589,
        "lat": 35.108358,
        "h": 75
      },
      {
        "name": "仰木の里市民センター",
        "address": "滋賀県大津市仰木の里7-1-25",
        "lng": 135.894166,
        "lat": 35.10908,
        "h": 75
      },
      {
        "name": "仰木東公園",
        "address": "滋賀県大津市仰木の里東2-15",
        "lng": 135.898363,
        "lat": 35.105497,
        "h": 11
      },
      {
        "name": "せんだん保育園駐車場",
        "address": "滋賀県大津市仰木の里東2-2-5",
        "lng": 135.898958,
        "lat": 35.102457,
        "h": 75
      },
      {
        "name": "仰木の里東小学校グラウンド",
        "address": "滋賀県大津市仰木の里東6-1-1",
        "lng": 135.900747,
        "lat": 35.108552,
        "h": 11
      },
      {
        "name": "仰木の里東小学校体育館",
        "address": "滋賀県大津市仰木の里東6-1-1",
        "lng": 135.901407,
        "lat": 35.109346,
        "h": 75
      },
      {
        "name": "仰木の里東幼稚園グラウンド",
        "address": "滋賀県大津市仰木の里東6-4-1",
        "lng": 135.899606,
        "lat": 35.109149,
        "h": 75
      },
      {
        "name": "仰木の里東幼稚園",
        "address": "滋賀県大津市仰木の里東6-4-1",
        "lng": 135.899423,
        "lat": 35.109373,
        "h": 75
      },
      {
        "name": "月輪自動車教習所",
        "address": "滋賀県大津市月輪1-6-1",
        "lng": 135.931815,
        "lat": 34.989518,
        "h": 75
      },
      {
        "name": "月輪大池公園",
        "address": "滋賀県大津市月輪4-1",
        "lng": 135.946489,
        "lat": 34.979955,
        "h": 11
      },
      {
        "name": "北部地域文化センター",
        "address": "滋賀県大津市堅田2-1-11",
        "lng": 135.911359,
        "lat": 35.111943,
        "h": 75
      },
      {
        "name": "湖城が丘街区公園",
        "address": "滋賀県大津市湖城が丘33",
        "lng": 135.87957,
        "lat": 34.994372,
        "h": 75
      },
      {
        "name": "小野市民センター",
        "address": "滋賀県大津市湖青1-1-2",
        "lng": 135.922282,
        "lat": 35.141954,
        "h": 75
      },
      {
        "name": "滋賀県立大津商業高校体育館",
        "address": "滋賀県大津市御陵町2-1",
        "lng": 135.853614,
        "lat": 35.016243,
        "h": 75
      },
      {
        "name": "滋賀県立大津商業高校グラウンド",
        "address": "滋賀県大津市御陵町2-1",
        "lng": 135.854344,
        "lat": 35.015663,
        "h": 9
      },
      {
        "name": "市民文化会館",
        "address": "滋賀県大津市御陵町2-3",
        "lng": 135.852804,
        "lat": 35.015984,
        "h": 75
      },
      {
        "name": "皇子山総合運動公園",
        "address": "滋賀県大津市御陵町4",
        "lng": 135.856735,
        "lat": 35.019048,
        "h": 42
      },
      {
        "name": "県立スポーツ会館",
        "address": "滋賀県大津市御陵町4-1",
        "lng": 135.855779,
        "lat": 35.021506,
        "h": 75
      },
      {
        "name": "晴嵐小学校グラウンド",
        "address": "滋賀県大津市光が丘町4-70",
        "lng": 135.897476,
        "lat": 34.972084,
        "h": 75
      },
      {
        "name": "晴嵐小学校体育館",
        "address": "滋賀県大津市光が丘町4-70",
        "lng": 135.898313,
        "lat": 34.972084,
        "h": 75
      },
      {
        "name": "晴嵐保育園グラウンド",
        "address": "滋賀県大津市光が丘町5-10",
        "lng": 135.897491,
        "lat": 34.971294,
        "h": 75
      },
      {
        "name": "真野保育園",
        "address": "滋賀県大津市向陽町4-2",
        "lng": 135.917468,
        "lat": 35.137713,
        "h": 75
      },
      {
        "name": "皇子が丘公園",
        "address": "滋賀県大津市皇子が丘1-1",
        "lng": 135.85139,
        "lat": 35.02398,
        "h": 41
      },
      {
        "name": "皇子が丘公園体育館",
        "address": "滋賀県大津市皇子が丘1-1-1",
        "lng": 135.854544,
        "lat": 35.023846,
        "h": 75
      },
      {
        "name": "皇子が丘公園第二体育館",
        "address": "滋賀県大津市皇子が丘1-1-50",
        "lng": 135.852203,
        "lat": 35.024637,
        "h": 75
      },
      {
        "name": "皇子が丘保育園グラウンド",
        "address": "滋賀県大津市皇子が丘1-20-20",
        "lng": 135.852357,
        "lat": 35.026429,
        "h": 11
      },
      {
        "name": "木戸小学校グラウンド",
        "address": "滋賀県大津市荒川1000",
        "lng": 135.925976,
        "lat": 35.205574,
        "h": 11
      },
      {
        "name": "木戸小学校体育館",
        "address": "滋賀県大津市荒川1000",
        "lng": 135.92736,
        "lat": 35.206065,
        "h": 75
      },
      {
        "name": "志賀北幼稚園",
        "address": "滋賀県大津市荒川880",
        "lng": 135.928453,
        "lat": 35.206101,
        "h": 11
      },
      {
        "name": "滋賀県立石山高校グラウンド",
        "address": "滋賀県大津市国分1-15-1",
        "lng": 135.897244,
        "lat": 34.969355,
        "h": 75
      },
      {
        "name": "滋賀県立石山高校体育館",
        "address": "滋賀県大津市国分1-15-1",
        "lng": 135.896244,
        "lat": 34.968416,
        "h": 75
      },
      {
        "name": "南郷水産センター駐車場",
        "address": "滋賀県大津市黒津4-3",
        "lng": 135.912346,
        "lat": 34.940367,
        "h": 10
      },
      {
        "name": "唐崎保育園グラウンド",
        "address": "滋賀県大津市際川3-37-1",
        "lng": 135.865029,
        "lat": 35.043002,
        "h": 75
      },
      {
        "name": "唐崎幼稚園",
        "address": "滋賀県大津市際川3-38-2",
        "lng": 135.865423,
        "lat": 35.04358,
        "h": 67
      },
      {
        "name": "唐崎幼稚園グラウンド",
        "address": "滋賀県大津市際川3-38-2",
        "lng": 135.865595,
        "lat": 35.043496,
        "h": 11
      },
      {
        "name": "唐崎小学校グラウンド",
        "address": "滋賀県大津市際川4-7-1",
        "lng": 135.866533,
        "lat": 35.044951,
        "h": 11
      },
      {
        "name": "唐崎小学校体育館",
        "address": "滋賀県大津市際川4-7-1",
        "lng": 135.867102,
        "lat": 35.044771,
        "h": 75
      },
      {
        "name": "比叡山高等学校グラウンド",
        "address": "滋賀県大津市坂本1-2",
        "lng": 135.865326,
        "lat": 35.058233,
        "h": 75
      },
      {
        "name": "坂本小学校グラウンド",
        "address": "滋賀県大津市坂本3-12-57",
        "lng": 135.872593,
        "lat": 35.068358,
        "h": 11
      },
      {
        "name": "坂本小学校体育館",
        "address": "滋賀県大津市坂本3-12-57",
        "lng": 135.873103,
        "lat": 35.069205,
        "h": 75
      },
      {
        "name": "比叡山高等学校本館",
        "address": "滋賀県大津市坂本4-3-1",
        "lng": 135.86467,
        "lat": 35.069951,
        "h": 75
      },
      {
        "name": "比叡山中学校体育館",
        "address": "滋賀県大津市坂本4-5",
        "lng": 135.867379,
        "lat": 35.07065,
        "h": 75
      },
      {
        "name": "坂本市民運動広場",
        "address": "滋賀県大津市坂本5-16",
        "lng": 135.86944,
        "lat": 35.078124,
        "h": 73
      },
      {
        "name": "坂本市民格技場",
        "address": "滋賀県大津市坂本6-1-11",
        "lng": 135.871228,
        "lat": 35.071725,
        "h": 75
      },
      {
        "name": "坂本幼稚園グラウンド",
        "address": "滋賀県大津市坂本6-1-12",
        "lng": 135.870761,
        "lat": 35.071755,
        "h": 75
      },
      {
        "name": "坂本幼稚園",
        "address": "滋賀県大津市坂本6-1-12",
        "lng": 135.87082,
        "lat": 35.0719,
        "h": 75
      },
      {
        "name": "坂本市民センター",
        "address": "滋賀県大津市坂本6-1-12",
        "lng": 135.870772,
        "lat": 35.071408,
        "h": 75
      },
      {
        "name": "坂本市民センター前広場",
        "address": "滋賀県大津市坂本6-1-12",
        "lng": 135.871169,
        "lat": 35.071329,
        "h": 75
      },
      {
        "name": "坂本市民体育館",
        "address": "滋賀県大津市坂本6-33-19",
        "lng": 135.87472,
        "lat": 35.077087,
        "h": 67
      },
      {
        "name": "比叡ふれあいセンター",
        "address": "滋賀県大津市坂本6-33-19",
        "lng": 135.874355,
        "lat": 35.07714,
        "h": 67
      },
      {
        "name": "坂本天満宮多目的広場",
        "address": "滋賀県大津市坂本8-30",
        "lng": 135.873399,
        "lat": 35.080234,
        "h": 75
      },
      {
        "name": "長等幼稚園",
        "address": "滋賀県大津市三井寺町10-30",
        "lng": 135.8569,
        "lat": 35.011292,
        "h": 75
      },
      {
        "name": "長等幼稚園グラウンド",
        "address": "滋賀県大津市三井寺町10-30",
        "lng": 135.85691,
        "lat": 35.01101,
        "h": 75
      },
      {
        "name": "瀬田南小学校体育館",
        "address": "滋賀県大津市三大寺1-1",
        "lng": 135.91498,
        "lat": 34.974318,
        "h": 75
      },
      {
        "name": "瀬田南小学校グラウンド",
        "address": "滋賀県大津市三大寺1-1",
        "lng": 135.916107,
        "lat": 34.975584,
        "h": 75
      },
      {
        "name": "みなみっこひろば（瀬田南幼稚園・瀬田南保育園）グラウンド",
        "address": "滋賀県大津市三大寺1-3",
        "lng": 135.915637,
        "lat": 34.974479,
        "h": 75
      },
      {
        "name": "みなみっこひろば（瀬田南幼稚園・瀬田南保育園）",
        "address": "滋賀県大津市三大寺1-3",
        "lng": 135.915608,
        "lat": 34.974573,
        "h": 75
      },
      {
        "name": "山中市民運動広場",
        "address": "滋賀県大津市山中町1-12",
        "lng": 135.822687,
        "lat": 35.039322,
        "h": 73
      },
      {
        "name": "山中会館",
        "address": "滋賀県大津市山中町1-12",
        "lng": 135.822698,
        "lat": 35.039538,
        "h": 67
      },
      {
        "name": "伊香立公園",
        "address": "滋賀県大津市山百合の丘4-1",
        "lng": 135.88443,
        "lat": 35.137474,
        "h": 107
      },
      {
        "name": "田上公園多目的グラウンド",
        "address": "滋賀県大津市枝3-1",
        "lng": 135.934354,
        "lat": 34.93861,
        "h": 11
      },
      {
        "name": "埋蔵文化財調査センター",
        "address": "滋賀県大津市滋賀里1-17-23",
        "lng": 135.855659,
        "lat": 35.043255,
        "h": 75
      },
      {
        "name": "滋賀里交流センター",
        "address": "滋賀県大津市滋賀里1-9-11",
        "lng": 135.858018,
        "lat": 35.043905,
        "h": 75
      },
      {
        "name": "若葉台公園",
        "address": "滋賀県大津市若葉台28",
        "lng": 135.879277,
        "lat": 34.975044,
        "h": 107
      },
      {
        "name": "茶臼山公園",
        "address": "滋賀県大津市秋葉台34",
        "lng": 135.882828,
        "lat": 34.989343,
        "h": 107
      },
      {
        "name": "比良ゴルフ場",
        "address": "滋賀県大津市小野1611",
        "lng": 135.91381,
        "lat": 35.149113,
        "h": 107
      },
      {
        "name": "滋賀大学教育学部附属学校グラウンド",
        "address": "滋賀県大津市昭和町10-3",
        "lng": 135.885633,
        "lat": 34.998494,
        "h": 11
      },
      {
        "name": "膳所児童館",
        "address": "滋賀県大津市昭和町15-15",
        "lng": 135.887818,
        "lat": 34.998139,
        "h": 67
      },
      {
        "name": "膳所ふれあいセンター",
        "address": "滋賀県大津市昭和町15-25",
        "lng": 135.887529,
        "lat": 34.99821,
        "h": 75
      },
      {
        "name": "膳所保育園グラウンド",
        "address": "滋賀県大津市昭和町17-32",
        "lng": 135.888398,
        "lat": 34.998522,
        "h": 11
      },
      {
        "name": "滋賀アリーナ（屋外駐車場、多目的広場）",
        "address": "滋賀県大津市上田上中野町779",
        "lng": 135.950071,
        "lat": 34.970568,
        "h": 107
      },
      {
        "name": "田上中学校グラウンド",
        "address": "滋賀県大津市新免1-1-12",
        "lng": 135.948893,
        "lat": 34.94937,
        "h": 10
      },
      {
        "name": "田上中学校体育館",
        "address": "滋賀県大津市新免1-1-12",
        "lng": 135.949869,
        "lat": 34.949863,
        "h": 10
      },
      {
        "name": "真野小学校グラウンド",
        "address": "滋賀県大津市真野4-6-17",
        "lng": 135.912785,
        "lat": 35.132077,
        "h": 75
      },
      {
        "name": "真野小学校体育館",
        "address": "滋賀県大津市真野4-6-17",
        "lng": 135.912141,
        "lat": 35.132761,
        "h": 75
      },
      {
        "name": "真野市民センター",
        "address": "滋賀県大津市真野4-6-2",
        "lng": 135.912736,
        "lat": 35.131519,
        "h": 75
      },
      {
        "name": "真野幼稚園",
        "address": "滋賀県大津市真野4-6-27",
        "lng": 135.912227,
        "lat": 35.133288,
        "h": 75
      },
      {
        "name": "真野幼稚園グラウンド",
        "address": "滋賀県大津市真野4-6-27",
        "lng": 135.912275,
        "lat": 35.133494,
        "h": 75
      },
      {
        "name": "滋賀県立瀬田工業高校グラウンド",
        "address": "滋賀県大津市神領3-18-1",
        "lng": 135.912107,
        "lat": 34.970079,
        "h": 75
      },
      {
        "name": "滋賀県立瀬田工業高校体育館",
        "address": "滋賀県大津市神領3-18-1",
        "lng": 135.913145,
        "lat": 34.970463,
        "h": 75
      },
      {
        "name": "瀬田南市民センター",
        "address": "滋賀県大津市神領3-8-9",
        "lng": 135.914175,
        "lat": 34.971245,
        "h": 75
      },
      {
        "name": "小野小学校体育館",
        "address": "滋賀県大津市水明1-34-2",
        "lng": 135.918849,
        "lat": 35.146224,
        "h": 75
      },
      {
        "name": "小野小学校グラウンド",
        "address": "滋賀県大津市水明1-34-2",
        "lng": 135.919691,
        "lat": 35.146404,
        "h": 75
      },
      {
        "name": "唐橋公園",
        "address": "滋賀県大津市瀬田1",
        "lng": 135.908414,
        "lat": 34.977226,
        "h": 10
      },
      {
        "name": "滋賀県立東大津高校体育館",
        "address": "滋賀県大津市瀬田南大萱町1732-2",
        "lng": 135.94659,
        "lat": 34.972006,
        "h": 75
      },
      {
        "name": "滋賀県立東大津高校グラウンド",
        "address": "滋賀県大津市瀬田南大萱町1732-2",
        "lng": 135.945281,
        "lat": 34.972241,
        "h": 75
      },
      {
        "name": "びわこ文化公園",
        "address": "滋賀県大津市瀬田南大萱町1740-1",
        "lng": 135.942526,
        "lat": 34.971336,
        "h": 107
      },
      {
        "name": "粟津中学校体育館",
        "address": "滋賀県大津市晴嵐1-20-20",
        "lng": 135.899712,
        "lat": 34.984815,
        "h": 75
      },
      {
        "name": "粟津中学校グラウンド",
        "address": "滋賀県大津市晴嵐1-20-20",
        "lng": 135.900908,
        "lat": 34.984627,
        "h": 10
      },
      {
        "name": "真野中学校体育館",
        "address": "滋賀県大津市清風町24-1",
        "lng": 135.904181,
        "lat": 35.141067,
        "h": 75
      },
      {
        "name": "真野中学校グラウンド",
        "address": "滋賀県大津市清風町24-1",
        "lng": 135.90535,
        "lat": 35.14069,
        "h": 75
      },
      {
        "name": "まんだら公園",
        "address": "滋賀県大津市清風町6",
        "lng": 135.908837,
        "lat": 35.141088,
        "h": 11
      },
      {
        "name": "清和公園",
        "address": "滋賀県大津市清和町16",
        "lng": 135.904787,
        "lat": 35.145034,
        "h": 75
      },
      {
        "name": "青山小学校体育館",
        "address": "滋賀県大津市青山3-16-1",
        "lng": 135.974443,
        "lat": 34.981079,
        "h": 75
      },
      {
        "name": "青山小学校グラウンド",
        "address": "滋賀県大津市青山3-16-1",
        "lng": 135.974717,
        "lat": 34.980161,
        "h": 11
      },
      {
        "name": "青山幼稚園",
        "address": "滋賀県大津市青山3-16-2",
        "lng": 135.974211,
        "lat": 34.97958,
        "h": 75
      },
      {
        "name": "青山幼稚園グラウンド",
        "address": "滋賀県大津市青山3-16-2",
        "lng": 135.974302,
        "lat": 34.97932,
        "h": 75
      },
      {
        "name": "青山市民センター",
        "address": "滋賀県大津市青山5-13-36",
        "lng": 135.969393,
        "lat": 34.977397,
        "h": 75
      },
      {
        "name": "青山中学校グラウンド",
        "address": "滋賀県大津市青山8-24-1",
        "lng": 135.972382,
        "lat": 34.97274,
        "h": 75
      },
      {
        "name": "青山中学校体育館",
        "address": "滋賀県大津市青山8-24-1",
        "lng": 135.972221,
        "lat": 34.973953,
        "h": 75
      },
      {
        "name": "石山市民体育館",
        "address": "滋賀県大津市石山寺3-10-35",
        "lng": 135.908667,
        "lat": 34.956106,
        "h": 75
      },
      {
        "name": "石山小学校グラウンド",
        "address": "滋賀県大津市石山寺3-11-20",
        "lng": 135.908742,
        "lat": 34.95521,
        "h": 11
      },
      {
        "name": "石山小学校体育館",
        "address": "滋賀県大津市石山寺3-11-20",
        "lng": 135.909488,
        "lat": 34.955632,
        "h": 75
      },
      {
        "name": "石山市民センター",
        "address": "滋賀県大津市石山寺3-15-15",
        "lng": 135.90834,
        "lat": 34.95408,
        "h": 75
      },
      {
        "name": "石山幼稚園",
        "address": "滋賀県大津市石山寺3-17-8",
        "lng": 135.907462,
        "lat": 34.95421,
        "h": 67
      },
      {
        "name": "石山幼稚園グラウンド",
        "address": "滋賀県大津市石山寺3-17-8",
        "lng": 135.907629,
        "lat": 34.954017,
        "h": 11
      },
      {
        "name": "石山公園（石山寺駐車場含む）",
        "address": "滋賀県大津市石山寺3-2",
        "lng": 135.908952,
        "lat": 34.960034,
        "h": 11
      },
      {
        "name": "旧市立大津市民病院　付属看護専門学校",
        "address": "滋賀県大津市石場10-53",
        "lng": 135.877046,
        "lat": 35.00222,
        "h": 75
      },
      {
        "name": "南郷中学校体育館",
        "address": "滋賀県大津市赤尾町57-1",
        "lng": 135.893682,
        "lat": 34.940279,
        "h": 75
      },
      {
        "name": "南郷中学校グラウンド",
        "address": "滋賀県大津市赤尾町57-1",
        "lng": 135.89483,
        "lat": 34.940068,
        "h": 11
      },
      {
        "name": "滋賀県立膳所高校体育館",
        "address": "滋賀県大津市膳所2-11-1",
        "lng": 135.889431,
        "lat": 34.99645,
        "h": 11
      },
      {
        "name": "滋賀県立膳所高校グラウンド",
        "address": "滋賀県大津市膳所2-11-1",
        "lng": 135.890035,
        "lat": 34.997012,
        "h": 11
      },
      {
        "name": "滋賀県立膳所高校第２グラウンド",
        "address": "滋賀県大津市相模町4",
        "lng": 135.886937,
        "lat": 34.994989,
        "h": 11
      },
      {
        "name": "勤労福祉センター",
        "address": "滋賀県大津市打出浜1-6",
        "lng": 135.875162,
        "lat": 35.006844,
        "h": 74
      },
      {
        "name": "大津湖岸なぎさ公園打出の森",
        "address": "滋賀県大津市打出浜15",
        "lng": 135.875688,
        "lat": 35.007591,
        "h": 74
      },
      {
        "name": "滋賀県立芸術劇場びわ湖ホール",
        "address": "滋賀県大津市打出浜15-1",
        "lng": 135.876886,
        "lat": 35.006967,
        "h": 10
      },
      {
        "name": "瀬田市民センター",
        "address": "滋賀県大津市大江3-2-1",
        "lng": 135.919841,
        "lat": 34.981418,
        "h": 75
      },
      {
        "name": "瀬田小学校グラウンド",
        "address": "滋賀県大津市大江4-2-1",
        "lng": 135.921584,
        "lat": 34.981396,
        "h": 11
      },
      {
        "name": "瀬田小学校体育館",
        "address": "滋賀県大津市大江4-2-1",
        "lng": 135.921,
        "lat": 34.981919,
        "h": 75
      },
      {
        "name": "瀬田幼稚園グラウンド",
        "address": "滋賀県大津市大江4-3-6",
        "lng": 135.921246,
        "lat": 34.982407,
        "h": 75
      },
      {
        "name": "瀬田幼稚園",
        "address": "滋賀県大津市大江4-3-6",
        "lng": 135.921085,
        "lat": 34.982578,
        "h": 75
      },
      {
        "name": "瀬田中学校体育館",
        "address": "滋賀県大津市大江7-1-1",
        "lng": 135.928995,
        "lat": 34.977501,
        "h": 75
      },
      {
        "name": "瀬田中学校グラウンド",
        "address": "滋賀県大津市大江7-1-1",
        "lng": 135.927965,
        "lat": 34.977176,
        "h": 11
      },
      {
        "name": "瀬田北中学校体育館",
        "address": "滋賀県大津市大将軍1-13-1",
        "lng": 135.922965,
        "lat": 34.99248,
        "h": 75
      },
      {
        "name": "瀬田北中学校グラウンド",
        "address": "滋賀県大津市大将軍1-13-1",
        "lng": 135.923035,
        "lat": 34.99154,
        "h": 75
      },
      {
        "name": "瀬田北幼稚園グラウンド",
        "address": "滋賀県大津市大将軍1-14-1",
        "lng": 135.923855,
        "lat": 34.990905,
        "h": 75
      },
      {
        "name": "瀬田北幼稚園",
        "address": "滋賀県大津市大将軍1-14-1",
        "lng": 135.924123,
        "lat": 34.991111,
        "h": 75
      },
      {
        "name": "瀬田北市民センター",
        "address": "滋賀県大津市大将軍1-14-30",
        "lng": 135.924349,
        "lat": 34.991373,
        "h": 75
      },
      {
        "name": "瀬田北小学校グラウンド",
        "address": "滋賀県大津市大将軍1-14-5",
        "lng": 135.925041,
        "lat": 34.991676,
        "h": 75
      },
      {
        "name": "瀬田北小学校体育館",
        "address": "滋賀県大津市大将軍1-14-5",
        "lng": 135.925937,
        "lat": 34.992036,
        "h": 75
      },
      {
        "name": "大石市民センター",
        "address": "滋賀県大津市大石中1-1-1",
        "lng": 135.913746,
        "lat": 34.911317,
        "h": 75
      },
      {
        "name": "大石幼稚園",
        "address": "滋賀県大津市大石中1-5-9",
        "lng": 135.912055,
        "lat": 34.910403,
        "h": 75
      },
      {
        "name": "大石幼稚園グラウンド",
        "address": "滋賀県大津市大石中1-5-9",
        "lng": 135.912119,
        "lat": 34.910157,
        "h": 75
      },
      {
        "name": "大石小学校体育館",
        "address": "滋賀県大津市大石東7-4-1",
        "lng": 135.915477,
        "lat": 34.911076,
        "h": 75
      },
      {
        "name": "大石小学校グラウンド",
        "address": "滋賀県大津市大石東7-4-1",
        "lng": 135.914823,
        "lat": 34.91083,
        "h": 11
      },
      {
        "name": "大石緑地グラウンド",
        "address": "滋賀県大津市大石淀1",
        "lng": 135.907291,
        "lat": 34.909624,
        "h": 11
      },
      {
        "name": "市営大谷団地一帯",
        "address": "滋賀県大津市大谷町6",
        "lng": 135.855298,
        "lat": 34.999749,
        "h": 73
      },
      {
        "name": "滋賀県立大津清陵高校体育館",
        "address": "滋賀県大津市大平1-14-1",
        "lng": 135.891781,
        "lat": 34.95258,
        "h": 75
      },
      {
        "name": "滋賀県立大津清陵高校グラウンド",
        "address": "滋賀県大津市大平1-14-1",
        "lng": 135.892859,
        "lat": 34.953285,
        "h": 75
      },
      {
        "name": "大平保育園グラウンド",
        "address": "滋賀県大津市大平2-33-22",
        "lng": 135.894388,
        "lat": 34.949921,
        "h": 75
      },
      {
        "name": "長等市民センター",
        "address": "滋賀県大津市大門通16-40",
        "lng": 135.857864,
        "lat": 35.014908,
        "h": 75
      },
      {
        "name": "長等小学校体育館",
        "address": "滋賀県大津市大門通5-1",
        "lng": 135.855762,
        "lat": 35.01212,
        "h": 75
      },
      {
        "name": "長等小学校グラウンド",
        "address": "滋賀県大津市大門通5-1",
        "lng": 135.856438,
        "lat": 35.012282,
        "h": 11
      },
      {
        "name": "藤尾小学校体育館",
        "address": "滋賀県大津市茶戸町10-1",
        "lng": 135.832322,
        "lat": 34.995016,
        "h": 75
      },
      {
        "name": "藤尾小学校グラウンド",
        "address": "滋賀県大津市茶戸町10-1",
        "lng": 135.833089,
        "lat": 34.994603,
        "h": 75
      },
      {
        "name": "永興藤尾こども園グラウンド",
        "address": "滋賀県大津市茶戸町22-6",
        "lng": 135.829907,
        "lat": 34.994075,
        "h": 75
      },
      {
        "name": "中央市民センター",
        "address": "滋賀県大津市中央2-2-5",
        "lng": 135.865462,
        "lat": 35.008372,
        "h": 75
      },
      {
        "name": "膳所幼稚園グラウンド",
        "address": "滋賀県大津市中庄2-6-5",
        "lng": 135.888446,
        "lat": 34.990488,
        "h": 75
      },
      {
        "name": "膳所幼稚園",
        "address": "滋賀県大津市中庄2-6-5",
        "lng": 135.888317,
        "lat": 34.990625,
        "h": 75
      },
      {
        "name": "膳所小学校グラウンド",
        "address": "滋賀県大津市中庄2-8-37",
        "lng": 135.88843,
        "lat": 34.991152,
        "h": 11
      },
      {
        "name": "膳所小学校体育館",
        "address": "滋賀県大津市中庄2-8-37",
        "lng": 135.887915,
        "lat": 34.991759,
        "h": 75
      },
      {
        "name": "滋賀短期大学附属高校体育館",
        "address": "滋賀県大津市朝日が丘1-18-1",
        "lng": 135.869032,
        "lat": 34.999451,
        "h": 75
      },
      {
        "name": "滋賀短期大学附属高校グラウンド",
        "address": "滋賀県大津市朝日が丘1-18-1",
        "lng": 135.869934,
        "lat": 34.999574,
        "h": 75
      },
      {
        "name": "朝日が丘保育園グラウンド",
        "address": "滋賀県大津市朝日が丘1-23-33",
        "lng": 135.870106,
        "lat": 35.001433,
        "h": 75
      },
      {
        "name": "晴嵐幼稚園",
        "address": "滋賀県大津市鳥居川町15-22",
        "lng": 135.90263,
        "lat": 34.972851,
        "h": 75
      },
      {
        "name": "晴嵐幼稚園グラウンド",
        "address": "滋賀県大津市鳥居川町15-22",
        "lng": 135.902684,
        "lat": 34.972521,
        "h": 11
      },
      {
        "name": "唐崎市民センター",
        "address": "滋賀県大津市唐崎2-10-1",
        "lng": 135.86563,
        "lat": 35.04856,
        "h": 75
      },
      {
        "name": "唐崎中学校グラウンド",
        "address": "滋賀県大津市唐崎2-9-1",
        "lng": 135.867256,
        "lat": 35.047655,
        "h": 11
      },
      {
        "name": "唐崎中学校体育館",
        "address": "滋賀県大津市唐崎2-9-1",
        "lng": 135.868221,
        "lat": 35.047414,
        "h": 75
      },
      {
        "name": "大津幼稚園",
        "address": "滋賀県大津市島の関1-50",
        "lng": 135.869377,
        "lat": 35.007563,
        "h": 75
      },
      {
        "name": "大津幼稚園グラウンド",
        "address": "滋賀県大津市島の関1-50",
        "lng": 135.869248,
        "lat": 35.007374,
        "h": 11
      },
      {
        "name": "中央小学校体育館",
        "address": "滋賀県大津市島の関1-60",
        "lng": 135.869672,
        "lat": 35.007849,
        "h": 75
      },
      {
        "name": "中央小学校グラウンド",
        "address": "滋賀県大津市島の関1-60",
        "lng": 135.869092,
        "lat": 35.008178,
        "h": 11
      },
      {
        "name": "市民会館",
        "address": "滋賀県大津市島の関14-1",
        "lng": 135.869768,
        "lat": 35.009453,
        "h": 74
      },
      {
        "name": "大津湖岸なぎさ公園おまつり広場",
        "address": "滋賀県大津市島の関１３地先",
        "lng": 135.869859,
        "lat": 35.01027,
        "h": 10
      },
      {
        "name": "南郷市民センター",
        "address": "滋賀県大津市南郷1-12-13",
        "lng": 135.908241,
        "lat": 34.942342,
        "h": 75
      },
      {
        "name": "南郷小学校体育館",
        "address": "滋賀県大津市南郷1-15-9",
        "lng": 135.907235,
        "lat": 34.940886,
        "h": 75
      },
      {
        "name": "南郷小学校グラウンド",
        "address": "滋賀県大津市南郷1-15-9",
        "lng": 135.906682,
        "lat": 34.939778,
        "h": 11
      },
      {
        "name": "南郷公園",
        "address": "滋賀県大津市南郷1-17",
        "lng": 135.908747,
        "lat": 34.940038,
        "h": 10
      },
      {
        "name": "南郷幼稚園グラウンド",
        "address": "滋賀県大津市南郷3-15-1",
        "lng": 135.902491,
        "lat": 34.938428,
        "h": 9
      },
      {
        "name": "南郷幼稚園",
        "address": "滋賀県大津市南郷3-15-1",
        "lng": 135.902159,
        "lat": 34.938612,
        "h": 75
      },
      {
        "name": "志賀小学校グラウンド",
        "address": "滋賀県大津市南志賀1-5-1",
        "lng": 135.855389,
        "lat": 35.034306,
        "h": 75
      },
      {
        "name": "志賀小学校体育館",
        "address": "滋賀県大津市南志賀1-5-1",
        "lng": 135.855883,
        "lat": 35.034991,
        "h": 75
      },
      {
        "name": "滋賀市民センター",
        "address": "滋賀県大津市南志賀1-8-32",
        "lng": 135.857031,
        "lat": 35.03566,
        "h": 75
      },
      {
        "name": "小松小学校体育館",
        "address": "滋賀県大津市南小松1122",
        "lng": 135.956812,
        "lat": 35.235554,
        "h": 75
      },
      {
        "name": "小松小学校グラウンド",
        "address": "滋賀県大津市南小松1122",
        "lng": 135.956592,
        "lat": 35.236288,
        "h": 75
      },
      {
        "name": "志賀中学校グラウンド",
        "address": "滋賀県大津市南船路1029",
        "lng": 135.909872,
        "lat": 35.181151,
        "h": 75
      },
      {
        "name": "志賀中学校体育館",
        "address": "滋賀県大津市南船路1029",
        "lng": 135.909148,
        "lat": 35.180454,
        "h": 75
      },
      {
        "name": "近江神宮外苑公園",
        "address": "滋賀県大津市二本松1-2",
        "lng": 135.865028,
        "lat": 35.029026,
        "h": 75
      },
      {
        "name": "日吉台第９公園",
        "address": "滋賀県大津市日吉台1-14",
        "lng": 135.881036,
        "lat": 35.079855,
        "h": 75
      },
      {
        "name": "日吉台市民センター",
        "address": "滋賀県大津市日吉台1-15-1",
        "lng": 135.87856,
        "lat": 35.079036,
        "h": 75
      },
      {
        "name": "日吉台至明こども園グラウンド",
        "address": "滋賀県大津市日吉台3-33-2",
        "lng": 135.876653,
        "lat": 35.081792,
        "h": 75
      },
      {
        "name": "日吉台小学校グラウンド",
        "address": "滋賀県大津市日吉台3-33-3",
        "lng": 135.876383,
        "lat": 35.082554,
        "h": 75
      },
      {
        "name": "日吉台小学校体育館",
        "address": "滋賀県大津市日吉台3-33-3",
        "lng": 135.875685,
        "lat": 35.083243,
        "h": 75
      },
      {
        "name": "滋賀県立大津高校体育館",
        "address": "滋賀県大津市馬場1-1-1",
        "lng": 135.883033,
        "lat": 35.001017,
        "h": 75
      },
      {
        "name": "滋賀県立大津高校グラウンド",
        "address": "滋賀県大津市馬場1-1-1",
        "lng": 135.882606,
        "lat": 35.000217,
        "h": 11
      },
      {
        "name": "平野小学校グラウンド",
        "address": "滋賀県大津市馬場1-2-1",
        "lng": 135.882647,
        "lat": 35.001571,
        "h": 11
      },
      {
        "name": "平野小学校体育館",
        "address": "滋賀県大津市馬場1-2-1",
        "lng": 135.881934,
        "lat": 35.001455,
        "h": 75
      },
      {
        "name": "平野幼稚園",
        "address": "滋賀県大津市馬場1-5-28",
        "lng": 135.879955,
        "lat": 35.002708,
        "h": 67
      },
      {
        "name": "平野幼稚園グラウンド",
        "address": "滋賀県大津市馬場1-5-28",
        "lng": 135.879923,
        "lat": 35.002528,
        "h": 75
      },
      {
        "name": "平野市民センター",
        "address": "滋賀県大津市馬場3-15-45",
        "lng": 135.882014,
        "lat": 34.998515,
        "h": 75
      },
      {
        "name": "下阪本市民運動広場",
        "address": "滋賀県大津市比叡辻2-14",
        "lng": 135.882843,
        "lat": 35.073351,
        "h": 75
      },
      {
        "name": "比叡平市民運動広場",
        "address": "滋賀県大津市比叡平1-1063-9",
        "lng": 135.834258,
        "lat": 35.032045,
        "h": 75
      },
      {
        "name": "比叡平小学校グラウンド",
        "address": "滋賀県大津市比叡平1-45-1",
        "lng": 135.835402,
        "lat": 35.032666,
        "h": 75
      },
      {
        "name": "比叡平小学校体育館",
        "address": "滋賀県大津市比叡平1-45-1",
        "lng": 135.834878,
        "lat": 35.032935,
        "h": 75
      },
      {
        "name": "やまのこひろば（比叡平幼稚園・　ひえい平保育園）グラウンド",
        "address": "滋賀県大津市比叡平1-45-3",
        "lng": 135.834714,
        "lat": 35.032524,
        "h": 75
      },
      {
        "name": "住民交流・まちづくりセンター中庭",
        "address": "滋賀県大津市比叡平2-39-4",
        "lng": 135.82817,
        "lat": 35.028328,
        "h": 73
      },
      {
        "name": "住民交流・まちづくりセンター",
        "address": "滋賀県大津市比叡平2-39-4",
        "lng": 135.828218,
        "lat": 35.028517,
        "h": 67
      },
      {
        "name": "山中比叡平市民センター",
        "address": "滋賀県大津市比叡平3-57-1",
        "lng": 135.831343,
        "lat": 35.031302,
        "h": 75
      },
      {
        "name": "尾花川公園",
        "address": "滋賀県大津市尾花川1",
        "lng": 135.860685,
        "lat": 35.018633,
        "h": 10
      },
      {
        "name": "皇子山中学校グラウンド",
        "address": "滋賀県大津市尾花川12-1",
        "lng": 135.859003,
        "lat": 35.021354,
        "h": 10
      },
      {
        "name": "皇子山中学校体育館",
        "address": "滋賀県大津市尾花川12-1",
        "lng": 135.85866,
        "lat": 35.020854,
        "h": 74
      },
      {
        "name": "びわ湖美空団地一帯（向陽公園含む）",
        "address": "滋賀県大津市美空町8",
        "lng": 135.91817,
        "lat": 35.1366,
        "h": 107
      },
      {
        "name": "湖西浄化センター",
        "address": "滋賀県大津市苗鹿3-1-1",
        "lng": 135.889472,
        "lat": 35.07929,
        "h": 43
      },
      {
        "name": "大津港",
        "address": "滋賀県大津市浜大津5-5",
        "lng": 135.866163,
        "lat": 35.012594,
        "h": 42
      },
      {
        "name": "富士見台一区防災広場",
        "address": "滋賀県大津市富士見台3-30",
        "lng": 135.887709,
        "lat": 34.985965,
        "h": 75
      },
      {
        "name": "富士見小学校体育館",
        "address": "滋賀県大津市富士見台42-16",
        "lng": 135.882541,
        "lat": 34.97922,
        "h": 73
      },
      {
        "name": "富士見小学校グラウンド",
        "address": "滋賀県大津市富士見台42-16",
        "lng": 135.882819,
        "lat": 34.980042,
        "h": 75
      },
      {
        "name": "富士見幼稚園グラウンド",
        "address": "滋賀県大津市富士見台45-5",
        "lng": 135.883828,
        "lat": 34.979378,
        "h": 75
      },
      {
        "name": "富士見幼稚園",
        "address": "滋賀県大津市富士見台45-5",
        "lng": 135.883957,
        "lat": 34.97958,
        "h": 75
      },
      {
        "name": "石山中学校体育館",
        "address": "滋賀県大津市平津1-23-1",
        "lng": 135.909622,
        "lat": 34.947445,
        "h": 75
      },
      {
        "name": "石山中学校グラウンド",
        "address": "滋賀県大津市平津1-23-1",
        "lng": 135.908345,
        "lat": 34.946807,
        "h": 11
      },
      {
        "name": "滋賀大学教育学部",
        "address": "滋賀県大津市平津2-5-1",
        "lng": 135.905278,
        "lat": 34.95102,
        "h": 107
      },
      {
        "name": "上田上幼稚園グラウンド",
        "address": "滋賀県大津市平野1-18-20",
        "lng": 135.960916,
        "lat": 34.95939,
        "h": 10
      },
      {
        "name": "上田上幼稚園",
        "address": "滋賀県大津市平野1-18-20",
        "lng": 135.960771,
        "lat": 34.959632,
        "h": 74
      },
      {
        "name": "上田上小学校体育館",
        "address": "滋賀県大津市平野1-18-5",
        "lng": 135.959605,
        "lat": 34.959559,
        "h": 74
      },
      {
        "name": "上田上小学校グラウンド",
        "address": "滋賀県大津市平野1-18-5",
        "lng": 135.960297,
        "lat": 34.959656,
        "h": 10
      },
      {
        "name": "小松市民センター",
        "address": "滋賀県大津市北小松565",
        "lng": 135.973766,
        "lat": 35.25498,
        "h": 3
      },
      {
        "name": "晴嵐市民センター",
        "address": "滋賀県大津市北大路1-9-5",
        "lng": 135.899214,
        "lat": 34.975755,
        "h": 75
      },
      {
        "name": "北大路中学校グラウンド",
        "address": "滋賀県大津市北大路3-22-1",
        "lng": 135.88723,
        "lat": 34.970477,
        "h": 73
      },
      {
        "name": "北大路中学校体育館",
        "address": "滋賀県大津市北大路3-22-1",
        "lng": 135.886565,
        "lat": 34.969378,
        "h": 75
      },
      {
        "name": "びわこ成蹊スポーツ大学グラウンド",
        "address": "滋賀県大津市北比良1204",
        "lng": 135.947226,
        "lat": 35.228213,
        "h": 107
      },
      {
        "name": "上田上市民センター",
        "address": "滋賀県大津市牧1-1-24",
        "lng": 135.961922,
        "lat": 34.95952,
        "h": 75
      },
      {
        "name": "膳所市民センター",
        "address": "滋賀県大津市本丸町6-40",
        "lng": 135.893695,
        "lat": 34.994681,
        "h": 75
      },
      {
        "name": "生涯学習センター",
        "address": "滋賀県大津市本丸町6-50",
        "lng": 135.893708,
        "lat": 34.994031,
        "h": 11
      },
      {
        "name": "膳所城跡公園",
        "address": "滋賀県大津市本丸町7",
        "lng": 135.89536,
        "lat": 34.995142,
        "h": 11
      },
      {
        "name": "打出中学校グラウンド",
        "address": "滋賀県大津市本宮2-46-1",
        "lng": 135.871611,
        "lat": 34.997817,
        "h": 75
      },
      {
        "name": "打出中学校体育館",
        "address": "滋賀県大津市本宮2-46-1",
        "lng": 135.872169,
        "lat": 34.997188,
        "h": 75
      },
      {
        "name": "本福寺こども園",
        "address": "滋賀県大津市本堅田1-22-30",
        "lng": 135.919811,
        "lat": 35.111355,
        "h": 10
      },
      {
        "name": "堅田中学校体育館",
        "address": "滋賀県大津市本堅田3-22-1",
        "lng": 135.917722,
        "lat": 35.11508,
        "h": 10
      },
      {
        "name": "堅田中学校グラウンド",
        "address": "滋賀県大津市本堅田3-22-1",
        "lng": 135.917727,
        "lat": 35.114277,
        "h": 10
      },
      {
        "name": "堅田小学校体育館",
        "address": "滋賀県大津市本堅田3-6-1",
        "lng": 135.916005,
        "lat": 35.112474,
        "h": 75
      },
      {
        "name": "堅田幼稚園",
        "address": "滋賀県大津市本堅田3-7-17",
        "lng": 135.916069,
        "lat": 35.113751,
        "h": 75
      },
      {
        "name": "堅田市民センター",
        "address": "滋賀県大津市本堅田3-8-1",
        "lng": 135.91475,
        "lat": 35.114273,
        "h": 75
      },
      {
        "name": "堅田高校・堅田小学校グラウンド一帯",
        "address": "滋賀県大津市本堅田3-9-1",
        "lng": 135.913304,
        "lat": 35.113451,
        "h": 43
      },
      {
        "name": "滋賀県立堅田高校体育館",
        "address": "滋賀県大津市本堅田3-9-1",
        "lng": 135.914009,
        "lat": 35.11297,
        "h": 75
      },
      {
        "name": "第二本福寺こども園",
        "address": "滋賀県大津市本堅田6-14-11",
        "lng": 135.909053,
        "lat": 35.117903,
        "h": 75
      },
      {
        "name": "堅田かすがやま翔裕館",
        "address": "滋賀県大津市本堅田6-16-8",
        "lng": 135.909568,
        "lat": 35.117707,
        "h": 75
      },
      {
        "name": "天神山保育園グラウンド",
        "address": "滋賀県大津市本堅田6-3-1",
        "lng": 135.907307,
        "lat": 35.115119,
        "h": 75
      },
      {
        "name": "木戸市民センター",
        "address": "滋賀県大津市木戸58",
        "lng": 135.921128,
        "lat": 35.206306,
        "h": 11
      },
      {
        "name": "野郷原児童遊園地",
        "address": "滋賀県大津市野郷原1-2",
        "lng": 135.91556,
        "lat": 34.968106,
        "h": 75
      },
      {
        "name": "柳が崎湖畔公園芝生広場",
        "address": "滋賀県大津市柳が崎5",
        "lng": 135.868405,
        "lat": 35.026694,
        "h": 74
      },
      {
        "name": "びわ湖大津館",
        "address": "滋賀県大津市柳が崎5-35",
        "lng": 135.867765,
        "lat": 35.026644,
        "h": 74
      },
      {
        "name": "柳が崎湖畔公園駐車場",
        "address": "滋賀県大津市柳が崎7",
        "lng": 135.866318,
        "lat": 35.028144,
        "h": 11
      },
      {
        "name": "雄琴市民センター",
        "address": "滋賀県大津市雄琴1-17-2",
        "lng": 135.895629,
        "lat": 35.090026,
        "h": 75
      },
      {
        "name": "旧雄琴幼稚園グラウンド",
        "address": "滋賀県大津市雄琴2-16-1",
        "lng": 135.893908,
        "lat": 35.092381,
        "h": 75
      },
      {
        "name": "雄琴小学校グラウンド",
        "address": "滋賀県大津市雄琴2-16-1",
        "lng": 135.892868,
        "lat": 35.092708,
        "h": 75
      },
      {
        "name": "雄琴小学校体育館",
        "address": "滋賀県大津市雄琴2-16-1",
        "lng": 135.893742,
        "lat": 35.092839,
        "h": 75
      },
      {
        "name": "雄琴湖岸緑地",
        "address": "滋賀県大津市雄琴6-1",
        "lng": 135.894549,
        "lat": 35.088168,
        "h": 10
      },
      {
        "name": "陽明公園",
        "address": "滋賀県大津市陽明町6",
        "lng": 135.907026,
        "lat": 35.142211,
        "h": 75
      },
      {
        "name": "田上市民センター",
        "address": "滋賀県大津市里3-9-1",
        "lng": 135.92882,
        "lat": 34.938238,
        "h": 74
      },
      {
        "name": "田上小学校グラウンド",
        "address": "滋賀県大津市里5-8-1",
        "lng": 135.931918,
        "lat": 34.937253,
        "h": 11
      },
      {
        "name": "田上小学校体育館",
        "address": "滋賀県大津市里5-8-1",
        "lng": 135.931071,
        "lat": 34.93698,
        "h": 75
      },
      {
        "name": "滋賀短期大学グラウンド",
        "address": "滋賀県大津市竜が丘24-4",
        "lng": 135.873379,
        "lat": 34.995922,
        "h": 11
      },
      {
        "name": "滋賀短期大学",
        "address": "滋賀県大津市竜が丘24-4",
        "lng": 135.874087,
        "lat": 34.995522,
        "h": 11
      },
      {
        "name": "真野北小学校体育館",
        "address": "滋賀県大津市緑町15-2",
        "lng": 135.908122,
        "lat": 35.144059,
        "h": 75
      },
      {
        "name": "真野北小学校グラウンド",
        "address": "滋賀県大津市緑町15-2",
        "lng": 135.908959,
        "lat": 35.143888,
        "h": 75
      },
      {
        "name": "みどり公園",
        "address": "滋賀県大津市緑町16",
        "lng": 135.909876,
        "lat": 35.144598,
        "h": 75
      },
      {
        "name": "伊香立・真野北幼稚園グラウンド",
        "address": "滋賀県大津市緑町16-2",
        "lng": 135.910188,
        "lat": 35.145536,
        "h": 75
      },
      {
        "name": "伊香立・真野北幼稚園",
        "address": "滋賀県大津市緑町16-2",
        "lng": 135.910188,
        "lat": 35.145536,
        "h": 73
      },
      {
        "name": "真野北市民センター前広場",
        "address": "滋賀県大津市緑町4-1",
        "lng": 135.909129,
        "lat": 35.141804,
        "h": 11
      },
      {
        "name": "真野北市民センター",
        "address": "滋賀県大津市緑町4-1",
        "lng": 135.908812,
        "lat": 35.141664,
        "h": 75
      },
      {
        "name": "和邇文化センター",
        "address": "滋賀県大津市和邇高城12",
        "lng": 135.92173,
        "lat": 35.159539,
        "h": 75
      },
      {
        "name": "和邇市民体育館",
        "address": "滋賀県大津市和邇高城27-2",
        "lng": 135.921643,
        "lat": 35.159093,
        "h": 67
      },
      {
        "name": "志賀南幼稚園",
        "address": "滋賀県大津市和邇今宿482-1",
        "lng": 135.922531,
        "lat": 35.153915,
        "h": 75
      },
      {
        "name": "和邇市民運動広場",
        "address": "滋賀県大津市和邇今宿851",
        "lng": 135.922744,
        "lat": 35.15847,
        "h": 11
      },
      {
        "name": "和邇小学校体育館",
        "address": "滋賀県大津市和邇中190",
        "lng": 135.919979,
        "lat": 35.157788,
        "h": 75
      },
      {
        "name": "和邇小学校グラウンド",
        "address": "滋賀県大津市和邇中190",
        "lng": 135.92044,
        "lat": 35.157292,
        "h": 75
      },
      {
        "name": "道の駅妹子の郷施設棟",
        "address": "滋賀県大津市和邇中528",
        "lng": 135.901471,
        "lat": 35.159575,
        "h": 75
      },
      {
        "name": "道の駅妹子の郷駐車場",
        "address": "滋賀県大津市和邇中528",
        "lng": 135.901343,
        "lat": 35.160298,
        "h": 75
      }
    ]
  },
  "25202": {
    "source": "国土地理院「指定緊急避難場所データ」",
    "asOf": "2026-06-19",
    "sites": [
      {
        "name": "彦根市立佐和山小学校",
        "address": "滋賀県彦根市安清町11-32",
        "lng": 136.259566,
        "lat": 35.264172,
        "h": 75
      },
      {
        "name": "彦根市立稲枝東小学校",
        "address": "滋賀県彦根市稲部町308",
        "lng": 136.19553,
        "lat": 35.207701,
        "h": 75
      },
      {
        "name": "稲枝商工会館",
        "address": "滋賀県彦根市稲部町607-1",
        "lng": 136.189977,
        "lat": 35.208316,
        "h": 75
      },
      {
        "name": "パナソニック株式会社くらしアプライアンス社ビューティ・パーソナルケア事業部彦根工場",
        "address": "滋賀県彦根市岡町33",
        "lng": 136.253767,
        "lat": 35.253266,
        "h": 75
      },
      {
        "name": "彦根市立稲枝北小学校",
        "address": "滋賀県彦根市下岡部町597",
        "lng": 136.178492,
        "lat": 35.22179,
        "h": 75
      },
      {
        "name": "彦根市役所亀山出張所",
        "address": "滋賀県彦根市賀田山町278-2",
        "lng": 136.212584,
        "lat": 35.220742,
        "h": 75
      },
      {
        "name": "彦根市立亀山小学校",
        "address": "滋賀県彦根市賀田山町8",
        "lng": 136.214337,
        "lat": 35.220761,
        "h": 75
      },
      {
        "name": "彦根市中老人福祉センター",
        "address": "滋賀県彦根市開出今町1361",
        "lng": 136.231196,
        "lat": 35.259299,
        "h": 75
      },
      {
        "name": "彦根市立南中学校",
        "address": "滋賀県彦根市甘呂町156",
        "lng": 136.228487,
        "lat": 35.245673,
        "h": 75
      },
      {
        "name": "彦根市立城陽小学校",
        "address": "滋賀県彦根市甘呂町430",
        "lng": 136.225834,
        "lat": 35.247011,
        "h": 75
      },
      {
        "name": "彦根市立城東小学校",
        "address": "滋賀県彦根市京町2-2-19",
        "lng": 136.257692,
        "lat": 35.269424,
        "h": 75
      },
      {
        "name": "彦根市立河瀬小学校",
        "address": "滋賀県彦根市極楽寺町118",
        "lng": 136.239699,
        "lat": 35.228139,
        "h": 75
      },
      {
        "name": "彦根総合高等学校",
        "address": "滋賀県彦根市芹川町328",
        "lng": 136.261977,
        "lat": 35.264792,
        "h": 75
      },
      {
        "name": "彦根市立東中学校",
        "address": "滋賀県彦根市芹川町443",
        "lng": 136.264162,
        "lat": 35.260488,
        "h": 75
      },
      {
        "name": "滋賀県立彦根翔西館高等学校",
        "address": "滋賀県彦根市芹川町580",
        "lng": 136.259796,
        "lat": 35.255243,
        "h": 75
      },
      {
        "name": "滋賀県立彦根東高等学校",
        "address": "滋賀県彦根市金亀町4-7",
        "lng": 136.253764,
        "lat": 35.272868,
        "h": 75
      },
      {
        "name": "彦根市立西中学校",
        "address": "滋賀県彦根市金亀町8-1",
        "lng": 136.248459,
        "lat": 35.277623,
        "h": 75
      },
      {
        "name": "彦根市人権・福祉交流会館",
        "address": "滋賀県彦根市犬方町848-1",
        "lng": 136.242279,
        "lat": 35.237488,
        "h": 75
      },
      {
        "name": "彦根市高宮地域文化センター",
        "address": "滋賀県彦根市高宮町2311",
        "lng": 136.256818,
        "lat": 35.23485,
        "h": 75
      },
      {
        "name": "彦根市立高宮小学校",
        "address": "滋賀県彦根市高宮町2447",
        "lng": 136.258325,
        "lat": 35.232482,
        "h": 75
      },
      {
        "name": "彦根キャッスル　リゾート＆スパ",
        "address": "滋賀県彦根市佐和町1-8",
        "lng": 136.256996,
        "lat": 35.273708,
        "h": 75
      },
      {
        "name": "三津屋町民会館",
        "address": "滋賀県彦根市三津屋町1451",
        "lng": 136.194097,
        "lat": 35.246446,
        "h": 75
      },
      {
        "name": "彦根市スポーツ・文化交流センター",
        "address": "滋賀県彦根市小泉町640",
        "lng": 136.244688,
        "lat": 35.247012,
        "h": 75
      },
      {
        "name": "千松会館",
        "address": "滋賀県彦根市松原1-12-13",
        "lng": 136.251112,
        "lat": 35.284667,
        "h": 75
      },
      {
        "name": "滋賀県立彦根総合スポーツ公園（野球場）",
        "address": "滋賀県彦根市松原町3028",
        "lng": 136.25593,
        "lat": 35.281112,
        "h": 75
      },
      {
        "name": "近江高等学校",
        "address": "滋賀県彦根市松原町3511-1",
        "lng": 136.258636,
        "lat": 35.283187,
        "h": 75
      },
      {
        "name": "彦根市立城北小学校",
        "address": "滋賀県彦根市松原町3751-3",
        "lng": 136.257197,
        "lat": 35.284235,
        "h": 75
      },
      {
        "name": "亀の井ホテル彦根",
        "address": "滋賀県彦根市松原町3759",
        "lng": 136.249524,
        "lat": 35.287344,
        "h": 75
      },
      {
        "name": "新海町公民館周辺施設",
        "address": "滋賀県彦根市新海町409",
        "lng": 136.139741,
        "lat": 35.214931,
        "h": 75
      },
      {
        "name": "彦根市河瀬地区公民館",
        "address": "滋賀県彦根市森堂町131",
        "lng": 136.239822,
        "lat": 35.228796,
        "h": 75
      },
      {
        "name": "彦根市旭森地区公民館",
        "address": "滋賀県彦根市正法寺町642-1",
        "lng": 136.270574,
        "lat": 35.24957,
        "h": 75
      },
      {
        "name": "彦根市立彦根中学校",
        "address": "滋賀県彦根市西葛籠町553",
        "lng": 136.245081,
        "lat": 35.227263,
        "h": 75
      },
      {
        "name": "彦根市立中央中学校",
        "address": "滋賀県彦根市西今町1207",
        "lng": 136.236482,
        "lat": 35.260869,
        "h": 75
      },
      {
        "name": "彦根市立城南小学校",
        "address": "滋賀県彦根市西今町380",
        "lng": 136.242977,
        "lat": 35.248282,
        "h": 75
      },
      {
        "name": "東びわこ農業協同組合本店",
        "address": "滋賀県彦根市川瀬馬場町922-1",
        "lng": 136.22668,
        "lat": 35.225364,
        "h": 75
      },
      {
        "name": "滋賀県立河瀬高等学校",
        "address": "滋賀県彦根市川瀬馬場町975",
        "lng": 136.223466,
        "lat": 35.227985,
        "h": 75
      },
      {
        "name": "彦根市東地区公民館",
        "address": "滋賀県彦根市大東町1-26",
        "lng": 136.261437,
        "lat": 35.27144,
        "h": 75
      },
      {
        "name": "彦根勤労福祉会館",
        "address": "滋賀県彦根市大東町4-28",
        "lng": 136.261943,
        "lat": 35.269678,
        "h": 75
      },
      {
        "name": "彦根市立金城小学校",
        "address": "滋賀県彦根市大薮町391",
        "lng": 136.234668,
        "lat": 35.269196,
        "h": 75
      },
      {
        "name": "滋賀県立彦根翔西館高等学校　第二体育館・第二グラウンド",
        "address": "滋賀県彦根市池州町9-73",
        "lng": 136.247133,
        "lat": 35.270224,
        "h": 10
      },
      {
        "name": "彦根商工会議所",
        "address": "滋賀県彦根市中央町3-8",
        "lng": 136.256324,
        "lat": 35.270246,
        "h": 67
      },
      {
        "name": "彦根市鳥居本地区公民館",
        "address": "滋賀県彦根市鳥居本町1491-6",
        "lng": 136.287258,
        "lat": 35.280727,
        "h": 75
      },
      {
        "name": "彦根市立鳥居本小学校",
        "address": "滋賀県彦根市鳥居本町1550-1",
        "lng": 136.285838,
        "lat": 35.281705,
        "h": 75
      },
      {
        "name": "彦根市立鳥居本中学校",
        "address": "滋賀県彦根市鳥居本町788",
        "lng": 136.285408,
        "lat": 35.28408,
        "h": 75
      },
      {
        "name": "彦根市立稲枝中学校",
        "address": "滋賀県彦根市田原町202",
        "lng": 136.178844,
        "lat": 35.212779,
        "h": 75
      },
      {
        "name": "彦根市立旭森小学校",
        "address": "滋賀県彦根市東沼波町300",
        "lng": 136.264794,
        "lat": 35.24948,
        "h": 75
      },
      {
        "name": "滋賀県立彦根工業高等学校",
        "address": "滋賀県彦根市南川瀬町1310",
        "lng": 136.224386,
        "lat": 35.219,
        "h": 75
      },
      {
        "name": "滋賀大学",
        "address": "滋賀県彦根市馬場1-1-1",
        "lng": 136.246464,
        "lat": 35.2782,
        "h": 75
      },
      {
        "name": "彦根市北老人福祉センター",
        "address": "滋賀県彦根市馬場1-5-5",
        "lng": 136.248348,
        "lat": 35.280817,
        "h": 75
      },
      {
        "name": "滋賀県立大学",
        "address": "滋賀県彦根市八坂町2500",
        "lng": 136.219212,
        "lat": 35.259888,
        "h": 75
      },
      {
        "name": "聖泉大学",
        "address": "滋賀県彦根市肥田町720",
        "lng": 136.204596,
        "lat": 35.204945,
        "h": 75
      },
      {
        "name": "彦富町公民館",
        "address": "滋賀県彦根市彦富町1718",
        "lng": 136.181645,
        "lat": 35.205462,
        "h": 75
      },
      {
        "name": "彦根市立平田小学校",
        "address": "滋賀県彦根市平田町267",
        "lng": 136.243654,
        "lat": 35.259667,
        "h": 75
      },
      {
        "name": "彦根市福祉センター",
        "address": "滋賀県彦根市平田町670",
        "lng": 136.240056,
        "lat": 35.255854,
        "h": 75
      },
      {
        "name": "彦根市立稲枝西小学校",
        "address": "滋賀県彦根市本庄町3583",
        "lng": 136.159964,
        "lat": 35.20952,
        "h": 75
      },
      {
        "name": "彦根市稲枝地区公民館",
        "address": "滋賀県彦根市本庄町60",
        "lng": 136.180509,
        "lat": 35.212954,
        "h": 75
      },
      {
        "name": "東びわこ農業協同組合稲枝支店",
        "address": "滋賀県彦根市本庄町92-1",
        "lng": 136.180509,
        "lat": 35.21233,
        "h": 75
      },
      {
        "name": "彦根市立彦根幼稚園",
        "address": "滋賀県彦根市本町1-3-33",
        "lng": 136.253437,
        "lat": 35.270939,
        "h": 75
      },
      {
        "name": "彦根市西地区公民館",
        "address": "滋賀県彦根市本町1-9-1",
        "lng": 136.252684,
        "lat": 35.269472,
        "h": 75
      },
      {
        "name": "彦根市立城西小学校",
        "address": "滋賀県彦根市本町3-3-22",
        "lng": 136.248643,
        "lat": 35.271877,
        "h": 75
      },
      {
        "name": "ひこね市文化プラザ",
        "address": "滋賀県彦根市野瀬町187-4",
        "lng": 136.233029,
        "lat": 35.255916,
        "h": 75
      },
      {
        "name": "彦根市民交流センター",
        "address": "滋賀県彦根市里根町163-1",
        "lng": 136.268932,
        "lat": 35.2679,
        "h": 75
      },
      {
        "name": "彦根市立若葉小学校",
        "address": "滋賀県彦根市蓮台寺町180",
        "lng": 136.224595,
        "lat": 35.233502,
        "h": 75
      }
    ]
  },
  "25203": {
    "source": "国土地理院「指定緊急避難場所データ」",
    "asOf": "2026-06-19",
    "sites": [
      {
        "name": "南中学校",
        "address": "滋賀県長浜市永久寺町810",
        "lng": 136.29614,
        "lat": 35.373304,
        "h": 75
      },
      {
        "name": "びわ北小学校　洪水時は２階以上に避難",
        "address": "滋賀県長浜市益田町56",
        "lng": 136.220534,
        "lat": 35.423416,
        "h": 75
      },
      {
        "name": "長浜南小学校",
        "address": "滋賀県長浜市加田町1460",
        "lng": 136.303685,
        "lat": 35.368106,
        "h": 75
      },
      {
        "name": "神田まちづくりセンター",
        "address": "滋賀県長浜市加田町2727",
        "lng": 136.301891,
        "lat": 35.358891,
        "h": 75
      },
      {
        "name": "長浜市民体育館",
        "address": "滋賀県長浜市宮司町1203",
        "lng": 136.28745,
        "lat": 35.377634,
        "h": 75
      },
      {
        "name": "虎姫高等学校　洪水時は２階以上に避難",
        "address": "滋賀県長浜市宮部町2410",
        "lng": 136.265635,
        "lat": 35.419762,
        "h": 75
      },
      {
        "name": "びわ中学校",
        "address": "滋賀県長浜市弓削町460",
        "lng": 136.232346,
        "lat": 35.418545,
        "h": 75
      },
      {
        "name": "朝日小学校",
        "address": "滋賀県長浜市湖北町山本1125",
        "lng": 136.212319,
        "lat": 35.44632,
        "h": 8
      },
      {
        "name": "山本山運動広場体育館",
        "address": "滋賀県長浜市湖北町山本2868",
        "lng": 136.209335,
        "lat": 35.44182,
        "h": 75
      },
      {
        "name": "湖北中学校",
        "address": "滋賀県長浜市湖北町速水1191",
        "lng": 136.242546,
        "lat": 35.444194,
        "h": 75
      },
      {
        "name": "湖北体育館",
        "address": "滋賀県長浜市湖北町速水1210",
        "lng": 136.243188,
        "lat": 35.444983,
        "h": 75
      },
      {
        "name": "速水小学校",
        "address": "滋賀県長浜市湖北町速水2561-1",
        "lng": 136.235459,
        "lat": 35.442507,
        "h": 75
      },
      {
        "name": "湖北文化ホール",
        "address": "滋賀県長浜市湖北町速水2745",
        "lng": 136.243339,
        "lat": 35.4464,
        "h": 75
      },
      {
        "name": "虎姫運動広場体育館",
        "address": "滋賀県長浜市五村360-1",
        "lng": 136.265439,
        "lat": 35.421728,
        "h": 8
      },
      {
        "name": "虎姫学園　洪水時は２階以上に避難",
        "address": "滋賀県長浜市五村88",
        "lng": 136.263964,
        "lat": 35.420755,
        "h": 75
      },
      {
        "name": "富永小学校",
        "address": "滋賀県長浜市高月町井口160",
        "lng": 136.239449,
        "lat": 35.489333,
        "h": 75
      },
      {
        "name": "高月中学校",
        "address": "滋賀県長浜市高月町高月2491-1",
        "lng": 136.226996,
        "lat": 35.470016,
        "h": 75
      },
      {
        "name": "高月小学校",
        "address": "滋賀県長浜市高月町高月738",
        "lng": 136.232672,
        "lat": 35.472358,
        "h": 75
      },
      {
        "name": "古保利小学校",
        "address": "滋賀県長浜市高月町西柳野38",
        "lng": 136.211793,
        "lat": 35.463908,
        "h": 75
      },
      {
        "name": "高月まちづくりセンター",
        "address": "滋賀県長浜市高月町渡岸寺141-1",
        "lng": 136.235268,
        "lat": 35.474825,
        "h": 75
      },
      {
        "name": "七郷小学校",
        "address": "滋賀県長浜市高月町唐川248",
        "lng": 136.21947,
        "lat": 35.485254,
        "h": 75
      },
      {
        "name": "高月運動広場体育館",
        "address": "滋賀県長浜市高月町東柳野3-1",
        "lng": 136.223088,
        "lat": 35.47007,
        "h": 75
      },
      {
        "name": "西中学校",
        "address": "滋賀県長浜市高田町10-10",
        "lng": 136.276534,
        "lat": 35.380292,
        "h": 75
      },
      {
        "name": "長浜小学校",
        "address": "滋賀県長浜市高田町9-9",
        "lng": 136.274157,
        "lat": 35.379671,
        "h": 75
      },
      {
        "name": "田根まちづくりセンター",
        "address": "滋賀県長浜市高畑町316-1",
        "lng": 136.291305,
        "lat": 35.454704,
        "h": 75
      },
      {
        "name": "七尾まちづくりセンター",
        "address": "滋賀県長浜市佐野町181",
        "lng": 136.331283,
        "lat": 35.414919,
        "h": 8
      },
      {
        "name": "旧七尾小学校",
        "address": "滋賀県長浜市佐野町22",
        "lng": 136.336706,
        "lat": 35.41489,
        "h": 8
      },
      {
        "name": "北郷里小学校",
        "address": "滋賀県長浜市春近町353",
        "lng": 136.321428,
        "lat": 35.400558,
        "h": 75
      },
      {
        "name": "六荘まちづくりセンター「六角館」",
        "address": "滋賀県長浜市勝町490",
        "lng": 136.287123,
        "lat": 35.371391,
        "h": 75
      },
      {
        "name": "小谷小学校",
        "address": "滋賀県長浜市小谷丁野町524",
        "lng": 136.25924,
        "lat": 35.457971,
        "h": 75
      },
      {
        "name": "西黒田まちづくりセンター",
        "address": "滋賀県長浜市常喜町500-1",
        "lng": 136.313683,
        "lat": 35.370411,
        "h": 75
      },
      {
        "name": "南郷里まちづくりセンター",
        "address": "滋賀県長浜市新栄町1065-2",
        "lng": 136.299619,
        "lat": 35.388769,
        "h": 75
      },
      {
        "name": "神照まちづくりセンター",
        "address": "滋賀県長浜市神照町286-1",
        "lng": 136.276052,
        "lat": 35.397997,
        "h": 75
      },
      {
        "name": "神照小学校",
        "address": "滋賀県長浜市神照町311",
        "lng": 136.274631,
        "lat": 35.399081,
        "h": 75
      },
      {
        "name": "北中学校",
        "address": "滋賀県長浜市神照町910",
        "lng": 136.269416,
        "lat": 35.393574,
        "h": 75
      },
      {
        "name": "長浜地域総合センター",
        "address": "滋賀県長浜市西上坂町1164",
        "lng": 136.31265,
        "lat": 35.408034,
        "h": 75
      },
      {
        "name": "西浅井中学校",
        "address": "滋賀県長浜市西浅井町塩津中312",
        "lng": 136.158875,
        "lat": 35.52418,
        "h": 75
      },
      {
        "name": "塩津小学校",
        "address": "滋賀県長浜市西浅井町塩津中41",
        "lng": 136.157277,
        "lat": 35.53078,
        "h": 75
      },
      {
        "name": "永原小学校",
        "address": "滋賀県長浜市西浅井町大浦167",
        "lng": 136.125505,
        "lat": 35.498973,
        "h": 8
      },
      {
        "name": "西浅井まちづくりセンター",
        "address": "滋賀県長浜市西浅井町大浦2590",
        "lng": 136.1237,
        "lat": 35.498518,
        "h": 75
      },
      {
        "name": "びわ南小学校",
        "address": "滋賀県長浜市川道町3456",
        "lng": 136.239343,
        "lat": 35.40505,
        "h": 8
      },
      {
        "name": "長浜北星高等学校",
        "address": "滋賀県長浜市地福寺町3-72",
        "lng": 136.276721,
        "lat": 35.377278,
        "h": 75
      },
      {
        "name": "長浜市民交流センター",
        "address": "滋賀県長浜市地福寺町4-36",
        "lng": 136.279267,
        "lat": 35.377333,
        "h": 75
      },
      {
        "name": "長浜バイオ大学",
        "address": "滋賀県長浜市田村町1266",
        "lng": 136.280327,
        "lat": 35.35692,
        "h": 75
      },
      {
        "name": "滋賀文教短期大学",
        "address": "滋賀県長浜市田村町335",
        "lng": 136.287394,
        "lat": 35.358343,
        "h": 75
      },
      {
        "name": "虎姫まちづくりセンター",
        "address": "滋賀県長浜市田町108",
        "lng": 136.259951,
        "lat": 35.422525,
        "h": 75
      },
      {
        "name": "北郷里まちづくりセンター",
        "address": "滋賀県長浜市東上坂町976-7",
        "lng": 136.321645,
        "lat": 35.401346,
        "h": 75
      },
      {
        "name": "浅井小学校",
        "address": "滋賀県長浜市当目町54",
        "lng": 136.328217,
        "lat": 35.435018,
        "h": 75
      },
      {
        "name": "湯田小学校",
        "address": "滋賀県長浜市内保町1051",
        "lng": 136.29533,
        "lat": 35.429562,
        "h": 75
      },
      {
        "name": "浅井文化ホール",
        "address": "滋賀県長浜市内保町2500",
        "lng": 136.299033,
        "lat": 35.428399,
        "h": 75
      },
      {
        "name": "湯田まちづくりセンター",
        "address": "滋賀県長浜市内保町2645",
        "lng": 136.29561,
        "lat": 35.432284,
        "h": 75
      },
      {
        "name": "浅井中学校",
        "address": "滋賀県長浜市内保町627",
        "lng": 136.29828,
        "lat": 35.431144,
        "h": 75
      },
      {
        "name": "南郷里小学校",
        "address": "滋賀県長浜市南田附町352",
        "lng": 136.301994,
        "lat": 35.388777,
        "h": 75
      },
      {
        "name": "びわまちづくりセンター",
        "address": "滋賀県長浜市難波町448",
        "lng": 136.232949,
        "lat": 35.411596,
        "h": 8
      },
      {
        "name": "長浜北小学校",
        "address": "滋賀県長浜市八幡中山町1310",
        "lng": 136.265659,
        "lat": 35.390897,
        "h": 75
      },
      {
        "name": "あじさいホール",
        "address": "滋賀県長浜市富田町431",
        "lng": 136.22307,
        "lat": 35.424539,
        "h": 75
      },
      {
        "name": "長浜北高等学校",
        "address": "滋賀県長浜市平方町270",
        "lng": 136.277174,
        "lat": 35.369992,
        "h": 75
      },
      {
        "name": "下草野まちづくりセンター",
        "address": "滋賀県長浜市北ノ郷町105",
        "lng": 136.32985,
        "lat": 35.433886,
        "h": 75
      },
      {
        "name": "東中学校",
        "address": "滋賀県長浜市堀部町763",
        "lng": 136.316701,
        "lat": 35.391897,
        "h": 75
      },
      {
        "name": "長浜農業高等学校",
        "address": "滋賀県長浜市名越町600",
        "lng": 136.319885,
        "lat": 35.366203,
        "h": 8
      },
      {
        "name": "旧杉野小中学校",
        "address": "滋賀県長浜市木之本町杉野489",
        "lng": 136.268583,
        "lat": 35.570342,
        "h": 8
      },
      {
        "name": "長浜伊香ツインアリーナ",
        "address": "滋賀県長浜市木之本町西山183-3",
        "lng": 136.212918,
        "lat": 35.497681,
        "h": 75
      },
      {
        "name": "高時小学校",
        "address": "滋賀県長浜市木之本町石道1079-1",
        "lng": 136.251753,
        "lat": 35.501894,
        "h": 75
      },
      {
        "name": "伊香具小学校",
        "address": "滋賀県長浜市木之本町大音1114",
        "lng": 136.197952,
        "lat": 35.500519,
        "h": 8
      },
      {
        "name": "大見いこいの広場",
        "address": "滋賀県長浜市木之本町大見678",
        "lng": 136.238293,
        "lat": 35.532153,
        "h": 75
      },
      {
        "name": "木之本総合センター",
        "address": "滋賀県長浜市木之本町田部542",
        "lng": 136.230092,
        "lat": 35.501197,
        "h": 75
      },
      {
        "name": "木之本スティックホール",
        "address": "滋賀県長浜市木之本町木之本1757-6",
        "lng": 136.222199,
        "lat": 35.502621,
        "h": 75
      },
      {
        "name": "伊香高等学校",
        "address": "滋賀県長浜市木之本町木之本251",
        "lng": 136.229603,
        "lat": 35.508864,
        "h": 8
      },
      {
        "name": "木之本中学校",
        "address": "滋賀県長浜市木之本町木之本682",
        "lng": 136.22855,
        "lat": 35.50453,
        "h": 75
      },
      {
        "name": "木之本小学校",
        "address": "滋賀県長浜市木之本町木之本685-1",
        "lng": 136.22786,
        "lat": 35.505845,
        "h": 75
      },
      {
        "name": "旧上草野小学校",
        "address": "滋賀県長浜市野瀬町730",
        "lng": 136.322699,
        "lat": 35.464508,
        "h": 75
      },
      {
        "name": "上草野まちづくりセンター",
        "address": "滋賀県長浜市野瀬町809",
        "lng": 136.320011,
        "lat": 35.462946,
        "h": 75
      },
      {
        "name": "田根小学校",
        "address": "滋賀県長浜市野田町68",
        "lng": 136.299667,
        "lat": 35.455984,
        "h": 75
      },
      {
        "name": "菅並集会所",
        "address": "滋賀県長浜市余呉町菅並741-1",
        "lng": 136.229229,
        "lat": 35.594443,
        "h": 75
      },
      {
        "name": "中河内集会所",
        "address": "滋賀県長浜市余呉町中河内86-1",
        "lng": 136.158025,
        "lat": 35.665682,
        "h": 8
      },
      {
        "name": "旧鏡岡中学校",
        "address": "滋賀県長浜市余呉町中之郷1030",
        "lng": 136.202913,
        "lat": 35.545527,
        "h": 75
      },
      {
        "name": "余呉まちづくりセンター",
        "address": "滋賀県長浜市余呉町中之郷1117-1",
        "lng": 136.20484,
        "lat": 35.542977,
        "h": 8
      },
      {
        "name": "余呉小中学校",
        "address": "滋賀県長浜市余呉町中之郷777",
        "lng": 136.203191,
        "lat": 35.549736,
        "h": 75
      }
    ]
  },
  "25206": {
    "source": "国土地理院「指定緊急避難場所データ」",
    "asOf": "2026-06-19",
    "sites": [
      {
        "name": "第四保育所",
        "address": "滋賀県草津市芦浦町310-1",
        "lng": 135.957398,
        "lat": 35.057275,
        "h": 105
      },
      {
        "name": "常盤東総合センター",
        "address": "滋賀県草津市芦浦町319-1",
        "lng": 135.957817,
        "lat": 35.057058,
        "h": 105
      },
      {
        "name": "芦浦教育集会所",
        "address": "滋賀県草津市芦浦町319-1",
        "lng": 135.95808,
        "lat": 35.056812,
        "h": 105
      },
      {
        "name": "松原中学校",
        "address": "滋賀県草津市下笠町110",
        "lng": 135.938428,
        "lat": 35.031434,
        "h": 105
      },
      {
        "name": "総合体育館",
        "address": "滋賀県草津市下笠町161",
        "lng": 135.936367,
        "lat": 35.031147,
        "h": 105
      },
      {
        "name": "南笠東まちづくりセンター",
        "address": "滋賀県草津市笠山1-1-47",
        "lng": 135.945732,
        "lat": 34.991993,
        "h": 107
      },
      {
        "name": "第三保育所",
        "address": "滋賀県草津市橋岡町202",
        "lng": 135.930736,
        "lat": 35.012029,
        "h": 105
      },
      {
        "name": "橋岡教育集会所",
        "address": "滋賀県草津市橋岡町68",
        "lng": 135.934653,
        "lat": 35.012191,
        "h": 105
      },
      {
        "name": "橋岡会館",
        "address": "滋賀県草津市橋岡町71",
        "lng": 135.934932,
        "lat": 35.011967,
        "h": 105
      },
      {
        "name": "常盤まちづくりセンター",
        "address": "滋賀県草津市志那中町111-1",
        "lng": 135.94442,
        "lat": 35.052803,
        "h": 105
      },
      {
        "name": "常盤小学校",
        "address": "滋賀県草津市志那中町119",
        "lng": 135.943487,
        "lat": 35.053288,
        "h": 105
      },
      {
        "name": "常盤こども園",
        "address": "滋賀県草津市志那中町278",
        "lng": 135.942894,
        "lat": 35.054076,
        "h": 105
      },
      {
        "name": "志津南小学校",
        "address": "滋賀県草津市若草2-16-2",
        "lng": 135.971692,
        "lat": 34.989372,
        "h": 105
      },
      {
        "name": "志津南まちづくりセンター",
        "address": "滋賀県草津市若草5-10",
        "lng": 135.969863,
        "lat": 34.985272,
        "h": 105
      },
      {
        "name": "笠縫東まちづくりセンター",
        "address": "滋賀県草津市集町58-8",
        "lng": 135.950803,
        "lat": 35.036984,
        "h": 105
      },
      {
        "name": "笠縫こども園",
        "address": "滋賀県草津市上笠1-6-1",
        "lng": 135.948172,
        "lat": 35.032504,
        "h": 105
      },
      {
        "name": "笠縫小学校",
        "address": "滋賀県草津市上笠1-6-2",
        "lng": 135.946993,
        "lat": 35.032331,
        "h": 105
      },
      {
        "name": "笠縫まちづくりセンター",
        "address": "滋賀県草津市上笠1-6-3",
        "lng": 135.947851,
        "lat": 35.032034,
        "h": 105
      },
      {
        "name": "新堂中学校",
        "address": "滋賀県草津市新堂町111",
        "lng": 135.952207,
        "lat": 35.044321,
        "h": 105
      },
      {
        "name": "綾羽高等学校",
        "address": "滋賀県草津市西渋川1-18-1",
        "lng": 135.961947,
        "lat": 35.025879,
        "h": 105
      },
      {
        "name": "渋川小学校",
        "address": "滋賀県草津市西渋川2-8-55",
        "lng": 135.96606,
        "lat": 35.030655,
        "h": 105
      },
      {
        "name": "草津東高等学校",
        "address": "滋賀県草津市西渋川2-8-65",
        "lng": 135.967092,
        "lat": 35.031595,
        "h": 105
      },
      {
        "name": "渋川まちづくりセンター",
        "address": "滋賀県草津市西渋川2-9-38",
        "lng": 135.964742,
        "lat": 35.030385,
        "h": 105
      },
      {
        "name": "高等技術専門校　（テクノカレッジ）",
        "address": "滋賀県草津市青地町1093",
        "lng": 135.970815,
        "lat": 35.00061,
        "h": 107
      },
      {
        "name": "志津まちづくりセンター",
        "address": "滋賀県草津市青地町561",
        "lng": 135.974675,
        "lat": 35.005609,
        "h": 107
      },
      {
        "name": "志津小学校",
        "address": "滋賀県草津市青地町827",
        "lng": 135.977266,
        "lat": 35.002863,
        "h": 107
      },
      {
        "name": "志津こども園",
        "address": "滋賀県草津市青地町845",
        "lng": 135.976282,
        "lat": 35.003124,
        "h": 107
      },
      {
        "name": "草津まちづくりセンター",
        "address": "滋賀県草津市草津1-4-33",
        "lng": 135.960909,
        "lat": 35.017894,
        "h": 105
      },
      {
        "name": "草津中学校",
        "address": "滋賀県草津市草津2-16-8",
        "lng": 135.963554,
        "lat": 35.01443,
        "h": 105
      },
      {
        "name": "草津中央おひさまこども園",
        "address": "滋賀県草津市草津3-13-10",
        "lng": 135.961017,
        "lat": 35.014285,
        "h": 105
      },
      {
        "name": "草津小学校",
        "address": "滋賀県草津市草津3-14-5",
        "lng": 135.961686,
        "lat": 35.013753,
        "h": 105
      },
      {
        "name": "草津第二保育所",
        "address": "滋賀県草津市草津町1350",
        "lng": 135.954325,
        "lat": 35.020173,
        "h": 105
      },
      {
        "name": "西一教育集会所",
        "address": "滋賀県草津市草津町1446-1",
        "lng": 135.954277,
        "lat": 35.019171,
        "h": 105
      },
      {
        "name": "西一会館",
        "address": "滋賀県草津市草津町1446-1",
        "lng": 135.954459,
        "lat": 35.01933,
        "h": 105
      },
      {
        "name": "ふれあい体育館",
        "address": "滋賀県草津市草津町1486-1",
        "lng": 135.950475,
        "lat": 35.019694,
        "h": 105
      },
      {
        "name": "湖南農業高等学校",
        "address": "滋賀県草津市草津町1839",
        "lng": 135.95222,
        "lat": 35.015563,
        "h": 105
      },
      {
        "name": "たちばな大路こども園",
        "address": "滋賀県草津市大路2-1-55",
        "lng": 135.966469,
        "lat": 35.020898,
        "h": 105
      },
      {
        "name": "草津第二小学校",
        "address": "滋賀県草津市大路2-7-62",
        "lng": 135.966702,
        "lat": 35.018518,
        "h": 105
      },
      {
        "name": "大路まちづくりセンター",
        "address": "滋賀県草津市大路2-9-11",
        "lng": 135.967008,
        "lat": 35.020517,
        "h": 105
      },
      {
        "name": "高穂中学校",
        "address": "滋賀県草津市追分7-6-1",
        "lng": 135.96559,
        "lat": 34.998308,
        "h": 107
      },
      {
        "name": "矢倉まちづくりセンター",
        "address": "滋賀県草津市東矢倉2-13-6",
        "lng": 135.954597,
        "lat": 35.005004,
        "h": 105
      },
      {
        "name": "南笠東小学校",
        "address": "滋賀県草津市南笠東4-4-1",
        "lng": 135.943801,
        "lat": 34.990743,
        "h": 107
      },
      {
        "name": "山田こども園",
        "address": "滋賀県草津市南山田町672-2",
        "lng": 135.932468,
        "lat": 35.024686,
        "h": 105
      },
      {
        "name": "山田まちづくりセンター",
        "address": "滋賀県草津市南山田町678",
        "lng": 135.931427,
        "lat": 35.024613,
        "h": 105
      },
      {
        "name": "武道館",
        "address": "滋賀県草津市南山田町683",
        "lng": 135.931889,
        "lat": 35.02408,
        "h": 105
      },
      {
        "name": "笠縫東小学校",
        "address": "滋賀県草津市平井3-8-1",
        "lng": 135.959997,
        "lat": 35.035182,
        "h": 105
      },
      {
        "name": "笠縫東こども園",
        "address": "滋賀県草津市平井3-8-2",
        "lng": 135.958681,
        "lat": 35.035681,
        "h": 105
      },
      {
        "name": "山田小学校",
        "address": "滋賀県草津市北山田町350",
        "lng": 135.929062,
        "lat": 35.029458,
        "h": 105
      },
      {
        "name": "新田教育集会所",
        "address": "滋賀県草津市木川町898-15",
        "lng": 135.951608,
        "lat": 35.02143,
        "h": 105
      },
      {
        "name": "新田会館",
        "address": "滋賀県草津市木川町898-3",
        "lng": 135.951405,
        "lat": 35.021573,
        "h": 105
      },
      {
        "name": "草津高等学校",
        "address": "滋賀県草津市木川町955-1",
        "lng": 135.948171,
        "lat": 35.024014,
        "h": 105
      },
      {
        "name": "ＹＭＩＴアリーナ（くさつシティアリーナ）",
        "address": "滋賀県草津市野村3-3-27",
        "lng": 135.952036,
        "lat": 35.024203,
        "h": 105
      },
      {
        "name": "草津クレアホール",
        "address": "滋賀県草津市野路6-15-11",
        "lng": 135.953952,
        "lat": 35.000495,
        "h": 105
      },
      {
        "name": "玉川小学校",
        "address": "滋賀県草津市野路9-6-12",
        "lng": 135.948186,
        "lat": 34.995468,
        "h": 105
      },
      {
        "name": "玉川こども園",
        "address": "滋賀県草津市野路9-6-63",
        "lng": 135.947305,
        "lat": 34.99547,
        "h": 105
      },
      {
        "name": "玉川まちづくりセンター",
        "address": "滋賀県草津市野路9-7-42",
        "lng": 135.949332,
        "lat": 34.994822,
        "h": 105
      },
      {
        "name": "光泉中・高等学校",
        "address": "滋賀県草津市野路町178",
        "lng": 135.944109,
        "lat": 35.008233,
        "h": 105
      },
      {
        "name": "老上小学校",
        "address": "滋賀県草津市野路町517",
        "lng": 135.936218,
        "lat": 35.004816,
        "h": 105
      },
      {
        "name": "老上まちづくりセンター",
        "address": "滋賀県草津市野路町520",
        "lng": 135.937449,
        "lat": 35.003654,
        "h": 105
      },
      {
        "name": "玉川高等学校",
        "address": "滋賀県草津市野路東3-2-1",
        "lng": 135.959969,
        "lat": 34.993896,
        "h": 105
      },
      {
        "name": "玉川中学校",
        "address": "滋賀県草津市野路東3-3-18",
        "lng": 135.959183,
        "lat": 34.993078,
        "h": 105
      },
      {
        "name": "老上こども園",
        "address": "滋賀県草津市矢橋町4",
        "lng": 135.936391,
        "lat": 35.005693,
        "h": 105
      },
      {
        "name": "老上西小学校",
        "address": "滋賀県草津市矢橋町508-1",
        "lng": 135.926593,
        "lat": 35.004041,
        "h": 105
      },
      {
        "name": "老上西まちづくりセンター",
        "address": "滋賀県草津市矢橋町526-1",
        "lng": 135.926615,
        "lat": 35.003717,
        "h": 105
      },
      {
        "name": "老上中学校",
        "address": "滋賀県草津市矢橋町7-1",
        "lng": 135.935977,
        "lat": 35.005588,
        "h": 105
      },
      {
        "name": "矢橋ふたばこども園",
        "address": "滋賀県草津市矢橋町888-1",
        "lng": 135.923729,
        "lat": 35.005067,
        "h": 105
      },
      {
        "name": "矢倉こども園",
        "address": "滋賀県草津市矢倉2-5-21",
        "lng": 135.951834,
        "lat": 35.005499,
        "h": 105
      },
      {
        "name": "矢倉小学校",
        "address": "滋賀県草津市矢倉2-5-50",
        "lng": 135.951573,
        "lat": 35.004783,
        "h": 105
      }
    ]
  },
  "25207": {
    "source": "国土地理院「指定緊急避難場所データ」",
    "asOf": "2026-06-19",
    "sites": [
      {
        "name": "ダイハツディーゼル㈱　守山事業所　グラウンド",
        "address": "滋賀県守山市阿村町45",
        "lng": 135.996729,
        "lat": 35.040308,
        "h": 9
      },
      {
        "name": "焔魔堂公園（えんまどう公園）",
        "address": "滋賀県守山市焔魔堂町280",
        "lng": 135.984413,
        "lat": 35.051094,
        "h": 8
      },
      {
        "name": "県立守山北高等学校",
        "address": "滋賀県守山市笠原町1263",
        "lng": 135.98696,
        "lat": 35.094033,
        "h": 9
      },
      {
        "name": "もりやまエコパーク交流拠点施設（多目的ホールおよび駐車場）",
        "address": "滋賀県守山市環境学習都市宣言記念公園1-1",
        "lng": 135.972171,
        "lat": 35.109632,
        "h": 8
      },
      {
        "name": "吉身小学校",
        "address": "滋賀県守山市吉身3-2-26",
        "lng": 135.998033,
        "lat": 35.057917,
        "h": 9
      },
      {
        "name": "吉身幼稚園",
        "address": "滋賀県守山市吉身3-2-51",
        "lng": 135.996725,
        "lat": 35.058853,
        "h": 8
      },
      {
        "name": "吉身会館",
        "address": "滋賀県守山市吉身3-2-8",
        "lng": 135.997253,
        "lat": 35.057749,
        "h": 9
      },
      {
        "name": "センコー㈱守山ＰＤセンター３号倉庫庇の下部敷地",
        "address": "滋賀県守山市吉身5-6-7",
        "lng": 136.004401,
        "lat": 35.057362,
        "h": 8
      },
      {
        "name": "守山南中学校",
        "address": "滋賀県守山市古高町357",
        "lng": 135.980873,
        "lat": 35.053692,
        "h": 9
      },
      {
        "name": "中洲会館",
        "address": "滋賀県守山市幸津川町1043-5",
        "lng": 135.986216,
        "lat": 35.109119,
        "h": 8
      },
      {
        "name": "中洲小学校",
        "address": "滋賀県守山市幸津川町1406",
        "lng": 135.985286,
        "lat": 35.109676,
        "h": 8
      },
      {
        "name": "中洲こども園",
        "address": "滋賀県守山市幸津川町1406",
        "lng": 135.984608,
        "lat": 35.109839,
        "h": 8
      },
      {
        "name": "守山北中学校",
        "address": "滋賀県守山市荒見町235",
        "lng": 135.981765,
        "lat": 35.082179,
        "h": 9
      },
      {
        "name": "河西会館",
        "address": "滋賀県守山市今市町160",
        "lng": 135.989389,
        "lat": 35.080036,
        "h": 9
      },
      {
        "name": "河西幼稚園",
        "address": "滋賀県守山市今市町25-1",
        "lng": 135.991935,
        "lat": 35.079773,
        "h": 8
      },
      {
        "name": "守山会館",
        "address": "滋賀県守山市今宿2-5-15",
        "lng": 135.986847,
        "lat": 35.050649,
        "h": 9
      },
      {
        "name": "ピエリ守山駐車場",
        "address": "滋賀県守山市今浜町2620-5",
        "lng": 135.94643,
        "lat": 35.122648,
        "h": 8
      },
      {
        "name": "美崎公園",
        "address": "滋賀県守山市今浜町2870-2",
        "lng": 135.954041,
        "lat": 35.12023,
        "h": 8
      },
      {
        "name": "県立守山中学校・高等学校",
        "address": "滋賀県守山市守山3-12-34",
        "lng": 135.985908,
        "lat": 35.05971,
        "h": 9
      },
      {
        "name": "守山町公園（守山ふれあい公園）",
        "address": "滋賀県守山市守山4-15-18",
        "lng": 135.990525,
        "lat": 35.061884,
        "h": 9
      },
      {
        "name": "北公民館",
        "address": "滋賀県守山市洲本町1353-2",
        "lng": 135.971629,
        "lat": 35.090153,
        "h": 9
      },
      {
        "name": "守山小学校",
        "address": "滋賀県守山市勝部1-13-1",
        "lng": 135.991119,
        "lat": 35.053446,
        "h": 9
      },
      {
        "name": "守山幼稚園",
        "address": "滋賀県守山市勝部1-13-1",
        "lng": 135.991194,
        "lat": 35.053833,
        "h": 8
      },
      {
        "name": "生活協同組合コープしが　指定駐車場",
        "address": "滋賀県守山市勝部3-15-30",
        "lng": 135.988758,
        "lat": 35.046812,
        "h": 8
      },
      {
        "name": "生涯学習・教育支援センター",
        "address": "滋賀県守山市勝部3-9-1",
        "lng": 135.986714,
        "lat": 35.04795,
        "h": 9
      },
      {
        "name": "日本バイリーン㈱滋賀工場　駐車場",
        "address": "滋賀県守山市勝部4-1-11",
        "lng": 135.991193,
        "lat": 35.045526,
        "h": 8
      },
      {
        "name": "東レ・ファインケミカル㈱　守山事業場",
        "address": "滋賀県守山市勝部6-1-1",
        "lng": 135.997346,
        "lat": 35.049388,
        "h": 8
      },
      {
        "name": "㈱三社電機滋賀工場前庭駐車場",
        "address": "滋賀県守山市勝部町452-1",
        "lng": 135.996601,
        "lat": 35.045857,
        "h": 8
      },
      {
        "name": "安全索道㈱　前庭駐車場",
        "address": "滋賀県守山市勝部町471-5",
        "lng": 135.997463,
        "lat": 35.045669,
        "h": 8
      },
      {
        "name": "河西小学校",
        "address": "滋賀県守山市小島町1843",
        "lng": 135.99331,
        "lat": 35.078855,
        "h": 9
      },
      {
        "name": "速野会館",
        "address": "滋賀県守山市水保町2236",
        "lng": 135.958476,
        "lat": 35.100328,
        "h": 9
      },
      {
        "name": "速野幼稚園",
        "address": "滋賀県守山市水保町2399-1",
        "lng": 135.960298,
        "lat": 35.101419,
        "h": 8
      },
      {
        "name": "明富中学校",
        "address": "滋賀県守山市水保町3045-1",
        "lng": 135.96632,
        "lat": 35.102205,
        "h": 9
      },
      {
        "name": "㈱ローズユニバース",
        "address": "滋賀県守山市杉江町1465",
        "lng": 135.951596,
        "lat": 35.076858,
        "h": 8
      },
      {
        "name": "守山中学校",
        "address": "滋賀県守山市石田町350",
        "lng": 135.98247,
        "lat": 35.068302,
        "h": 9
      },
      {
        "name": "老人憩いの家",
        "address": "滋賀県守山市石田町735-3",
        "lng": 135.972832,
        "lat": 35.074715,
        "h": 8
      },
      {
        "name": "玉津こども園",
        "address": "滋賀県守山市赤野井町39-3",
        "lng": 135.97134,
        "lat": 35.076756,
        "h": 9
      },
      {
        "name": "玉津小学校",
        "address": "滋賀県守山市赤野井町9-1",
        "lng": 135.971507,
        "lat": 35.077788,
        "h": 9
      },
      {
        "name": "ワコール流通（株）西日本流通センター南駐車場",
        "address": "滋賀県守山市千代町1-1",
        "lng": 135.999369,
        "lat": 35.043681,
        "h": 8
      },
      {
        "name": "富士車輛㈱　前庭駐車場",
        "address": "滋賀県守山市千代町13-1",
        "lng": 135.999249,
        "lat": 35.044756,
        "h": 8
      },
      {
        "name": "一本松会館",
        "address": "滋賀県守山市川田町230",
        "lng": 136.003699,
        "lat": 35.076604,
        "h": 8
      },
      {
        "name": "物部小学校",
        "address": "滋賀県守山市二町町252",
        "lng": 135.979835,
        "lat": 35.048093,
        "h": 9
      },
      {
        "name": "物部幼稚園",
        "address": "滋賀県守山市二町町253",
        "lng": 135.979578,
        "lat": 35.047012,
        "h": 9
      },
      {
        "name": "鳩の森公園",
        "address": "滋賀県守山市播磨田町",
        "lng": 135.995696,
        "lat": 35.070304,
        "h": 8
      },
      {
        "name": "スーパーバロー守山東店",
        "address": "滋賀県守山市浮気361",
        "lng": 135.999272,
        "lat": 35.051695,
        "h": 57
      },
      {
        "name": "守山駅前東口スポーツ広場",
        "address": "滋賀県守山市浮気町300-14",
        "lng": 135.998009,
        "lat": 35.051557,
        "h": 8
      },
      {
        "name": "ライズヴィル都賀山",
        "address": "滋賀県守山市浮気町300-24",
        "lng": 135.997694,
        "lat": 35.051233,
        "h": 9
      },
      {
        "name": "埋蔵文化財センター",
        "address": "滋賀県守山市服部町1318",
        "lng": 135.992451,
        "lat": 35.107993,
        "h": 9
      },
      {
        "name": "野洲川歴史公園サッカー場",
        "address": "滋賀県守山市服部町2439",
        "lng": 135.991936,
        "lat": 35.109379,
        "h": 9
      },
      {
        "name": "速野小学校",
        "address": "滋賀県守山市木浜町112",
        "lng": 135.960453,
        "lat": 35.100029,
        "h": 9
      },
      {
        "name": "地域総合センター",
        "address": "滋賀県守山市矢島町3091",
        "lng": 135.970769,
        "lat": 35.079329,
        "h": 9
      },
      {
        "name": "玉津会館",
        "address": "滋賀県守山市矢島町3091",
        "lng": 135.970903,
        "lat": 35.079264,
        "h": 9
      },
      {
        "name": "小津小学校",
        "address": "滋賀県守山市欲賀町853",
        "lng": 135.963028,
        "lat": 35.059898,
        "h": 9
      },
      {
        "name": "小津こども園",
        "address": "滋賀県守山市欲賀町879",
        "lng": 135.963545,
        "lat": 35.060318,
        "h": 9
      },
      {
        "name": "小津会館",
        "address": "滋賀県守山市欲賀町901-1",
        "lng": 135.964039,
        "lat": 35.059908,
        "h": 9
      },
      {
        "name": "立入が丘小学校",
        "address": "滋賀県守山市立入町222",
        "lng": 136.003317,
        "lat": 35.053813,
        "h": 9
      },
      {
        "name": "立入が丘幼稚園",
        "address": "滋賀県守山市立入町226-1",
        "lng": 136.004768,
        "lat": 35.054359,
        "h": 8
      }
    ]
  },
  "25208": {
    "source": "国土地理院「指定緊急避難場所データ」",
    "asOf": "2026-06-19",
    "sites": [
      {
        "name": "栗東市立治田東小学校",
        "address": "滋賀県栗東市安養寺147",
        "lng": 136.003236,
        "lat": 35.015947,
        "h": 9
      },
      {
        "name": "栗東市総合福祉保健センター（なごやかセンター）・栗東市立治田東児童館",
        "address": "滋賀県栗東市安養寺190",
        "lng": 136.004095,
        "lat": 35.017607,
        "h": 11
      },
      {
        "name": "コミュニティセンター治田東",
        "address": "滋賀県栗東市安養寺205",
        "lng": 136.002924,
        "lat": 35.017684,
        "h": 11
      },
      {
        "name": "学習支援センター",
        "address": "滋賀県栗東市安養寺3-1-1",
        "lng": 136.002314,
        "lat": 35.021619,
        "h": 11
      },
      {
        "name": "栗東市立栗東中学校",
        "address": "滋賀県栗東市安養寺6-6-15",
        "lng": 135.995391,
        "lat": 35.01928,
        "h": 11
      },
      {
        "name": "栗東市立治田東こども園",
        "address": "滋賀県栗東市安養寺6-7-12",
        "lng": 135.996374,
        "lat": 35.019891,
        "h": 11
      },
      {
        "name": "栗東市立治田東こども園",
        "address": "滋賀県栗東市安養寺6-7-12",
        "lng": 135.995816,
        "lat": 35.019792,
        "h": 11
      },
      {
        "name": "栗東市立金勝第２保育園",
        "address": "滋賀県栗東市御園1028",
        "lng": 136.014217,
        "lat": 35.002754,
        "h": 11
      },
      {
        "name": "ＪＲＡ・トレセン厚生会館",
        "address": "滋賀県栗東市御園1028",
        "lng": 136.014248,
        "lat": 35.001029,
        "h": 11
      },
      {
        "name": "栗東市立金勝小学校",
        "address": "滋賀県栗東市御園911-1",
        "lng": 136.023605,
        "lat": 34.996857,
        "h": 11
      },
      {
        "name": "コミュニティセンター金勝",
        "address": "滋賀県栗東市御園982",
        "lng": 136.02252,
        "lat": 34.996947,
        "h": 11
      },
      {
        "name": "栗東市立金勝児童館",
        "address": "滋賀県栗東市御園983",
        "lng": 136.023162,
        "lat": 34.99757,
        "h": 11
      },
      {
        "name": "荒張スポーツ広場",
        "address": "滋賀県栗東市荒張669",
        "lng": 136.022955,
        "lat": 34.988606,
        "h": 8
      },
      {
        "name": "栗東市立葉山幼児園（幼稚園）",
        "address": "滋賀県栗東市高野289",
        "lng": 136.012778,
        "lat": 35.033033,
        "h": 11
      },
      {
        "name": "栗東市立葉山幼児園（保育園）",
        "address": "滋賀県栗東市高野289",
        "lng": 136.012375,
        "lat": 35.033169,
        "h": 10
      },
      {
        "name": "栗東市立葉山小学校",
        "address": "滋賀県栗東市高野310",
        "lng": 136.013927,
        "lat": 35.032996,
        "h": 11
      },
      {
        "name": "栗東市立葉山児童館",
        "address": "滋賀県栗東市高野568-1",
        "lng": 136.012825,
        "lat": 35.035309,
        "h": 10
      },
      {
        "name": "コミュニティセンター葉山",
        "address": "滋賀県栗東市高野622-1",
        "lng": 136.013316,
        "lat": 35.03552,
        "h": 11
      },
      {
        "name": "高野公園",
        "address": "滋賀県栗東市高野727",
        "lng": 136.019192,
        "lat": 35.035556,
        "h": 8
      },
      {
        "name": "栗東市ひだまりの家",
        "address": "滋賀県栗東市十里399-3",
        "lng": 135.961908,
        "lat": 35.047083,
        "h": 11
      },
      {
        "name": "栗東市立大宝西保育園",
        "address": "滋賀県栗東市十里400",
        "lng": 135.961951,
        "lat": 35.046803,
        "h": 11
      },
      {
        "name": "十里体育館",
        "address": "滋賀県栗東市十里405-1",
        "lng": 135.961077,
        "lat": 35.046493,
        "h": 11
      },
      {
        "name": "野洲川体育館",
        "address": "滋賀県栗東市出庭2083",
        "lng": 136.011711,
        "lat": 35.047592,
        "h": 10
      },
      {
        "name": "栗東市やすらぎの家",
        "address": "滋賀県栗東市出庭700-1",
        "lng": 136.004101,
        "lat": 35.036574,
        "h": 11
      },
      {
        "name": "治田西スポーツセンター",
        "address": "滋賀県栗東市小柿1-1-11",
        "lng": 135.978579,
        "lat": 35.026088,
        "h": 11
      },
      {
        "name": "栗東市ゆうあいの家・治田西児童館",
        "address": "滋賀県栗東市小柿1-10-10",
        "lng": 135.977381,
        "lat": 35.027236,
        "h": 11
      },
      {
        "name": "栗東市立治田西小学校",
        "address": "滋賀県栗東市小柿1-5-21",
        "lng": 135.974742,
        "lat": 35.025702,
        "h": 11
      },
      {
        "name": "コミュニティセンター治田西",
        "address": "滋賀県栗東市小柿5-1-8",
        "lng": 135.974906,
        "lat": 35.025155,
        "h": 11
      },
      {
        "name": "栗東市立葉山東小学校",
        "address": "滋賀県栗東市小野320",
        "lng": 136.013687,
        "lat": 35.023099,
        "h": 11
      },
      {
        "name": "滋賀県立国際情報高等学校",
        "address": "滋賀県栗東市小野36",
        "lng": 136.018409,
        "lat": 35.017657,
        "h": 11
      },
      {
        "name": "栗東市立葉山東幼児園（幼稚園）",
        "address": "滋賀県栗東市小野465-1",
        "lng": 136.012157,
        "lat": 35.02305,
        "h": 11
      },
      {
        "name": "栗東市立葉山東幼児園（保育園）",
        "address": "滋賀県栗東市小野465-1",
        "lng": 136.012618,
        "lat": 35.023617,
        "h": 11
      },
      {
        "name": "栗東市立葉山東児童館",
        "address": "滋賀県栗東市小野480-1",
        "lng": 136.011488,
        "lat": 35.023181,
        "h": 11
      },
      {
        "name": "滋賀県立栗東高等学校",
        "address": "滋賀県栗東市小野618",
        "lng": 136.006614,
        "lat": 35.022528,
        "h": 11
      },
      {
        "name": "栗東市民体育館",
        "address": "滋賀県栗東市川辺390-1",
        "lng": 135.991545,
        "lat": 35.016858,
        "h": 11
      },
      {
        "name": "滋賀県立聾話学校",
        "address": "滋賀県栗東市川辺664",
        "lng": 135.992544,
        "lat": 35.02089,
        "h": 11
      },
      {
        "name": "栗東市立治田西幼児園（保育園）",
        "address": "滋賀県栗東市中沢1-4-22",
        "lng": 135.975697,
        "lat": 35.026938,
        "h": 3
      },
      {
        "name": "栗東市立治田西幼児園（幼稚園）",
        "address": "滋賀県栗東市中沢1-6-3",
        "lng": 135.975142,
        "lat": 35.027031,
        "h": 3
      },
      {
        "name": "コミュニティセンター治田",
        "address": "滋賀県栗東市坊袋161-1",
        "lng": 135.983681,
        "lat": 35.019647,
        "h": 11
      },
      {
        "name": "栗東市立治田保育園",
        "address": "滋賀県栗東市坊袋162",
        "lng": 135.983245,
        "lat": 35.019426,
        "h": 10
      },
      {
        "name": "栗東市立治田小学校",
        "address": "滋賀県栗東市坊袋77",
        "lng": 135.983995,
        "lat": 35.018925,
        "h": 11
      },
      {
        "name": "栗東市立治田児童館",
        "address": "滋賀県栗東市目川871-1",
        "lng": 135.981541,
        "lat": 35.019379,
        "h": 10
      },
      {
        "name": "栗東市立治田幼稚園",
        "address": "滋賀県栗東市目川871-2",
        "lng": 135.981302,
        "lat": 35.019782,
        "h": 10
      },
      {
        "name": "栗東市立大宝東小学校",
        "address": "滋賀県栗東市野尻502-1",
        "lng": 135.987794,
        "lat": 35.037946,
        "h": 11
      },
      {
        "name": "大宝カナリヤ保育園",
        "address": "滋賀県栗東市野尻584",
        "lng": 135.985711,
        "lat": 35.035837,
        "h": 10
      },
      {
        "name": "栗東市立大宝西小学校",
        "address": "滋賀県栗東市霊仙寺4-2-55",
        "lng": 135.966649,
        "lat": 35.042095,
        "h": 11
      },
      {
        "name": "コミュニティセンター大宝西",
        "address": "滋賀県栗東市霊仙寺4-2-63",
        "lng": 135.967824,
        "lat": 35.041967,
        "h": 11
      },