{
  "22100": {
    "source": "国土地理院「指定緊急避難場所データ」",
    "asOf": "2026-06-19",
    "sites": [
      {
        "name": "安西小学校",
        "address": "静岡県静岡市葵区安西1-96-3",
        "lng": 138.374022,
        "lat": 34.981113,
        "h": 75
      },
      {
        "name": "安東こども園",
        "address": "静岡県静岡市葵区安東3-11-17",
        "lng": 138.384034,
        "lat": 34.99163,
        "h": 8
      },
      {
        "name": "安東中学校",
        "address": "静岡県静岡市葵区安東3-13-1",
        "lng": 138.384517,
        "lat": 34.992996,
        "h": 8
      },
      {
        "name": "安東小学校",
        "address": "静岡県静岡市葵区安東3-16-1",
        "lng": 138.383409,
        "lat": 34.99172,
        "h": 75
      },
      {
        "name": "安東公園",
        "address": "静岡県静岡市葵区安東１－３０９外",
        "lng": 138.386722,
        "lat": 34.985224,
        "h": 8
      },
      {
        "name": "安倍口小学校",
        "address": "静岡県静岡市葵区安倍口新田50",
        "lng": 138.3599,
        "lat": 35.022324,
        "h": 75
      },
      {
        "name": "安倍口スポーツ広場",
        "address": "静岡県静岡市葵区安倍口新田字大島３０１地先",
        "lng": 138.366007,
        "lat": 35.020053,
        "h": 8
      },
      {
        "name": "安倍口中央こども園",
        "address": "静岡県静岡市葵区安倍口団地3-1",
        "lng": 138.36466,
        "lat": 35.020367,
        "h": 8
      },
      {
        "name": "井川小中学校",
        "address": "静岡県静岡市葵区井川1561-3",
        "lng": 138.235346,
        "lat": 35.219197,
        "h": 8
      },
      {
        "name": "井川こども園",
        "address": "静岡県静岡市葵区井川548-1",
        "lng": 138.238751,
        "lat": 35.221305,
        "h": 8
      },
      {
        "name": "井川生涯学習交流館",
        "address": "静岡県静岡市葵区井川656-2",
        "lng": 138.241253,
        "lat": 35.221644,
        "h": 67
      },
      {
        "name": "特別支援教育センター",
        "address": "静岡県静岡市葵区一番町50",
        "lng": 138.372857,
        "lat": 34.97631,
        "h": 73
      },
      {
        "name": "服織中学校",
        "address": "静岡県静岡市葵区羽鳥1-8-1",
        "lng": 138.344345,
        "lat": 34.980987,
        "h": 8
      },
      {
        "name": "服織小学校",
        "address": "静岡県静岡市葵区羽鳥6-9-1",
        "lng": 138.336511,
        "lat": 34.985628,
        "h": 75
      },
      {
        "name": "服織中央こども園",
        "address": "静岡県静岡市葵区羽鳥本町25-33",
        "lng": 138.330193,
        "lat": 34.986359,
        "h": 8
      },
      {
        "name": "美和小学校",
        "address": "静岡県静岡市葵区遠藤新田69-1",
        "lng": 138.368495,
        "lat": 35.029747,
        "h": 75
      },
      {
        "name": "横山スポーツ広場",
        "address": "静岡県静岡市葵区横山２１９地先外",
        "lng": 138.368202,
        "lat": 35.132191,
        "h": 8
      },
      {
        "name": "清水山公園",
        "address": "静岡県静岡市葵区音羽町1-2",
        "lng": 138.395909,
        "lat": 34.979872,
        "h": 8
      },
      {
        "name": "賤機中学校",
        "address": "静岡県静岡市葵区下1353-1",
        "lng": 138.377087,
        "lat": 35.031515,
        "h": 8
      },
      {
        "name": "下スポーツ広場",
        "address": "静岡県静岡市葵区下１４９２－１地先",
        "lng": 138.376068,
        "lat": 35.037018,
        "h": 8
      },
      {
        "name": "観山中学校",
        "address": "静岡県静岡市葵区観山8-2",
        "lng": 138.393577,
        "lat": 35.013276,
        "h": 8
      },
      {
        "name": "南藁科小学校",
        "address": "静岡県静岡市葵区吉津400",
        "lng": 138.315103,
        "lat": 34.979462,
        "h": 75
      },
      {
        "name": "浅間神社",
        "address": "静岡県静岡市葵区宮ケ崎町102-1",
        "lng": 138.375791,
        "lat": 34.98331,
        "h": 8
      },
      {
        "name": "賤機中小学校",
        "address": "静岡県静岡市葵区牛妻2095-2",
        "lng": 138.370214,
        "lat": 35.06415,
        "h": 75
      },
      {
        "name": "新通小学校",
        "address": "静岡県静岡市葵区駒形通2-4-47",
        "lng": 138.377107,
        "lat": 34.970186,
        "h": 73
      },
      {
        "name": "新通公園",
        "address": "静岡県静岡市葵区駒形通2-6-9",
        "lng": 138.376595,
        "lat": 34.969114,
        "h": 8
      },
      {
        "name": "駒形第二公園",
        "address": "静岡県静岡市葵区駒形通4-12-1",
        "lng": 138.37653,
        "lat": 34.965595,
        "h": 8
      },
      {
        "name": "東中学校",
        "address": "静岡県静岡市葵区沓谷1-6-1",
        "lng": 138.39708,
        "lat": 34.985911,
        "h": 8
      },
      {
        "name": "旧陸軍墓地",
        "address": "静岡県静岡市葵区沓谷2-53",
        "lng": 138.400432,
        "lat": 34.988395,
        "h": 8
      },
      {
        "name": "千代田小学校",
        "address": "静岡県静岡市葵区沓谷5-47-1",
        "lng": 138.406883,
        "lat": 34.995814,
        "h": 75
      },
      {
        "name": "沓谷東公園",
        "address": "静岡県静岡市葵区沓谷6-23",
        "lng": 138.413715,
        "lat": 34.996516,
        "h": 8
      },
      {
        "name": "沓谷第一公園",
        "address": "静岡県静岡市葵区沓谷6-4",
        "lng": 138.40989,
        "lat": 34.994152,
        "h": 8
      },
      {
        "name": "建穂みどり公園",
        "address": "静岡県静岡市葵区建穂746-1",
        "lng": 138.337411,
        "lat": 34.987976,
        "h": 8
      },
      {
        "name": "清沢避難所（東小学校跡地）",
        "address": "静岡県静岡市葵区鍵穴723-1",
        "lng": 138.246745,
        "lat": 35.048558,
        "h": 8
      },
      {
        "name": "県立静岡農業高等学校",
        "address": "静岡県静岡市葵区古庄3-1-1",
        "lng": 138.416332,
        "lat": 34.994265,
        "h": 8
      },
      {
        "name": "古庄中央公園",
        "address": "静岡県静岡市葵区古庄3-505-2",
        "lng": 138.417787,
        "lat": 34.995474,
        "h": 8
      },
      {
        "name": "上土こども園",
        "address": "静岡県静岡市葵区古庄4-2-11",
        "lng": 138.415984,
        "lat": 34.999006,
        "h": 8
      },
      {
        "name": "口坂本避難所",
        "address": "静岡県静岡市葵区口坂本544",
        "lng": 138.275064,
        "lat": 35.184141,
        "h": 8
      },
      {
        "name": "口仙俣分校跡地",
        "address": "静岡県静岡市葵区口仙俣356-1",
        "lng": 138.31803,
        "lat": 35.188562,
        "h": 8
      },
      {
        "name": "黒俣中村公民館",
        "address": "静岡県静岡市葵区黒俣",
        "lng": 138.214435,
        "lat": 35.033084,
        "h": 8
      },
      {
        "name": "旧峰山小学校",
        "address": "静岡県静岡市葵区黒俣2741-16",
        "lng": 138.206665,
        "lat": 35.068685,
        "h": 8
      },
      {
        "name": "伝馬町新田スポーツ広場",
        "address": "静岡県静岡市葵区桜町１－９３２－２３２地先",
        "lng": 138.360391,
        "lat": 34.989807,
        "h": 8
      },
      {
        "name": "桜町スポーツ広場",
        "address": "静岡県静岡市葵区桜町２－９８７地先",
        "lng": 138.359779,
        "lat": 34.997908,
        "h": 8
      },
      {
        "name": "服織こども園",
        "address": "静岡県静岡市葵区山崎1-17-1",
        "lng": 138.353796,
        "lat": 34.975716,
        "h": 8
      },
      {
        "name": "山崎新田スポーツ広場",
        "address": "静岡県静岡市葵区山崎１－４－３０地先",
        "lng": 138.356252,
        "lat": 34.9777,
        "h": 8
      },
      {
        "name": "静岡斎場",
        "address": "静岡県静岡市葵区慈悲尾472-1",
        "lng": 138.351934,
        "lat": 34.994954,
        "h": 8
      },
      {
        "name": "堤町緑地スポーツ広場",
        "address": "静岡県静岡市葵区秋山町３３５－４１１地先",
        "lng": 138.359867,
        "lat": 35.00091,
        "h": 8
      },
      {
        "name": "住吉公園",
        "address": "静岡県静岡市葵区住吉町2-53",
        "lng": 138.373129,
        "lat": 34.976117,
        "h": 8
      },
      {
        "name": "駿府城公園",
        "address": "静岡県静岡市葵区駿府城公園1-1",
        "lng": 138.382262,
        "lat": 34.978724,
        "h": 40
      },
      {
        "name": "城内中学校",
        "address": "静岡県静岡市葵区駿府町1-107",
        "lng": 138.385799,
        "lat": 34.977003,
        "h": 73
      },
      {
        "name": "静岡大学付属静岡中学校",
        "address": "静岡県静岡市葵区駿府町1-86",
        "lng": 138.386389,
        "lat": 34.979096,
        "h": 8
      },
      {
        "name": "静岡大学附属静岡小学校",
        "address": "静岡県静岡市葵区駿府町1-94",
        "lng": 138.385641,
        "lat": 34.97778,
        "h": 8
      },
      {
        "name": "中藁科小学校小布杉分校",
        "address": "静岡県静岡市葵区小布杉1756-1",
        "lng": 138.243548,
        "lat": 34.998441,
        "h": 8
      },
      {
        "name": "賤機南小学校",
        "address": "静岡県静岡市葵区松富3-1-46",
        "lng": 138.374693,
        "lat": 35.014492,
        "h": 75
      },
      {
        "name": "松野小学校",
        "address": "静岡県静岡市葵区松野598-2",
        "lng": 138.367225,
        "lat": 35.076736,
        "h": 75
      },
      {
        "name": "井宮北小学校",
        "address": "静岡県静岡市葵区上伝馬2-1",
        "lng": 138.368706,
        "lat": 35.004699,
        "h": 75
      },
      {
        "name": "川合本田公園",
        "address": "静岡県静岡市葵区上土1-1297-1",
        "lng": 138.41359,
        "lat": 35.001406,
        "h": 8
      },
      {
        "name": "城東公園",
        "address": "静岡県静岡市葵区城東町11",
        "lng": 138.388993,
        "lat": 34.984621,
        "h": 8
      },
      {
        "name": "城東保健福祉エリア",
        "address": "静岡県静岡市葵区城東町24-1",
        "lng": 138.38738,
        "lat": 34.986326,
        "h": 8
      },
      {
        "name": "青木の杜公園",
        "address": "静岡県静岡市葵区城東町54",
        "lng": 138.39024,
        "lat": 34.987888,
        "h": 8
      },
      {
        "name": "葵小学校",
        "address": "静岡県静岡市葵区城内町7-9",
        "lng": 138.382599,
        "lat": 34.982164,
        "h": 75
      },
      {
        "name": "県立静岡中央高等学校",
        "address": "静岡県静岡市葵区城北2-29-1",
        "lng": 138.392946,
        "lat": 35.005136,
        "h": 8
      },
      {
        "name": "常磐公園",
        "address": "静岡県静岡市葵区常磐町3-3-1",
        "lng": 138.380495,
        "lat": 34.970033,
        "h": 8
      },
      {
        "name": "新間宮前スポーツ広場",
        "address": "静岡県静岡市葵区新間1435",
        "lng": 138.308782,
        "lat": 34.996858,
        "h": 8
      },
      {
        "name": "服織西小学校",
        "address": "静岡県静岡市葵区新間759-1-1",
        "lng": 138.307652,
        "lat": 34.994387,
        "h": 75
      },
      {
        "name": "番町小学校",
        "address": "静岡県静岡市葵区新富町1-23-1",
        "lng": 138.369233,
        "lat": 34.975194,
        "h": 73
      },
      {
        "name": "旧水見色小学校",
        "address": "静岡県静岡市葵区水見色1040-3",
        "lng": 138.294519,
        "lat": 35.038285,
        "h": 8
      },
      {
        "name": "常葉大学",
        "address": "静岡県静岡市葵区瀬名1-22-1",
        "lng": 138.426224,
        "lat": 35.013493,
        "h": 8
      },
      {
        "name": "常葉学園橘中学・高等学校",
        "address": "静岡県静岡市葵区瀬名2-1-1",
        "lng": 138.417203,
        "lat": 35.013712,
        "h": 8
      },
      {
        "name": "西奈小学校",
        "address": "静岡県静岡市葵区瀬名3-23-1",
        "lng": 138.422109,
        "lat": 35.023427,
        "h": 75
      },
      {
        "name": "瀬名水梨スポーツ広場",
        "address": "静岡県静岡市葵区瀬名4-1458-5",
        "lng": 138.418473,
        "lat": 35.022631,
        "h": 8
      },
      {
        "name": "静岡北高等学校",
        "address": "静岡県静岡市葵区瀬名5-14-1",
        "lng": 138.422083,
        "lat": 35.025948,
        "h": 8
      },
      {
        "name": "新幕公園",
        "address": "静岡県静岡市葵区瀬名6-4066",
        "lng": 138.424563,
        "lat": 35.028047,
        "h": 8
      },
      {
        "name": "竜爪中学校",
        "address": "静岡県静岡市葵区瀬名7-31-40",
        "lng": 138.424133,
        "lat": 35.030146,
        "h": 8
      },
      {
        "name": "瀬名川こども園",
        "address": "静岡県静岡市葵区瀬名川1-21-40",
        "lng": 138.426953,
        "lat": 35.004743,
        "h": 8
      },
      {
        "name": "瀬名川西公園",
        "address": "静岡県静岡市葵区瀬名川1-8",
        "lng": 138.423739,
        "lat": 35.00231,
        "h": 8
      },
      {
        "name": "西ヶ谷総合運動場",
        "address": "静岡県静岡市葵区西ヶ谷8-1",
        "lng": 138.352883,
        "lat": 35.013055,
        "h": 8
      },
      {
        "name": "西草深公園",
        "address": "静岡県静岡市葵区西草深町27-9",
        "lng": 138.376928,
        "lat": 34.983416,
        "h": 8
      },
      {
        "name": "静岡英和女学院中学・高等学校",
        "address": "静岡県静岡市葵区西草深町8-1",
        "lng": 138.37941,
        "lat": 34.982047,
        "h": 8
      },
      {
        "name": "千代スポーツ広場",
        "address": "静岡県静岡市葵区千代２－７６８－３地先",
        "lng": 138.355618,
        "lat": 34.981506,
        "h": 8
      },
      {
        "name": "市立高等学校",
        "address": "静岡県静岡市葵区千代田3-1-1",
        "lng": 138.398896,
        "lat": 34.993145,
        "h": 8
      },
      {
        "name": "県立静岡東高等学校",
        "address": "静岡県静岡市葵区川合3-24-1",
        "lng": 138.413196,
        "lat": 35.009324,
        "h": 8
      },
      {
        "name": "千代田東小学校",
        "address": "静岡県静岡市葵区川合3-4-1",
        "lng": 138.413792,
        "lat": 35.005713,
        "h": 75
      },
      {
        "name": "旧清沢小学校",
        "address": "静岡県静岡市葵区相俣99-1",
        "lng": 138.245495,
        "lat": 35.033118,
        "h": 8
      },
      {
        "name": "旧足久保小学校",
        "address": "静岡県静岡市葵区足久保奥組741-1",
        "lng": 138.338195,
        "lat": 35.060927,
        "h": 8
      },
      {
        "name": "美和中学校",
        "address": "静岡県静岡市葵区足久保口組3276-2",
        "lng": 138.36775,
        "lat": 35.043743,
        "h": 75
      },
      {
        "name": "足久保スポーツ広場",
        "address": "静岡県静岡市葵区足久保口組谷口３２７６－３地先",
        "lng": 138.356564,
        "lat": 35.045278,
        "h": 8
      },
      {
        "name": "城北公園",
        "address": "静岡県静岡市葵区大岩本町29",
        "lng": 138.378446,
        "lat": 34.989174,
        "h": 40
      },
      {
        "name": "中藁科こども園",
        "address": "静岡県静岡市葵区大原1237",
        "lng": 138.278715,
        "lat": 35.007529,
        "h": 8
      },
      {
        "name": "藁科中学校",
        "address": "静岡県静岡市葵区大原1398-1",
        "lng": 138.281882,
        "lat": 35.009195,
        "h": 8
      },
      {
        "name": "中藁科小学校",
        "address": "静岡県静岡市葵区大原942-1",
        "lng": 138.27605,
        "lat": 35.009656,
        "h": 75
      },
      {
        "name": "静岡大成中学・高等学校",
        "address": "静岡県静岡市葵区鷹匠2-4-18",
        "lng": 138.388744,
        "lat": 34.978228,
        "h": 8
      },
      {
        "name": "鷹匠公園",
        "address": "静岡県静岡市葵区鷹匠3-15",
        "lng": 138.390667,
        "lat": 34.980023,
        "h": 8
      },
      {
        "name": "辰起町スポーツ広場　安倍川（左岸）",
        "address": "静岡県静岡市葵区辰起町２０－４地先",
        "lng": 138.360527,
        "lat": 34.986937,
        "h": 40
      },
      {
        "name": "清沢生涯学習交流館",
        "address": "静岡県静岡市葵区昼居渡66-2",
        "lng": 138.25349,
        "lat": 35.034497,
        "h": 67
      },
      {
        "name": "玉川キャンプセンター",
        "address": "静岡県静岡市葵区長妻田755",
        "lng": 138.326655,
        "lat": 35.163082,
        "h": 8
      },
      {
        "name": "長沼こども園",
        "address": "静岡県静岡市葵区長沼2-18-31",
        "lng": 138.414293,
        "lat": 34.993307,
        "h": 8
      },
      {
        "name": "県立科学技術高等学校",
        "address": "静岡県静岡市葵区長沼500-1",
        "lng": 138.410916,
        "lat": 34.988423,
        "h": 8
      },
      {
        "name": "県立静岡高等学校",
        "address": "静岡県静岡市葵区長谷町66",
        "lng": 138.380477,
        "lat": 34.985303,
        "h": 8
      },
      {
        "name": "伝馬公園",
        "address": "静岡県静岡市葵区伝馬町14-1",
        "lng": 138.390202,
        "lat": 34.974461,
        "h": 8
      },
      {
        "name": "伝馬町小学校",
        "address": "静岡県静岡市葵区伝馬町14-2",
        "lng": 138.391273,
        "lat": 34.975026,
        "h": 75
      },
      {
        "name": "井川北小学校跡地",
        "address": "静岡県静岡市葵区田代358",
        "lng": 138.239417,
        "lat": 35.254102,
        "h": 8
      },
      {
        "name": "田町こども園",
        "address": "静岡県静岡市葵区田町1-79",
        "lng": 138.366077,
        "lat": 34.974971,
        "h": 8
      },
      {
        "name": "田町公園",
        "address": "静岡県静岡市葵区田町3-46-5",
        "lng": 138.366734,
        "lat": 34.971005,
        "h": 8
      },
      {
        "name": "田町小学校",
        "address": "静岡県静岡市葵区田町5-70",
        "lng": 138.366749,
        "lat": 34.967267,
        "h": 73
      },
      {
        "name": "県立静岡商業高等学校",
        "address": "静岡県静岡市葵区田町7-90",
        "lng": 138.367882,
        "lat": 34.964527,
        "h": 8
      },
      {
        "name": "田町緑地スポーツ広場　安倍川（左岸）",
        "address": "静岡県静岡市葵区田町１－９７－５地先",
        "lng": 138.362557,
        "lat": 34.969848,
        "h": 40
      },
      {
        "name": "西奈中学校",
        "address": "静岡県静岡市葵区東瀬名町14-1",
        "lng": 138.427386,
        "lat": 35.011352,
        "h": 8
      },
      {
        "name": "静岡学園中学・高等学校",
        "address": "静岡県静岡市葵区東鷹匠町25",
        "lng": 138.394229,
        "lat": 34.98249,
        "h": 8
      },
      {
        "name": "静岡市クリエーターズビレッジ（旧楢尾青少年の家）",
        "address": "静岡県静岡市葵区楢尾329",
        "lng": 138.214642,
        "lat": 35.121184,
        "h": 8
      },
      {
        "name": "駒形小学校",
        "address": "静岡県静岡市葵区南安倍2-1-1",
        "lng": 138.373161,
        "lat": 34.961683,
        "h": 73
      },
      {
        "name": "弥勒スポーツ広場　安部川（左岸）",
        "address": "静岡県静岡市葵区南安倍２－２６－２地先",
        "lng": 138.370945,
        "lat": 34.959833,
        "h": 40
      },
      {
        "name": "西奈南小学校",
        "address": "静岡県静岡市葵区南瀬名町1-20",
        "lng": 138.422715,
        "lat": 35.002268,
        "h": 73
      },
      {
        "name": "大川小中学校",
        "address": "静岡県静岡市葵区日向876",
        "lng": 138.240871,
        "lat": 35.092437,
        "h": 75
      },
      {
        "name": "梅ケ島生涯学習交流館",
        "address": "静岡県静岡市葵区梅ケ島1309",
        "lng": 138.340949,
        "lat": 35.243429,
        "h": 67
      },
      {
        "name": "梅ケ島小学校跡地",
        "address": "静岡県静岡市葵区梅ケ島1309-1",
        "lng": 138.340379,
        "lat": 35.243668,
        "h": 8
      },
      {
        "name": "梅ケ島小中学校",
        "address": "静岡県静岡市葵区梅ケ島1309-1",
        "lng": 138.339681,
        "lat": 35.244018,
        "h": 8
      },
      {
        "name": "新田集会場",
        "address": "静岡県静岡市葵区梅ヶ島5615",
        "lng": 138.325928,
        "lat": 35.278023,
        "h": 8
      },
      {
        "name": "賤機北小学校",
        "address": "静岡県静岡市葵区俵沢234-1",
        "lng": 138.367378,
        "lat": 35.108312,
        "h": 75
      },
      {
        "name": "大河内北小学校跡地",
        "address": "静岡県静岡市葵区平野",
        "lng": 138.363142,
        "lat": 35.18402,
        "h": 8
      },
      {
        "name": "大河内生涯学習交流館",
        "address": "静岡県静岡市葵区平野1097-38",
        "lng": 138.365685,
        "lat": 35.142165,
        "h": 67
      },
      {
        "name": "大河内小学校跡地",
        "address": "静岡県静岡市葵区平野1850-3",
        "lng": 138.361423,
        "lat": 35.148294,
        "h": 8
      },
      {
        "name": "大河内小中学校",
        "address": "静岡県静岡市葵区平野1850-66",
        "lng": 138.361992,
        "lat": 35.149071,
        "h": 8
      },
      {
        "name": "井宮小学校",
        "address": "静岡県静岡市葵区平和1-7-1",
        "lng": 138.366779,
        "lat": 34.988437,
        "h": 75
      },
      {
        "name": "籠上中学校",
        "address": "静岡県静岡市葵区平和2-2-1",
        "lng": 138.366668,
        "lat": 34.991947,
        "h": 8
      },
      {
        "name": "県営住宅麻機羽高団地敷地",
        "address": "静岡県静岡市葵区北",
        "lng": 138.391722,
        "lat": 35.036991,
        "h": 8
      },
      {
        "name": "北才光寺公園",
        "address": "静岡県静岡市葵区北1658-1",
        "lng": 138.399967,
        "lat": 35.041906,
        "h": 8
      },
      {
        "name": "北浅間神社",
        "address": "静岡県静岡市葵区北3-5",
        "lng": 138.399583,
        "lat": 35.038432,
        "h": 8
      },
      {
        "name": "北大門公園",
        "address": "静岡県静岡市葵区北521-10",
        "lng": 138.397789,
        "lat": 35.034914,
        "h": 8
      },
      {
        "name": "今宮公園",
        "address": "静岡県静岡市葵区北２１３０他",
        "lng": 138.394824,
        "lat": 35.040239,
        "h": 8
      },
      {
        "name": "北安東一丁目ゆめみらい公園",
        "address": "静岡県静岡市葵区北安東1-291-1",
        "lng": 138.388693,
        "lat": 34.995085,
        "h": 8
      },
      {
        "name": "県立静岡城北高等学校",
        "address": "静岡県静岡市葵区北安東2-3-1",
        "lng": 138.385203,
        "lat": 34.994918,
        "h": 8
      },
      {
        "name": "城北小学校",
        "address": "静岡県静岡市葵区北安東4-27-3",
        "lng": 138.387656,
        "lat": 35.002631,
        "h": 75
      },
      {
        "name": "北沼上小学校",
        "address": "静岡県静岡市葵区北沼上1020",
        "lng": 138.423892,
        "lat": 35.047463,
        "h": 75
      },
      {
        "name": "北沼上こども園",
        "address": "静岡県静岡市葵区北沼上758-1",
        "lng": 138.424536,
        "lat": 35.035169,
        "h": 8
      },
      {
        "name": "牧ヶ谷北公園",
        "address": "静岡県静岡市葵区牧ヶ谷2175",
        "lng": 138.347344,
        "lat": 34.972722,
        "h": 8
      },
      {
        "name": "県立静岡西高等学校",
        "address": "静岡県静岡市葵区牧ヶ谷680-1",
        "lng": 138.350405,
        "lat": 34.971337,
        "h": 8
      },
      {
        "name": "末広中学校",
        "address": "静岡県静岡市葵区末広町41",
        "lng": 138.37238,
        "lat": 34.982636,
        "h": 8
      },
      {
        "name": "門屋スポーツ広場",
        "address": "静岡県静岡市葵区門屋３６３－２地先",
        "lng": 138.373269,
        "lat": 35.04848,
        "h": 8
      },
      {
        "name": "安倍川中学校",
        "address": "静岡県静岡市葵区弥勒2-11-1",
        "lng": 138.368404,
        "lat": 34.963236,
        "h": 8
      },
      {
        "name": "麻機小学校",
        "address": "静岡県静岡市葵区有永町2-43",
        "lng": 138.389484,
        "lat": 35.025676,
        "h": 75
      },
      {
        "name": "有東木分校跡地",
        "address": "静岡県静岡市葵区有東木",
        "lng": 138.369711,
        "lat": 35.207815,
        "h": 8
      },
      {
        "name": "護国神社",
        "address": "静岡県静岡市葵区柚木366",
        "lng": 138.407327,
        "lat": 34.986823,
        "h": 8
      },
      {
        "name": "与一スポーツ広場",
        "address": "静岡県静岡市葵区与一４－３３５－７２７地先",
        "lng": 138.362161,
        "lat": 35.00768,
        "h": 8
      },
      {
        "name": "玉川小中学校",
        "address": "静岡県静岡市葵区落合103-3",
        "lng": 138.333745,
        "lat": 35.110206,
        "h": 8
      },
      {
        "name": "玉川生涯学習交流館",
        "address": "静岡県静岡市葵区落合126-1",
        "lng": 138.331551,
        "lat": 35.110429,
        "h": 67
      },
      {
        "name": "玉川西公民館（小学校跡地）",
        "address": "静岡県静岡市葵区落合1417-12",
        "lng": 138.305927,
        "lat": 35.117132,
        "h": 8
      },
      {
        "name": "ガイアフロー静岡蒸留所　駐車場",
        "address": "静岡県静岡市葵区落合555",
        "lng": 138.325233,
        "lat": 35.120783,
        "h": 8
      },
      {
        "name": "竜南小学校",
        "address": "静岡県静岡市葵区竜南1-23-1",
        "lng": 138.39623,
        "lat": 34.99904,
        "h": 73
      },
      {
        "name": "竜南雨坪公園",
        "address": "静岡県静岡市葵区竜南3-162",
        "lng": 138.401238,
        "lat": 35.000627,
        "h": 8
      },
      {
        "name": "横内小学校",
        "address": "静岡県静岡市葵区緑町1-1",
        "lng": 138.392867,
        "lat": 34.986068,
        "h": 75
      },
      {
        "name": "みずほなかよし公園",
        "address": "静岡県静岡市駿河区みずほ1-8-1",
        "lng": 138.369326,
        "lat": 34.941743,
        "h": 8
      },
      {
        "name": "長田南中学校",
        "address": "静岡県静岡市駿河区みずほ3-9-1",
        "lng": 138.367991,
        "lat": 34.937691,
        "h": 8
      },
      {
        "name": "みずほ公園",
        "address": "静岡県静岡市駿河区みずほ5-12",
        "lng": 138.365818,
        "lat": 34.938311,
        "h": 8
      },
      {
        "name": "道の駅「宇津ノ谷峠」",
        "address": "静岡県静岡市駿河区宇津ノ谷",
        "lng": 138.309697,
        "lat": 34.937462,
        "h": 8
      },
      {
        "name": "恩田原公園",
        "address": "静岡県静岡市駿河区恩田原",
        "lng": 138.420183,
        "lat": 34.964278,
        "h": 8
      },
      {
        "name": "下川原　天満宮公園",
        "address": "静岡県静岡市駿河区下川原2-31",
        "lng": 138.376809,
        "lat": 34.937794,
        "h": 16
      },
      {
        "name": "下川原東公園",
        "address": "静岡県静岡市駿河区下川原4-115",
        "lng": 138.382342,
        "lat": 34.93677,
        "h": 8
      },
      {
        "name": "川原小学校",
        "address": "静岡県静岡市駿河区下川原4-14-1",
        "lng": 138.383091,
        "lat": 34.937377,
        "h": 77
      },
      {
        "name": "下川原公園",
        "address": "静岡県静岡市駿河区下川原6-24-6",
        "lng": 138.377089,
        "lat": 34.932857,
        "h": 8
      },
      {
        "name": "下川原こども園",
        "address": "静岡県静岡市駿河区下川原6-8-26",
        "lng": 138.373672,
        "lat": 34.933611,
        "h": 8
      },
      {
        "name": "下島北公園",
        "address": "静岡県静岡市駿河区下島",
        "lng": 138.406437,
        "lat": 34.948899,
        "h": 8
      },
      {
        "name": "津波避難タワー（下島）",
        "address": "静岡県静岡市駿河区下島615-56",
        "lng": 138.408841,
        "lat": 34.943235,
        "h": 16
      },
      {
        "name": "長田西中学校",
        "address": "静岡県静岡市駿河区丸子1-1-1",
        "lng": 138.359185,
        "lat": 34.947423,
        "h": 8
      },
      {
        "name": "丸子こども園",
        "address": "静岡県静岡市駿河区丸子2-18-32",
        "lng": 138.355527,
        "lat": 34.942898,
        "h": 8
      },
      {
        "name": "丸子尻高公園",
        "address": "静岡県静岡市駿河区丸子3-682-4",
        "lng": 138.352784,
        "lat": 34.946364,
        "h": 8
      },
      {
        "name": "長田西小学校",
        "address": "静岡県静岡市駿河区丸子6-15-65",
        "lng": 138.350357,
        "lat": 34.946373,
        "h": 79
      },
      {
        "name": "丸子川スポーツ広場",
        "address": "静岡県静岡市駿河区丸子７－２５８６－３地先",
        "lng": 138.336575,
        "lat": 34.950696,
        "h": 8
      },
      {
        "name": "高松公園",
        "address": "静岡県静岡市駿河区宮竹1-6",
        "lng": 138.415742,
        "lat": 34.95359,
        "h": 24
      },
      {
        "name": "南中学校",
        "address": "静岡県静岡市駿河区宮竹2-11-1",
        "lng": 138.418385,
        "lat": 34.951051,
        "h": 8
      },
      {
        "name": "宮竹小学校",
        "address": "静岡県静岡市駿河区宮竹2-12-1",
        "lng": 138.417472,
        "lat": 34.951799,
        "h": 77
      },
      {
        "name": "西豊田小学校",
        "address": "静岡県静岡市駿河区曲金2-8-80",
        "lng": 138.407105,
        "lat": 34.978513,
        "h": 77
      },
      {
        "name": "県草薙総合運動場",
        "address": "静岡県静岡市駿河区栗原19-1",
        "lng": 138.42896,
        "lat": 34.989258,
        "h": 40
      },
      {
        "name": "久能小学校",
        "address": "静岡県静岡市駿河区古宿213-2",
        "lng": 138.456553,
        "lat": 34.957886,
        "h": 79
      },
      {
        "name": "長田北小学校",
        "address": "静岡県静岡市駿河区向敷地1-10-28",
        "lng": 138.359093,
        "lat": 34.96164,
        "h": 79
      },
      {
        "name": "長田北向ヶ丘公園",
        "address": "静岡県静岡市駿河区向敷地614-1",
        "lng": 138.356874,
        "lat": 34.957139,
        "h": 8
      },
      {
        "name": "向ヶ丘広場",
        "address": "静岡県静岡市駿河区向敷地614-1",
        "lng": 138.357383,
        "lat": 34.957127,
        "h": 8
      },
      {
        "name": "向敷地スポーツ広場",
        "address": "静岡県静岡市駿河区向敷地８４８－４０地先",
        "lng": 138.358236,
        "lat": 34.96439,
        "h": 8
      },
      {
        "name": "広野公園",
        "address": "静岡県静岡市駿河区広野2-81",
        "lng": 138.366474,
        "lat": 34.932436,
        "h": 24
      },
      {
        "name": "津波避難タワー（長田南⑥）",
        "address": "静岡県静岡市駿河区広野4-1061-2",
        "lng": 138.370242,
        "lat": 34.925961,
        "h": 16
      },
      {
        "name": "長田南小学校",
        "address": "静岡県静岡市駿河区広野4-7-1",
        "lng": 138.369598,
        "lat": 34.927798,
        "h": 69
      },
      {
        "name": "高松若宮公園",
        "address": "静岡県静岡市駿河区高松1-217",
        "lng": 138.418786,
        "lat": 34.957504,
        "h": 8
      },
      {
        "name": "高松神明原公園",
        "address": "静岡県静岡市駿河区高松2-315",
        "lng": 138.421791,
        "lat": 34.951984,
        "h": 8
      },
      {
        "name": "大里東小学校",
        "address": "静岡県静岡市駿河区高松2310",
        "lng": 138.418895,
        "lat": 34.946353,
        "h": 69
      },
      {
        "name": "東豊田中学校",
        "address": "静岡県静岡市駿河区国吉田5-23-1",
        "lng": 138.436877,
        "lat": 34.991195,
        "h": 8
      },
      {
        "name": "東豊田中央こども園",
        "address": "静岡県静岡市駿河区国吉田6-7-29",
        "lng": 138.436557,
        "lat": 34.990367,
        "h": 8
      },
      {
        "name": "東源台小学校",
        "address": "静岡県静岡市駿河区国吉田6-7-45",
        "lng": 138.437279,
        "lat": 34.989253,
        "h": 79
      },
      {
        "name": "小黒こども園",
        "address": "静岡県静岡市駿河区小黒1-7-6",
        "lng": 138.40091,
        "lat": 34.975015,
        "h": 8
      },
      {
        "name": "城山中学校",
        "address": "静岡県静岡市駿河区小坂2-33",
        "lng": 138.357452,
        "lat": 34.930374,
        "h": 71
      },
      {
        "name": "静岡聖光学院中学・高等学校",
        "address": "静岡県静岡市駿河区小鹿1440",
        "lng": 138.433617,
        "lat": 34.971778,
        "h": 8
      },
      {
        "name": "静岡県立大学短期大学部",
        "address": "静岡県静岡市駿河区小鹿2-2-1",
        "lng": 138.417225,
        "lat": 34.974845,
        "h": 8
      },
      {
        "name": "競輪場駐車場",
        "address": "静岡県静岡市駿河区小鹿2-9-1",
        "lng": 138.423491,
        "lat": 34.970763,
        "h": 8
      },
      {
        "name": "小鹿公園",
        "address": "静岡県静岡市駿河区小鹿930-4",
        "lng": 138.42723,
        "lat": 34.971997,
        "h": 8
      },
      {
        "name": "新川公園",
        "address": "静岡県静岡市駿河区新川2-13",
        "lng": 138.38694,
        "lat": 34.961544,
        "h": 8
      },
      {
        "name": "森下小学校",
        "address": "静岡県静岡市駿河区森下町2-1",
        "lng": 138.392728,
        "lat": 34.971206,
        "h": 79
      },
      {
        "name": "中原スポーツ広場　安倍川（左岸）",
        "address": "静岡県静岡市駿河区西中原２－１２５０－２４地先",
        "lng": 138.379522,
        "lat": 34.953511,
        "h": 40
      },
      {
        "name": "津波避難タワー（大浜）",
        "address": "静岡県静岡市駿河区西島1380",
        "lng": 138.407138,
        "lat": 34.939128,
        "h": 16
      },
      {
        "name": "津波避難タワー（西島）",
        "address": "静岡県静岡市駿河区西島667-1",
        "lng": 138.405297,
        "lat": 34.942402,
        "h": 16
      },
      {
        "name": "津波避難タワー（石部）",
        "address": "静岡県静岡市駿河区石部183-1",
        "lng": 138.356538,
        "lat": 34.91592,
        "h": 16
      },
      {
        "name": "大谷不動山公園",
        "address": "静岡県静岡市駿河区大谷2-8",
        "lng": 138.431188,
        "lat": 34.951985,
        "h": 16
      },
      {
        "name": "大谷洋光台東公園",
        "address": "静岡県静岡市駿河区大谷3163-12",
        "lng": 138.435988,
        "lat": 34.952964,
        "h": 16
      },
      {
        "name": "大谷小学校",
        "address": "静岡県静岡市駿河区大谷3683-2",
        "lng": 138.429482,
        "lat": 34.954859,
        "h": 79
      },
      {
        "name": "ふじのくに地球環境史ミュージアム",
        "address": "静岡県静岡市駿河区大谷5762",
        "lng": 138.436598,
        "lat": 34.95928,
        "h": 8
      },
      {
        "name": "静岡大学",
        "address": "静岡県静岡市駿河区大谷836",
        "lng": 138.431861,
        "lat": 34.964903,
        "h": 8
      },
      {
        "name": "片山公園",
        "address": "静岡県静岡市駿河区大谷839",
        "lng": 138.428916,
        "lat": 34.966896,
        "h": 8
      },
      {
        "name": "静岡県立大学芝生公園",
        "address": "静岡県静岡市駿河区谷田50-19",
        "lng": 138.443951,
        "lat": 34.994317,
        "h": 40
      },
      {
        "name": "池田島崎公園",
        "address": "静岡県静岡市駿河区池田1562-2",
        "lng": 138.424966,
        "lat": 34.978979,
        "h": 8
      },
      {
        "name": "静岡英和学院大学",
        "address": "静岡県静岡市駿河区池田1769",
        "lng": 138.43671,
        "lat": 34.983095,
        "h": 8
      },
      {
        "name": "東豊田小学校",
        "address": "静岡県静岡市駿河区池田491-2",
        "lng": 138.423389,
        "lat": 34.984063,
        "h": 79
      },
      {
        "name": "池田公園",
        "address": "静岡県静岡市駿河区池田605",
        "lng": 138.421778,
        "lat": 34.980951,
        "h": 8
      },
      {
        "name": "中吉田公園",
        "address": "静岡県静岡市駿河区中吉田9",
        "lng": 138.437069,
        "lat": 34.997527,
        "h": 8
      },
      {
        "name": "大里西小学校",
        "address": "静岡県静岡市駿河区中原400",
        "lng": 138.386355,
        "lat": 34.956934,
        "h": 77
      },
      {
        "name": "中原桔梗公園",
        "address": "静岡県静岡市駿河区中原495-1",
        "lng": 138.388144,
        "lat": 34.954805,
        "h": 8
      },
      {
        "name": "静岡聴覚特別支援学校",
        "address": "静岡県静岡市駿河区中村町251",
        "lng": 138.392325,
        "lat": 34.950966,
        "h": 8
      },
      {
        "name": "中村町こども園",
        "address": "静岡県静岡市駿河区中村町94",
        "lng": 138.392015,
        "lat": 34.953873,
        "h": 8
      },
      {
        "name": "中田小学校",
        "address": "静岡県静岡市駿河区中田2-14-1",
        "lng": 138.392525,
        "lat": 34.9636,
        "h": 77
      },
      {
        "name": "国道１５０号　中島高架橋非常階段",
        "address": "静岡県静岡市駿河区中島",
        "lng": 138.397431,
        "lat": 34.938763,
        "h": 16
      },
      {
        "name": "津波避難タワー（中島）",
        "address": "静岡県静岡市駿河区中島2676-1",
        "lng": 138.403596,
        "lat": 34.937519,
        "h": 16
      },
      {
        "name": "中島児童館",
        "address": "静岡県静岡市駿河区中島2992",
        "lng": 138.39897,
        "lat": 34.94138,
        "h": 8
      },
      {
        "name": "中島小学校",
        "address": "静岡県静岡市駿河区中島2992-1",
        "lng": 138.399444,
        "lat": 34.941009,
        "h": 69
      },
      {
        "name": "中島上公園",
        "address": "静岡県静岡市駿河区中島430-6",
        "lng": 138.394858,
        "lat": 34.943764,
        "h": 24
      },
      {
        "name": "昌林寺",
        "address": "静岡県静岡市駿河区中島636",
        "lng": 138.391346,
        "lat": 34.94124,
        "h": 24
      },
      {
        "name": "中野新田スポーツ広場",
        "address": "静岡県静岡市駿河区中島３０４－８地先",
        "lng": 138.386287,
        "lat": 34.946194,
        "h": 8
      },
      {
        "name": "久能天羽衣公園",
        "address": "静岡県静岡市駿河区中平松173-1",
        "lng": 138.444177,
        "lat": 34.954308,
        "h": 16
      },
      {
        "name": "大里中学校",
        "address": "静岡県静岡市駿河区中野新田57-5",
        "lng": 138.384707,
        "lat": 34.952021,
        "h": 8
      },
      {
        "name": "富士見小学校",
        "address": "静岡県静岡市駿河区登呂1-1-1",
        "lng": 138.409771,
        "lat": 34.960572,
        "h": 79
      },
      {
        "name": "登呂こども園",
        "address": "静岡県静岡市駿河区登呂3-19-1",
        "lng": 138.407389,
        "lat": 34.958438,
        "h": 8
      },
      {
        "name": "高松中学校",
        "address": "静岡県静岡市駿河区登呂4-6-1",
        "lng": 138.410141,
        "lat": 34.958322,
        "h": 8
      },
      {
        "name": "登呂二丁目公園",
        "address": "静岡県静岡市駿河区登呂２－８３－２外",
        "lng": 138.413102,
        "lat": 34.959598,
        "h": 8
      },
      {
        "name": "登呂公園",
        "address": "静岡県静岡市駿河区登呂５－４５７－１他",
        "lng": 138.408597,
        "lat": 34.955793,
        "h": 8
      },
      {
        "name": "長田東小学校",
        "address": "静岡県静岡市駿河区東新田3-10-1",
        "lng": 138.372534,
        "lat": 34.946007,
        "h": 77
      },
      {
        "name": "東新田こども園",
        "address": "静岡県静岡市駿河区東新田4-1-40",
        "lng": 138.375819,
        "lat": 34.944821,
        "h": 8
      },
      {
        "name": "東新田公園",
        "address": "静岡県静岡市駿河区東新田4-924",
        "lng": 138.378626,
        "lat": 34.944004,
        "h": 8
      },
      {
        "name": "丸子新田スポーツ広場",
        "address": "静岡県静岡市駿河区東新田１３２－４地先",
        "lng": 138.372347,
        "lat": 34.951582,
        "h": 8
      },
      {
        "name": "東新田スポーツ広場",
        "address": "静岡県静岡市駿河区東新田２－２５１－９地先",
        "lng": 138.377486,
        "lat": 34.946354,
        "h": 8
      },
      {
        "name": "南安倍公園",
        "address": "静岡県静岡市駿河区南安倍3-556",
        "lng": 138.375114,
        "lat": 34.958627,
        "h": 8
      },
      {
        "name": "南安倍スポーツ広場　安倍川（左岸）",
        "address": "静岡県静岡市駿河区南安倍３－４９４地先",
        "lng": 138.375001,
        "lat": 34.95754,
        "h": 40
      },
      {
        "name": "城南静岡中学・高等学校",
        "address": "静岡県静岡市駿河区南八幡町1-1",
        "lng": 138.400431,
        "lat": 34.963379,
        "h": 8
      },
      {
        "name": "南部小学校",
        "address": "静岡県静岡市駿河区南八幡町11-1",
        "lng": 138.403119,
        "lat": 34.96244,
        "h": 77
      },
      {
        "name": "中田こども園",
        "address": "静岡県静岡市駿河区馬渕4-2-29",
        "lng": 138.392267,
        "lat": 34.962581,
        "h": 8
      },
      {
        "name": "八幡こども園",
        "address": "静岡県静岡市駿河区八幡2-15-20",
        "lng": 138.397383,
        "lat": 34.971631,
        "h": 8
      },
      {
        "name": "森下公園",
        "address": "静岡県静岡市駿河区八幡2-16",
        "lng": 138.393577,
        "lat": 34.9702,
        "h": 8
      },
      {
        "name": "八幡山公園",
        "address": "静岡県静岡市駿河区八幡５外",
        "lng": 138.401452,
        "lat": 34.969354,
        "h": 8
      },
      {
        "name": "富士見台こども園",
        "address": "静岡県静岡市駿河区富士見台2-11-44",
        "lng": 138.417947,
        "lat": 34.963125,
        "h": 8
      },
      {
        "name": "高松咲花公園",
        "address": "静岡県静岡市駿河区敷地1-284",
        "lng": 138.411957,
        "lat": 34.952879,
        "h": 8
      },
      {
        "name": "高松汐入公園",
        "address": "静岡県静岡市駿河区敷地2-173",
        "lng": 138.41396,
        "lat": 34.94921,
        "h": 8
      },
      {
        "name": "高松こども園",
        "address": "静岡県静岡市駿河区敷地2-7-14",
        "lng": 138.412436,
        "lat": 34.949297,
        "h": 8
      },
      {
        "name": "豊田中学校",
        "address": "静岡県静岡市駿河区豊田1-3-1",
        "lng": 138.409048,
        "lat": 34.971269,
        "h": 79
      },
      {
        "name": "戸斗前公園",
        "address": "静岡県静岡市駿河区北丸子2-1402-5",
        "lng": 138.346103,
        "lat": 34.950998,
        "h": 8
      },
      {
        "name": "常葉大学静岡草薙キャンパス",
        "address": "静岡県静岡市駿河区弥生町6-1",
        "lng": 138.438392,
        "lat": 35.004099,
        "h": 8
      },
      {
        "name": "県立駿河総合高等学校",
        "address": "静岡県静岡市駿河区有東3-4-17",
        "lng": 138.410361,
        "lat": 34.963279,
        "h": 8
      },
      {
        "name": "国道１５０号　用宗高架橋",
        "address": "静岡県静岡市駿河区用宗",
        "lng": 138.365571,
        "lat": 34.929718,
        "h": 16
      },
      {
        "name": "津波避難タワー（長田南④）",
        "address": "静岡県静岡市駿河区用宗1-17",
        "lng": 138.363608,
        "lat": 34.926261,
        "h": 16
      },
      {
        "name": "津波避難タワー（長田南⑤）",
        "address": "静岡県静岡市駿河区用宗1-309-1",
        "lng": 138.366203,
        "lat": 34.927443,
        "h": 16
      },
      {
        "name": "津波避難タワー（用宗漁港）",
        "address": "静岡県静岡市駿河区用宗2-18-5",
        "lng": 138.367004,
        "lat": 34.923401,
        "h": 16
      },
      {
        "name": "津波避難タワー（長田南③）",
        "address": "静岡県静岡市駿河区用宗2-189",
        "lng": 138.364733,
        "lat": 34.923969,
        "h": 16
      },
      {
        "name": "清水橋",
        "address": "静岡県静岡市清水区",
        "lng": 138.487706,
        "lat": 35.018836,
        "h": 16
      },
      {
        "name": "清水庵原小学校",
        "address": "静岡県静岡市清水区庵原町1723",
        "lng": 138.475202,
        "lat": 35.052184,
        "h": 8
      },
      {
        "name": "庵原こども園",
        "address": "静岡県静岡市清水区庵原町1938",
        "lng": 138.473304,
        "lat": 35.054362,
        "h": 8
      },
      {
        "name": "庵原球場第２球場",
        "address": "静岡県静岡市清水区庵原町3000",
        "lng": 138.471104,
        "lat": 35.055914,
        "h": 8
      },
      {
        "name": "庵原ふれあい公園",
        "address": "静岡県静岡市清水区庵原町588-2",
        "lng": 138.478488,
        "lat": 35.04634,
        "h": 8
      },
      {
        "name": "庵原生涯学習交流館",
        "address": "静岡県静岡市清水区庵原町68-1",
        "lng": 138.483309,
        "lat": 35.044086,
        "h": 71
      },
      {
        "name": "高部生涯学習交流館",
        "address": "静岡県静岡市清水区押切1086-2",
        "lng": 138.449943,
        "lat": 35.029235,
        "h": 71
      },
      {
        "name": "清水高部小学校",
        "address": "静岡県静岡市清水区押切1115-2",
        "lng": 138.45016,
        "lat": 35.029685,
        "h": 8
      },
      {
        "name": "清水高部東小学校",
        "address": "静岡県静岡市清水区押切1907",
        "lng": 138.455739,
        "lat": 35.035049,
        "h": 8
      },
      {
        "name": "清水東山田窯跡公園",
        "address": "静岡県静岡市清水区横砂1693-2",
        "lng": 138.495007,
        "lat": 35.048417,
        "h": 16
      },
      {
        "name": "清水横砂北公園",
        "address": "静岡県静岡市清水区横砂1857-1",
        "lng": 138.499594,
        "lat": 35.045617,
        "h": 16
      },
      {
        "name": "清見潟公園",
        "address": "静岡県静岡市清水区横砂２１９－９外",
        "lng": 138.501765,
        "lat": 35.039502,
        "h": 16
      },
      {
        "name": "横砂こども園",
        "address": "静岡県静岡市清水区横砂東町17-5",
        "lng": 138.502785,
        "lat": 35.044309,
        "h": 8
      },
      {
        "name": "清水飯田小学校",
        "address": "静岡県静岡市清水区下野中2-40",
        "lng": 138.469152,
        "lat": 35.035136,
        "h": 8
      },
      {
        "name": "飯田生涯学習交流館",
        "address": "静岡県静岡市清水区下野東9-1",
        "lng": 138.470698,
        "lat": 35.034933,
        "h": 71
      },
      {
        "name": "日本軽金属グループ技術センター",
        "address": "静岡県静岡市清水区蒲原1-34-1",
        "lng": 138.615485,
        "lat": 35.127637,
        "h": 24
      },
      {
        "name": "蒲原中学校",
        "address": "静岡県静岡市清水区蒲原49",
        "lng": 138.619536,
        "lat": 35.124183,
        "h": 40
      },
      {
        "name": "ジャトコ（株）蒲原工場",
        "address": "静岡県静岡市清水区蒲原4905-11",
        "lng": 138.620826,
        "lat": 35.129134,
        "h": 16
      },
      {
        "name": "蒲原六番向公園",
        "address": "静岡県静岡市清水区蒲原5967",
        "lng": 138.621599,
        "lat": 35.123011,
        "h": 8
      },
      {
        "name": "蒲原東小学校",
        "address": "静岡県静岡市清水区蒲原666",
        "lng": 138.609074,
        "lat": 35.116994,
        "h": 56
      },
      {
        "name": "蒲原駅前広場",
        "address": "静岡県静岡市清水区蒲原堰沢",
        "lng": 138.583051,
        "lat": 35.114517,
        "h": 8
      },
      {
        "name": "蒲原市民センター（蒲原生涯学習交流館）",
        "address": "静岡県静岡市清水区蒲原新田1-21-1",
        "lng": 138.595449,
        "lat": 35.116422,
        "h": 111
      },
      {
        "name": "蒲原新田公園",
        "address": "静岡県静岡市清水区蒲原新田2-16",
        "lng": 138.600045,
        "lat": 35.118576,
        "h": 8
      },
      {
        "name": "蒲原西小学校",
        "address": "静岡県静岡市清水区蒲原新田2-25-1",
        "lng": 138.595407,
        "lat": 35.119039,
        "h": 56
      },
      {
        "name": "道路（殿沢川上流付近）",
        "address": "静岡県静岡市清水区宮加三",
        "lng": 138.48692,
        "lat": 34.981083,
        "h": 16
      },
      {
        "name": "津波避難タワー（宮加三）",
        "address": "静岡県静岡市清水区宮加三27-1",
        "lng": 138.497569,
        "lat": 34.988571,
        "h": 16
      },
      {
        "name": "清水天王山公園",
        "address": "静岡県静岡市清水区宮加三716-1",
        "lng": 138.489851,
        "lat": 34.985515,
        "h": 16
      },
      {
        "name": "日本平さくら公園",
        "address": "静岡県静岡市清水区宮加三９２７－２外",
        "lng": 138.479189,
        "lat": 34.981911,
        "h": 8
      },
      {
        "name": "辻生涯学習交流館",
        "address": "静岡県静岡市清水区宮代町5-75",
        "lng": 138.48343,
        "lat": 35.024945,
        "h": 69
      },
      {
        "name": "清水興津北公園",
        "address": "静岡県静岡市清水区興津中町",
        "lng": 138.527751,
        "lat": 35.060963,
        "h": 16
      },
      {
        "name": "清水興津中学校",
        "address": "静岡県静岡市清水区興津中町1478-10",
        "lng": 138.522245,
        "lat": 35.056133,
        "h": 40
      },
      {
        "name": "カンキツ研究興津拠点周辺",
        "address": "静岡県静岡市清水区興津中町485-6",
        "lng": 138.52357,
        "lat": 35.054742,
        "h": 40
      },
      {
        "name": "滝ノ下公園",
        "address": "静岡県静岡市清水区興津本町",
        "lng": 138.51679,
        "lat": 35.049069,
        "h": 16
      },
      {
        "name": "興津生涯学習交流館",
        "address": "静岡県静岡市清水区興津本町829",
        "lng": 138.518114,
        "lat": 35.047547,
        "h": 71
      },
      {
        "name": "静岡県果樹研究センター駒越跡地",
        "address": "静岡県静岡市清水区駒越西2-12-10",
        "lng": 138.492248,
        "lat": 34.973274,
        "h": 56
      },
      {
        "name": "萬象寺",
        "address": "静岡県静岡市清水区駒越西2-9-5",
        "lng": 138.494454,
        "lat": 34.974353,
        "h": 16
      },
      {
        "name": "駒越神社",
        "address": "静岡県静岡市清水区駒越中1-17-43",
        "lng": 138.500367,
        "lat": 34.977133,
        "h": 16
      },
      {
        "name": "ＪＡしみず　広場",
        "address": "静岡県静岡市清水区駒越中1-17-52",
        "lng": 138.500715,
        "lat": 34.978059,
        "h": 16
      },
      {
        "name": "清水南部交流センター",
        "address": "静岡県静岡市清水区駒越南町9-50",
        "lng": 138.504019,
        "lat": 34.979294,
        "h": 16
      },
      {
        "name": "道路（駿富日本平の里）",
        "address": "静岡県静岡市清水区迎山町",
        "lng": 138.489442,
        "lat": 34.977555,
        "h": 16
      },
      {
        "name": "駒越生涯学習交流館",
        "address": "静岡県静岡市清水区迎山町1-7",
        "lng": 138.494152,
        "lat": 34.97786,
        "h": 71
      },
      {
        "name": "迎山公園",
        "address": "静岡県静岡市清水区迎山町10-10",
        "lng": 138.491162,
        "lat": 34.976937,
        "h": 16
      },
      {
        "name": "駒越堤公園",
        "address": "静岡県静岡市清水区迎山町18-18",
        "lng": 138.488101,
        "lat": 34.975973,
        "h": 16
      },
      {
        "name": "駒越こども園",
        "address": "静岡県静岡市清水区迎山町4-15",
        "lng": 138.492399,
        "lat": 34.977552,
        "h": 8
      },
      {
        "name": "忠霊塔公園",
        "address": "静岡県静岡市清水区迎山町6-1",
        "lng": 138.493203,
        "lat": 34.977953,
        "h": 24
      },
      {
        "name": "清水月見公園",
        "address": "静岡県静岡市清水区月見町155",
        "lng": 138.480079,
        "lat": 35.003447,
        "h": 24
      },
      {
        "name": "清水庵原中学校",
        "address": "静岡県静岡市清水区原245",
        "lng": 138.480075,
        "lat": 35.050936,
        "h": 8
      },
      {
        "name": "江尻高橋南公園",
        "address": "静岡県静岡市清水区高橋南町10-29",
        "lng": 138.476122,
        "lat": 35.028174,
        "h": 8
      },
      {
        "name": "桜が丘公園",
        "address": "静岡県静岡市清水区桜が丘町7",
        "lng": 138.4762,
        "lat": 35.010335,
        "h": 24
      },
      {
        "name": "岡生涯学習交流館",
        "address": "静岡県静岡市清水区桜が丘町7-1",
        "lng": 138.478018,
        "lat": 35.011527,
        "h": 69
      },
      {
        "name": "清水三保第一小学校",
        "address": "静岡県静岡市清水区三保1069-1",
        "lng": 138.521872,
        "lat": 35.001004,
        "h": 40
      },
      {
        "name": "清水第五中学校",
        "address": "静岡県静岡市清水区三保1720",
        "lng": 138.524658,
        "lat": 35.001521,
        "h": 40
      },
      {
        "name": "津波避難タワー（三保②）",
        "address": "静岡県静岡市清水区三保2055-4",
        "lng": 138.524631,
        "lat": 35.008107,
        "h": 16
      },
      {
        "name": "津波避難タワー（三保④）",
        "address": "静岡県静岡市清水区三保2113",
        "lng": 138.529284,
        "lat": 35.010767,
        "h": 16
      },
      {
        "name": "津波避難タワー（三保③）",
        "address": "静岡県静岡市清水区三保3001-1",
        "lng": 138.521888,
        "lat": 35.010836,
        "h": 16
      },
      {
        "name": "津波避難タワー（三保北）",
        "address": "静岡県静岡市清水区三保3503-24",
        "lng": 138.518322,
        "lat": 35.004822,
        "h": 16
      },
      {
        "name": "津波避難タワー（塚間）",
        "address": "静岡県静岡市清水区三保705-14",
        "lng": 138.508778,
        "lat": 35.003226,
        "h": 16
      },
      {
        "name": "津波避難施設（命山）",
        "address": "静岡県静岡市清水区三保760",
        "lng": 138.512672,
        "lat": 35.003517,
        "h": 16
      },
      {
        "name": "津波避難タワー（三保南）",
        "address": "静岡県静岡市清水区三保884-3",
        "lng": 138.517656,
        "lat": 35.004359,
        "h": 16
      },
      {
        "name": "津波避難タワー（三保①）",
        "address": "静岡県静岡市清水区三保967-1",
        "lng": 138.516392,
        "lat": 35.001289,
        "h": 16
      },
      {
        "name": "清水羽衣公園",
        "address": "静岡県静岡市清水区三保４０３０外",
        "lng": 138.5211,
        "lat": 34.992676,
        "h": 8
      },
      {
        "name": "まつぼっくりこども園",
        "address": "静岡県静岡市清水区三保松原町15-5",
        "lng": 138.517623,
        "lat": 34.994909,
        "h": 8
      },
      {
        "name": "三保生涯学習交流館",
        "address": "静岡県静岡市清水区三保松原町39-5",
        "lng": 138.520411,
        "lat": 34.998648,
        "h": 77
      },
      {
        "name": "清水飯田中学校",
        "address": "静岡県静岡市清水区山原112-1",
        "lng": 138.468219,
        "lat": 35.041366,
        "h": 8
      },
      {
        "name": "清水宍原小学校",
        "address": "静岡県静岡市清水区宍原919",
        "lng": 138.518504,
        "lat": 35.159995,
        "h": 8
      },
      {
        "name": "白髭神社",
        "address": "静岡県静岡市清水区蛇塚",
        "lng": 138.475282,
        "lat": 34.964599,
        "h": 16
      },
      {
        "name": "清水蛇塚スポーツグラウンド",
        "address": "静岡県静岡市清水区蛇塚30-5",
        "lng": 138.474488,
        "lat": 34.966128,
        "h": 24
      },
      {
        "name": "県立清水東高等学校",
        "address": "静岡県静岡市清水区秋吉町5-10",
        "lng": 138.479539,
        "lat": 35.02931,
        "h": 40
      },
      {
        "name": "渋川中公園",
        "address": "静岡県静岡市清水区渋川2-69",
        "lng": 138.469903,
        "lat": 35.018945,
        "h": 16
      },
      {
        "name": "渋川西公園",
        "address": "静岡県静岡市清水区渋川3-77",
        "lng": 138.466731,
        "lat": 35.018688,
        "h": 16
      },
      {
        "name": "清水小河内小学校",
        "address": "静岡県静岡市清水区小河内2723",
        "lng": 138.511726,
        "lat": 35.12095,
        "h": 8
      },
      {
        "name": "江尻生涯学習交流館",
        "address": "静岡県静岡市清水区小芝町3-35",
        "lng": 138.482346,
        "lat": 35.02318,
        "h": 69
      },
      {
        "name": "清水小島小学校",
        "address": "静岡県静岡市清水区小島町619",
        "lng": 138.515225,
        "lat": 35.091891,
        "h": 8
      },
      {
        "name": "清水生涯学習交流館",
        "address": "静岡県静岡市清水区松井町7-22",
        "lng": 138.492375,
        "lat": 35.002197,
        "h": 69
      },
      {
        "name": "沼田公園",
        "address": "静岡県静岡市清水区沼田町1727",
        "lng": 138.484249,
        "lat": 34.997635,
        "h": 16
      },
      {
        "name": "清水不二見小学校",
        "address": "静岡県静岡市清水区新緑町2-21",
        "lng": 138.489057,
        "lat": 34.99544,
        "h": 8
      },
      {
        "name": "清水岡小学校",
        "address": "静岡県静岡市清水区神田町4-3",
        "lng": 138.480564,
        "lat": 35.007575,
        "h": 8
      },
      {
        "name": "清水第二中学校",
        "address": "静岡県静岡市清水区神田町4-57",
        "lng": 138.479563,
        "lat": 35.006878,
        "h": 8
      },
      {
        "name": "清水袖師中学校",
        "address": "静岡県静岡市清水区西久保125-1",
        "lng": 138.485474,
        "lat": 35.039106,
        "h": 8
      },
      {
        "name": "西久保こども園",
        "address": "静岡県静岡市清水区西久保438-1",
        "lng": 138.484321,
        "lat": 35.035781,
        "h": 8
      },
      {
        "name": "旧清水西河内小学校",
        "address": "静岡県静岡市清水区西里143",
        "lng": 138.443381,
        "lat": 35.121723,
        "h": 8
      },
      {
        "name": "県立清水西高等学校",
        "address": "静岡県静岡市清水区青葉町5-1",
        "lng": 138.474766,
        "lat": 35.007773,
        "h": 8
      },
      {
        "name": "国立清水海上技術短期大学校",
        "address": "静岡県静岡市清水区折戸3-18-1",
        "lng": 138.512555,
        "lat": 34.986939,
        "h": 32
      },
      {
        "name": "折戸生涯学習交流館",
        "address": "静岡県静岡市清水区折戸4-8-60",
        "lng": 138.513473,
        "lat": 34.990141,
        "h": 69
      },
      {
        "name": "清水三保第二小学校",
        "address": "静岡県静岡市清水区折戸5-8-2",
        "lng": 138.516879,
        "lat": 34.991107,
        "h": 8
      },
      {
        "name": "川原こども園",
        "address": "静岡県静岡市清水区川原町24-8",
        "lng": 138.475273,
        "lat": 35.000213,
        "h": 8
      },
      {
        "name": "船越生涯学習交流館",
        "address": "静岡県静岡市清水区船越3-12-74",
        "lng": 138.468271,
        "lat": 34.998832,
        "h": 71
      },
      {
        "name": "清水船越小学校",
        "address": "静岡県静岡市清水区船越3-15-1",
        "lng": 138.471742,
        "lat": 34.998226,
        "h": 40
      },
      {
        "name": "清水船越堤公園",
        "address": "静岡県静岡市清水区船越497",
        "lng": 138.46557,
        "lat": 34.998095,
        "h": 40
      },
      {
        "name": "清水第七中学校",
        "address": "静岡県静岡市清水区草薙3-9-20",
        "lng": 138.447883,
        "lat": 35.002257,
        "h": 8
      },
      {
        "name": "新草薙公園",
        "address": "静岡県静岡市清水区草薙２－３３－４４外",
        "lng": 138.447166,
        "lat": 35.005971,
        "h": 8
      },
      {
        "name": "有度生涯学習交流館",
        "address": "静岡県静岡市清水区草薙一里山3-1",
        "lng": 138.45254,
        "lat": 35.006684,
        "h": 71
      },
      {
        "name": "清水有度第二小学校",
        "address": "静岡県静岡市清水区草薙杉道3-19-1",
        "lng": 138.45076,
        "lat": 35.001155,
        "h": 8
      },
      {
        "name": "龍源寺　北西空地",
        "address": "静岡県静岡市清水区増",
        "lng": 138.481983,
        "lat": 34.96771,
        "h": 16
      },
      {
        "name": "清苺神社",
        "address": "静岡県静岡市清水区増",
        "lng": 138.486918,
        "lat": 34.969256,
        "h": 16
      },
      {
        "name": "神明神社",
        "address": "静岡県静岡市清水区増206",
        "lng": 138.484524,
        "lat": 34.968939,
        "h": 16
      },
      {
        "name": "いを崎神社周辺",
        "address": "静岡県静岡市清水区袖師",
        "lng": 138.500753,
        "lat": 35.045457,
        "h": 40
      },
      {
        "name": "袖師生涯学習交流館",
        "address": "静岡県静岡市清水区袖師町1092-1",
        "lng": 138.491682,
        "lat": 35.034862,
        "h": 71
      },
      {
        "name": "神明公園",
        "address": "静岡県静岡市清水区袖師町22-10",
        "lng": 138.485194,
        "lat": 35.041436,
        "h": 16
      },
      {
        "name": "清水日本平運動公園",
        "address": "静岡県静岡市清水区村松3880-1",
        "lng": 138.478242,
        "lat": 34.985361,
        "h": 40
      },
      {
        "name": "不二見生涯学習交流館",
        "address": "静岡県静岡市清水区村松534-2",
        "lng": 138.48751,
        "lat": 34.990812,
        "h": 71
      },
      {
        "name": "清水第四中学校",
        "address": "静岡県静岡市清水区村松683-1",
        "lng": 138.486803,
        "lat": 34.99026,
        "h": 40
      },
      {
        "name": "高部ゴルフ場",
        "address": "静岡県静岡市清水区大内433-2",
        "lng": 138.447642,
        "lat": 35.027344,
        "h": 8
      },
      {
        "name": "清水小島中学校",
        "address": "静岡県静岡市清水区但沼町271",
        "lng": 138.51052,
        "lat": 35.101639,
        "h": 8
      },
      {
        "name": "小島生涯学習交流館",
        "address": "静岡県静岡市清水区但沼町284-1",
        "lng": 138.51138,
        "lat": 35.101639,
        "h": 71
      },
      {
        "name": "桜橋公園",
        "address": "静岡県静岡市清水区淡島町11",
        "lng": 138.478173,
        "lat": 35.013658,
        "h": 16
      },
      {
        "name": "旧清水中河内小学校",
        "address": "静岡県静岡市清水区中河内2583-1",
        "lng": 138.470564,
        "lat": 35.137288,
        "h": 8
      },
      {
        "name": "有度西こども園",
        "address": "静岡県静岡市清水区中之郷1-10-27",
        "lng": 138.440654,
        "lat": 34.998601,
        "h": 8
      },
      {
        "name": "静岡サレジオ高等学校",
        "address": "静岡県静岡市清水区中之郷3-2-1",
        "lng": 138.43863,
        "lat": 35.00314,
        "h": 8
      },
      {
        "name": "清水中矢部公園",
        "address": "静岡県静岡市清水区中矢部町238",
        "lng": 138.47713,
        "lat": 34.999035,
        "h": 16
      },
      {
        "name": "有度北こども園",
        "address": "静岡県静岡市清水区長崎740-1",
        "lng": 138.443138,
        "lat": 35.015735,
        "h": 8
      },
      {
        "name": "長崎新田スポーツ広場",
        "address": "静岡県静岡市清水区長崎新田207",
        "lng": 138.449606,
        "lat": 35.015895,
        "h": 8
      },
      {
        "name": "清水入江小学校",
        "address": "静岡県静岡市清水区追分2-3-1",
        "lng": 138.473485,
        "lat": 35.014286,
        "h": 8
      },
      {
        "name": "清水第八中学校",
        "address": "静岡県静岡市清水区追分4-2429",
        "lng": 138.467342,
        "lat": 35.014767,
        "h": 8
      },
      {
        "name": "清水第六中学校",
        "address": "静岡県静岡市清水区天王西10-40",
        "lng": 138.459276,
        "lat": 35.030277,
        "h": 8
      },
      {
        "name": "清水国際高等学校",
        "address": "静岡県静岡市清水区天神1-4-1",
        "lng": 138.480699,
        "lat": 35.025026,
        "h": 8
      },
      {
        "name": "県営住宅清水南団地付近　駐車場付近",
        "address": "静岡県静岡市清水区殿沢1-16-15",
        "lng": 138.489884,
        "lat": 34.981118,
        "h": 16
      },
      {
        "name": "清水殿沢公園",
        "address": "静岡県静岡市清水区殿沢1-2242-35",
        "lng": 138.490716,
        "lat": 34.980127,
        "h": 16
      },
      {
        "name": "清水駅東口ペデストリアンデッキ",
        "address": "静岡県静岡市清水区島崎町２１４地先",
        "lng": 138.489994,
        "lat": 35.023021,
        "h": 16
      },
      {
        "name": "静岡県立工科短期大学校",
        "address": "静岡県静岡市清水区楠160",
        "lng": 138.437425,
        "lat": 35.008599,
        "h": 8
      },
      {
        "name": "入江生涯学習交流館",
        "address": "静岡県静岡市清水区入江3-8-12",
        "lng": 138.476697,
        "lat": 35.016547,
        "h": 69
      },
      {
        "name": "高部中央こども園",
        "address": "静岡県静岡市清水区梅ヶ谷459-1",
        "lng": 138.45185,
        "lat": 35.04258,
        "h": 8
      },
      {
        "name": "清水特別支援学校",
        "address": "静岡県静岡市清水区八坂東1-16-1",
        "lng": 138.479176,
        "lat": 35.036061,
        "h": 8
      },
      {
        "name": "秋葉山公園",
        "address": "静岡県静岡市清水区八坂東１－３６４－２地内外",
        "lng": 138.481839,
        "lat": 35.036629,
        "h": 56
      },
      {
        "name": "清水飯田東小学校",
        "address": "静岡県静岡市清水区八坂北1-23-40",
        "lng": 138.473118,
        "lat": 35.03495,
        "h": 8
      },
      {
        "name": "興津北こども園",
        "address": "静岡県静岡市清水区八木間町478",
        "lng": 138.520909,
        "lat": 35.06542,
        "h": 8
      },
      {
        "name": "浜田生涯学習交流館",
        "address": "静岡県静岡市清水区浜田町4-4",
        "lng": 138.482795,
        "lat": 35.015093,
        "h": 69
      },
      {
        "name": "北脇新田公園",
        "address": "静岡県静岡市清水区北脇新田370-2",
        "lng": 138.462493,
        "lat": 35.02345,
        "h": 16
      },
      {
        "name": "静岡県果樹研究センター",
        "address": "静岡県静岡市清水区茂畑",
        "lng": 138.490216,
        "lat": 35.081877,
        "h": 8
      },
      {
        "name": "清水有度第一小学校",
        "address": "静岡県静岡市清水区有度本町3-1",
        "lng": 138.453027,
        "lat": 35.007345,
        "h": 8
      },
      {
        "name": "由比中学校",
        "address": "静岡県静岡市清水区由比456",
        "lng": 138.562052,
        "lat": 35.110283,
        "h": 40
      },
      {
        "name": "由比城山公園",
        "address": "静岡県静岡市清水区由比７７８－１９外",
        "lng": 138.567384,
        "lat": 35.110555,
        "h": 8
      },
      {
        "name": "津波避難タワー（由比漁港）",
        "address": "静岡県静岡市清水区由比今宿1130",
        "lng": 138.55468,
        "lat": 35.09866,
        "h": 16
      },
      {
        "name": "由比小学校",
        "address": "静岡県静岡市清水区由比町屋原329",
        "lng": 138.557274,
        "lat": 35.108086,
        "h": 40
      },
      {
        "name": "由比北小学校",
        "address": "静岡県静岡市清水区由比入山2158",
        "lng": 138.556852,
        "lat": 35.129292,
        "h": 40
      },
      {
        "name": "由比生涯学習交流館",
        "address": "静岡県静岡市清水区由比北田457-1",
        "lng": 138.562367,
        "lat": 35.106909,
        "h": 71
      },
      {
        "name": "清水緑が丘公園",
        "address": "静岡県静岡市清水区緑が丘町518-7",
        "lng": 138.487651,
        "lat": 34.991646,
        "h": 16
      },
      {
        "name": "両河内生涯学習交流館",
        "address": "静岡県静岡市清水区和田島171-1",
        "lng": 138.478057,
        "lat": 35.106881,
        "h": 71
      },
      {
        "name": "旧清水和田島小学校",
        "address": "静岡県静岡市清水区和田島611",
        "lng": 138.480799,
        "lat": 35.108597,
        "h": 8
      }
    ]
  },
  "22101": {
    "source": "国土地理院「指定緊急避難場所データ」",
    "asOf": "2026-06-19",
    "sites": [
      {
        "name": "安西小学校",
        "address": "静岡県静岡市葵区安西1-96-3",
        "lng": 138.374022,
        "lat": 34.981113,
        "h": 75
      },
      {
        "name": "安東こども園",
        "address": "静岡県静岡市葵区安東3-11-17",
        "lng": 138.384034,
        "lat": 34.99163,
        "h": 8
      },
      {
        "name": "安東中学校",
        "address": "静岡県静岡市葵区安東3-13-1",
        "lng": 138.384517,
        "lat": 34.992996,
        "h": 8
      },
      {
        "name": "安東小学校",
        "address": "静岡県静岡市葵区安東3-16-1",
        "lng": 138.383409,
        "lat": 34.99172,
        "h": 75
      },
      {
        "name": "安東公園",
        "address": "静岡県静岡市葵区安東１－３０９外",
        "lng": 138.386722,
        "lat": 34.985224,
        "h": 8
      },
      {
        "name": "安倍口小学校",
        "address": "静岡県静岡市葵区安倍口新田50",
        "lng": 138.3599,
        "lat": 35.022324,
        "h": 75
      },
      {
        "name": "安倍口スポーツ広場",
        "address": "静岡県静岡市葵区安倍口新田字大島３０１地先",
        "lng": 138.366007,
        "lat": 35.020053,
        "h": 8
      },
      {
        "name": "安倍口中央こども園",
        "address": "静岡県静岡市葵区安倍口団地3-1",
        "lng": 138.36466,
        "lat": 35.020367,
        "h": 8
      },
      {
        "name": "井川小中学校",
        "address": "静岡県静岡市葵区井川1561-3",
        "lng": 138.235346,
        "lat": 35.219197,
        "h": 8
      },
      {
        "name": "井川こども園",
        "address": "静岡県静岡市葵区井川548-1",
        "lng": 138.238751,
        "lat": 35.221305,
        "h": 8
      },
      {
        "name": "井川生涯学習交流館",
        "address": "静岡県静岡市葵区井川656-2",
        "lng": 138.241253,
        "lat": 35.221644,
        "h": 67
      },
      {
        "name": "特別支援教育センター",
        "address": "静岡県静岡市葵区一番町50",
        "lng": 138.372857,
        "lat": 34.97631,
        "h": 73
      },
      {
        "name": "服織中学校",
        "address": "静岡県静岡市葵区羽鳥1-8-1",
        "lng": 138.344345,
        "lat": 34.980987,
        "h": 8
      },
      {
        "name": "服織小学校",
        "address": "静岡県静岡市葵区羽鳥6-9-1",
        "lng": 138.336511,
        "lat": 34.985628,
        "h": 75
      },
      {
        "name": "服織中央こども園",
        "address": "静岡県静岡市葵区羽鳥本町25-33",
        "lng": 138.330193,
        "lat": 34.986359,
        "h": 8
      },
      {
        "name": "美和小学校",
        "address": "静岡県静岡市葵区遠藤新田69-1",
        "lng": 138.368495,
        "lat": 35.029747,
        "h": 75
      },
      {
        "name": "横山スポーツ広場",
        "address": "静岡県静岡市葵区横山２１９地先外",
        "lng": 138.368202,
        "lat": 35.132191,
        "h": 8
      },
      {
        "name": "清水山公園",
        "address": "静岡県静岡市葵区音羽町1-2",
        "lng": 138.395909,
        "lat": 34.979872,
        "h": 8
      },
      {
        "name": "賤機中学校",
        "address": "静岡県静岡市葵区下1353-1",
        "lng": 138.377087,
        "lat": 35.031515,
        "h": 8
      },
      {
        "name": "下スポーツ広場",
        "address": "静岡県静岡市葵区下１４９２－１地先",
        "lng": 138.376068,
        "lat": 35.037018,
        "h": 8
      },
      {
        "name": "観山中学校",
        "address": "静岡県静岡市葵区観山8-2",
        "lng": 138.393577,
        "lat": 35.013276,
        "h": 8
      },
      {
        "name": "南藁科小学校",
        "address": "静岡県静岡市葵区吉津400",
        "lng": 138.315103,
        "lat": 34.979462,
        "h": 75
      },
      {
        "name": "浅間神社",
        "address": "静岡県静岡市葵区宮ケ崎町102-1",
        "lng": 138.375791,
        "lat": 34.98331,
        "h": 8
      },
      {
        "name": "賤機中小学校",
        "address": "静岡県静岡市葵区牛妻2095-2",
        "lng": 138.370214,
        "lat": 35.06415,
        "h": 75
      },
      {
        "name": "新通小学校",
        "address": "静岡県静岡市葵区駒形通2-4-47",
        "lng": 138.377107,
        "lat": 34.970186,
        "h": 73
      },
      {
        "name": "新通公園",
        "address": "静岡県静岡市葵区駒形通2-6-9",
        "lng": 138.376595,
        "lat": 34.969114,
        "h": 8
      },
      {
        "name": "駒形第二公園",
        "address": "静岡県静岡市葵区駒形通4-12-1",
        "lng": 138.37653,
        "lat": 34.965595,
        "h": 8
      },
      {
        "name": "東中学校",
        "address": "静岡県静岡市葵区沓谷1-6-1",
        "lng": 138.39708,
        "lat": 34.985911,
        "h": 8
      },
      {
        "name": "旧陸軍墓地",
        "address": "静岡県静岡市葵区沓谷2-53",
        "lng": 138.400432,
        "lat": 34.988395,
        "h": 8
      },
      {
        "name": "千代田小学校",
        "address": "静岡県静岡市葵区沓谷5-47-1",
        "lng": 138.406883,
        "lat": 34.995814,
        "h": 75
      },
      {
        "name": "沓谷東公園",
        "address": "静岡県静岡市葵区沓谷6-23",
        "lng": 138.413715,
        "lat": 34.996516,
        "h": 8
      },
      {
        "name": "沓谷第一公園",
        "address": "静岡県静岡市葵区沓谷6-4",
        "lng": 138.40989,
        "lat": 34.994152,
        "h": 8
      },
      {
        "name": "建穂みどり公園",
        "address": "静岡県静岡市葵区建穂746-1",
        "lng": 138.337411,
        "lat": 34.987976,
        "h": 8
      },
      {
        "name": "清沢避難所（東小学校跡地）",
        "address": "静岡県静岡市葵区鍵穴723-1",
        "lng": 138.246745,
        "lat": 35.048558,
        "h": 8
      },
      {
        "name": "県立静岡農業高等学校",
        "address": "静岡県静岡市葵区古庄3-1-1",
        "lng": 138.416332,
        "lat": 34.994265,
        "h": 8
      },
      {
        "name": "古庄中央公園",
        "address": "静岡県静岡市葵区古庄3-505-2",
        "lng": 138.417787,
        "lat": 34.995474,
        "h": 8
      },
      {
        "name": "上土こども園",
        "address": "静岡県静岡市葵区古庄4-2-11",
        "lng": 138.415984,
        "lat": 34.999006,
        "h": 8
      },
      {
        "name": "口坂本避難所",
        "address": "静岡県静岡市葵区口坂本544",
        "lng": 138.275064,
        "lat": 35.184141,
        "h": 8
      },
      {
        "name": "口仙俣分校跡地",
        "address": "静岡県静岡市葵区口仙俣356-1",
        "lng": 138.31803,
        "lat": 35.188562,
        "h": 8
      },
      {
        "name": "黒俣中村公民館",
        "address": "静岡県静岡市葵区黒俣",
        "lng": 138.214435,
        "lat": 35.033084,
        "h": 8
      },
      {
        "name": "旧峰山小学校",
        "address": "静岡県静岡市葵区黒俣2741-16",
        "lng": 138.206665,
        "lat": 35.068685,
        "h": 8
      },
      {
        "name": "伝馬町新田スポーツ広場",
        "address": "静岡県静岡市葵区桜町１－９３２－２３２地先",
        "lng": 138.360391,
        "lat": 34.989807,
        "h": 8
      },
      {
        "name": "桜町スポーツ広場",
        "address": "静岡県静岡市葵区桜町２－９８７地先",
        "lng": 138.359779,
        "lat": 34.997908,
        "h": 8
      },
      {
        "name": "服織こども園",
        "address": "静岡県静岡市葵区山崎1-17-1",
        "lng": 138.353796,
        "lat": 34.975716,
        "h": 8
      },
      {
        "name": "山崎新田スポーツ広場",
        "address": "静岡県静岡市葵区山崎１－４－３０地先",
        "lng": 138.356252,
        "lat": 34.9777,
        "h": 8
      },
      {
        "name": "静岡斎場",
        "address": "静岡県静岡市葵区慈悲尾472-1",
        "lng": 138.351934,
        "lat": 34.994954,
        "h": 8
      },
      {
        "name": "堤町緑地スポーツ広場",
        "address": "静岡県静岡市葵区秋山町３３５－４１１地先",
        "lng": 138.359867,
        "lat": 35.00091,
        "h": 8
      },
      {
        "name": "住吉公園",
        "address": "静岡県静岡市葵区住吉町2-53",
        "lng": 138.373129,
        "lat": 34.976117,
        "h": 8
      },
      {
        "name": "駿府城公園",
        "address": "静岡県静岡市葵区駿府城公園1-1",
        "lng": 138.382262,
        "lat": 34.978724,
        "h": 40
      },
      {
        "name": "城内中学校",
        "address": "静岡県静岡市葵区駿府町1-107",
        "lng": 138.385799,
        "lat": 34.977003,
        "h": 73
      },
      {
        "name": "静岡大学付属静岡中学校",
        "address": "静岡県静岡市葵区駿府町1-86",
        "lng": 138.386389,
        "lat": 34.979096,
        "h": 8
      },
      {
        "name": "静岡大学附属静岡小学校",
        "address": "静岡県静岡市葵区駿府町1-94",
        "lng": 138.385641,
        "lat": 34.97778,
        "h": 8
      },
      {
        "name": "中藁科小学校小布杉分校",
        "address": "静岡県静岡市葵区小布杉1756-1",
        "lng": 138.243548,
        "lat": 34.998441,
        "h": 8
      },
      {
        "name": "賤機南小学校",
        "address": "静岡県静岡市葵区松富3-1-46",
        "lng": 138.374693,
        "lat": 35.014492,
        "h": 75
      },
      {
        "name": "松野小学校",
        "address": "静岡県静岡市葵区松野598-2",
        "lng": 138.367225,
        "lat": 35.076736,
        "h": 75
      },
      {
        "name": "井宮北小学校",
        "address": "静岡県静岡市葵区上伝馬2-1",
        "lng": 138.368706,
        "lat": 35.004699,
        "h": 75
      },
      {
        "name": "川合本田公園",
        "address": "静岡県静岡市葵区上土1-1297-1",
        "lng": 138.41359,
        "lat": 35.001406,
        "h": 8
      },
      {
        "name": "城東公園",
        "address": "静岡県静岡市葵区城東町11",
        "lng": 138.388993,
        "lat": 34.984621,
        "h": 8
      },
      {
        "name": "城東保健福祉エリア",
        "address": "静岡県静岡市葵区城東町24-1",
        "lng": 138.38738,
        "lat": 34.986326,
        "h": 8
      },
      {
        "name": "青木の杜公園",
        "address": "静岡県静岡市葵区城東町54",
        "lng": 138.39024,
        "lat": 34.987888,
        "h": 8
      },
      {
        "name": "葵小学校",
        "address": "静岡県静岡市葵区城内町7-9",
        "lng": 138.382599,
        "lat": 34.982164,
        "h": 75
      },
      {
        "name": "県立静岡中央高等学校",
        "address": "静岡県静岡市葵区城北2-29-1",
        "lng": 138.392946,
        "lat": 35.005136,
        "h": 8
      },
      {
        "name": "常磐公園",
        "address": "静岡県静岡市葵区常磐町3-3-1",
        "lng": 138.380495,
        "lat": 34.970033,
        "h": 8
      },
      {
        "name": "新間宮前スポーツ広場",
        "address": "静岡県静岡市葵区新間1435",
        "lng": 138.308782,
        "lat": 34.996858,
        "h": 8
      },
      {
        "name": "服織西小学校",
        "address": "静岡県静岡市葵区新間759-1-1",
        "lng": 138.307652,
        "lat": 34.994387,
        "h": 75
      },
      {
        "name": "番町小学校",
        "address": "静岡県静岡市葵区新富町1-23-1",
        "lng": 138.369233,
        "lat": 34.975194,
        "h": 73
      },
      {
        "name": "旧水見色小学校",
        "address": "静岡県静岡市葵区水見色1040-3",
        "lng": 138.294519,
        "lat": 35.038285,
        "h": 8
      },
      {
        "name": "常葉大学",
        "address": "静岡県静岡市葵区瀬名1-22-1",
        "lng": 138.426224,
        "lat": 35.013493,
        "h": 8
      },
      {
        "name": "常葉学園橘中学・高等学校",
        "address": "静岡県静岡市葵区瀬名2-1-1",
        "lng": 138.417203,
        "lat": 35.013712,
        "h": 8
      },
      {
        "name": "西奈小学校",
        "address": "静岡県静岡市葵区瀬名3-23-1",
        "lng": 138.422109,
        "lat": 35.023427,
        "h": 75
      },
      {
        "name": "瀬名水梨スポーツ広場",
        "address": "静岡県静岡市葵区瀬名4-1458-5",
        "lng": 138.418473,
        "lat": 35.022631,
        "h": 8
      },
      {
        "name": "静岡北高等学校",
        "address": "静岡県静岡市葵区瀬名5-14-1",
        "lng": 138.422083,
        "lat": 35.025948,
        "h": 8
      },
      {
        "name": "新幕公園",
        "address": "静岡県静岡市葵区瀬名6-4066",
        "lng": 138.424563,
        "lat": 35.028047,
        "h": 8
      },
      {
        "name": "竜爪中学校",
        "address": "静岡県静岡市葵区瀬名7-31-40",
        "lng": 138.424133,
        "lat": 35.030146,
        "h": 8
      },
      {
        "name": "瀬名川こども園",
        "address": "静岡県静岡市葵区瀬名川1-21-40",
        "lng": 138.426953,
        "lat": 35.004743,
        "h": 8
      },
      {
        "name": "瀬名川西公園",
        "address": "静岡県静岡市葵区瀬名川1-8",
        "lng": 138.423739,
        "lat": 35.00231,
        "h": 8
      },
      {
        "name": "西ヶ谷総合運動場",
        "address": "静岡県静岡市葵区西ヶ谷8-1",
        "lng": 138.352883,
        "lat": 35.013055,
        "h": 8
      },
      {
        "name": "西草深公園",
        "address": "静岡県静岡市葵区西草深町27-9",
        "lng": 138.376928,
        "lat": 34.983416,
        "h": 8
      },
      {
        "name": "静岡英和女学院中学・高等学校",
        "address": "静岡県静岡市葵区西草深町8-1",
        "lng": 138.37941,
        "lat": 34.982047,
        "h": 8
      },
      {
        "name": "千代スポーツ広場",
        "address": "静岡県静岡市葵区千代２－７６８－３地先",
        "lng": 138.355618,
        "lat": 34.981506,
        "h": 8
      },
      {
        "name": "市立高等学校",
        "address": "静岡県静岡市葵区千代田3-1-1",
        "lng": 138.398896,
        "lat": 34.993145,
        "h": 8
      },
      {
        "name": "県立静岡東高等学校",
        "address": "静岡県静岡市葵区川合3-24-1",
        "lng": 138.413196,
        "lat": 35.009324,
        "h": 8
      },
      {
        "name": "千代田東小学校",
        "address": "静岡県静岡市葵区川合3-4-1",
        "lng": 138.413792,
        "lat": 35.005713,
        "h": 75
      },
      {
        "name": "旧清沢小学校",
        "address": "静岡県静岡市葵区相俣99-1",
        "lng": 138.245495,
        "lat": 35.033118,
        "h": 8
      },
      {
        "name": "旧足久保小学校",
        "address": "静岡県静岡市葵区足久保奥組741-1",
        "lng": 138.338195,
        "lat": 35.060927,
        "h": 8
      },
      {
        "name": "美和中学校",
        "address": "静岡県静岡市葵区足久保口組3276-2",
        "lng": 138.36775,
        "lat": 35.043743,
        "h": 75
      },
      {
        "name": "足久保スポーツ広場",
        "address": "静岡県静岡市葵区足久保口組谷口３２７６－３地先",
        "lng": 138.356564,
        "lat": 35.045278,
        "h": 8
      },
      {
        "name": "城北公園",
        "address": "静岡県静岡市葵区大岩本町29",
        "lng": 138.378446,
        "lat": 34.989174,
        "h": 40
      },
      {
        "name": "中藁科こども園",
        "address": "静岡県静岡市葵区大原1237",
        "lng": 138.278715,
        "lat": 35.007529,
        "h": 8
      },
      {
        "name": "藁科中学校",
        "address": "静岡県静岡市葵区大原1398-1",
        "lng": 138.281882,
        "lat": 35.009195,
        "h": 8
      },
      {
        "name": "中藁科小学校",
        "address": "静岡県静岡市葵区大原942-1",
        "lng": 138.27605,
        "lat": 35.009656,
        "h": 75
      },
      {
        "name": "静岡大成中学・高等学校",
        "address": "静岡県静岡市葵区鷹匠2-4-18",
        "lng": 138.388744,
        "lat": 34.978228,
        "h": 8
      },
      {
        "name": "鷹匠公園",
        "address": "静岡県静岡市葵区鷹匠3-15",
        "lng": 138.390667,
        "lat": 34.980023,
        "h": 8
      },
      {
        "name": "辰起町スポーツ広場　安倍川（左岸）",
        "address": "静岡県静岡市葵区辰起町２０－４地先",
        "lng": 138.360527,
        "lat": 34.986937,
        "h": 40
      },
      {
        "name": "清沢生涯学習交流館",
        "address": "静岡県静岡市葵区昼居渡66-2",
        "lng": 138.25349,
        "lat": 35.034497,
        "h": 67
      },
      {
        "name": "玉川キャンプセンター",
        "address": "静岡県静岡市葵区長妻田755",
        "lng": 138.326655,
        "lat": 35.163082,
        "h": 8
      },
      {
        "name": "長沼こども園",
        "address": "静岡県静岡市葵区長沼2-18-31",
        "lng": 138.414293,
        "lat": 34.993307,
        "h": 8
      },
      {
        "name": "県立科学技術高等学校",
        "address": "静岡県静岡市葵区長沼500-1",
        "lng": 138.410916,
        "lat": 34.988423,
        "h": 8
      },
      {
        "name": "県立静岡高等学校",
        "address": "静岡県静岡市葵区長谷町66",
        "lng": 138.380477,
        "lat": 34.985303,
        "h": 8
      },
      {
        "name": "伝馬公園",
        "address": "静岡県静岡市葵区伝馬町14-1",
        "lng": 138.390202,
        "lat": 34.974461,
        "h": 8
      },
      {
        "name": "伝馬町小学校",
        "address": "静岡県静岡市葵区伝馬町14-2",
        "lng": 138.391273,
        "lat": 34.975026,
        "h": 75
      },
      {
        "name": "井川北小学校跡地",
        "address": "静岡県静岡市葵区田代358",
        "lng": 138.239417,
        "lat": 35.254102,
        "h": 8
      },
      {
        "name": "田町こども園",
        "address": "静岡県静岡市葵区田町1-79",
        "lng": 138.366077,
        "lat": 34.974971,
        "h": 8
      },
      {
        "name": "田町公園",
        "address": "静岡県静岡市葵区田町3-46-5",
        "lng": 138.366734,
        "lat": 34.971005,
        "h": 8
      },
      {
        "name": "田町小学校",
        "address": "静岡県静岡市葵区田町5-70",
        "lng": 138.366749,
        "lat": 34.967267,
        "h": 73
      },
      {
        "name": "県立静岡商業高等学校",
        "address": "静岡県静岡市葵区田町7-90",
        "lng": 138.367882,
        "lat": 34.964527,
        "h": 8
      },
      {
        "name": "田町緑地スポーツ広場　安倍川（左岸）",
        "address": "静岡県静岡市葵区田町１－９７－５地先",
        "lng": 138.362557,
        "lat": 34.969848,
        "h": 40
      },
      {
        "name": "西奈中学校",
        "address": "静岡県静岡市葵区東瀬名町14-1",
        "lng": 138.427386,
        "lat": 35.011352,
        "h": 8
      },
      {
        "name": "静岡学園中学・高等学校",
        "address": "静岡県静岡市葵区東鷹匠町25",
        "lng": 138.394229,
        "lat": 34.98249,
        "h": 8
      },
      {
        "name": "静岡市クリエーターズビレッジ（旧楢尾青少年の家）",
        "address": "静岡県静岡市葵区楢尾329",
        "lng": 138.214642,
        "lat": 35.121184,
        "h": 8
      },
      {
        "name": "駒形小学校",
        "address": "静岡県静岡市葵区南安倍2-1-1",
        "lng": 138.373161,
        "lat": 34.961683,
        "h": 73
      },
      {
        "name": "弥勒スポーツ広場　安部川（左岸）",
        "address": "静岡県静岡市葵区南安倍２－２６－２地先",
        "lng": 138.370945,
        "lat": 34.959833,
        "h": 40
      },
      {
        "name": "西奈南小学校",
        "address": "静岡県静岡市葵区南瀬名町1-20",
        "lng": 138.422715,
        "lat": 35.002268,
        "h": 73
      },
      {
        "name": "大川小中学校",
        "address": "静岡県静岡市葵区日向876",
        "lng": 138.240871,
        "lat": 35.092437,
        "h": 75
      },
      {
        "name": "梅ケ島生涯学習交流館",
        "address": "静岡県静岡市葵区梅ケ島1309",
        "lng": 138.340949,
        "lat": 35.243429,
        "h": 67
      },
      {
        "name": "梅ケ島小学校跡地",
        "address": "静岡県静岡市葵区梅ケ島1309-1",
        "lng": 138.340379,
        "lat": 35.243668,
        "h": 8
      },
      {
        "name": "梅ケ島小中学校",
        "address": "静岡県静岡市葵区梅ケ島1309-1",
        "lng": 138.339681,
        "lat": 35.244018,
        "h": 8
      },
      {
        "name": "新田集会場",
        "address": "静岡県静岡市葵区梅ヶ島5615",
        "lng": 138.325928,
        "lat": 35.278023,
        "h": 8
      },
      {
        "name": "賤機北小学校",
        "address": "静岡県静岡市葵区俵沢234-1",
        "lng": 138.367378,
        "lat": 35.108312,
        "h": 75
      },
      {
        "name": "大河内北小学校跡地",
        "address": "静岡県静岡市葵区平野",
        "lng": 138.363142,
        "lat": 35.18402,
        "h": 8
      },
      {
        "name": "大河内生涯学習交流館",
        "address": "静岡県静岡市葵区平野1097-38",
        "lng": 138.365685,
        "lat": 35.142165,
        "h": 67
      },
      {
        "name": "大河内小学校跡地",
        "address": "静岡県静岡市葵区平野1850-3",
        "lng": 138.361423,
        "lat": 35.148294,
        "h": 8
      },
      {
        "name": "大河内小中学校",
        "address": "静岡県静岡市葵区平野1850-66",
        "lng": 138.361992,
        "lat": 35.149071,
        "h": 8
      },
      {
        "name": "井宮小学校",
        "address": "静岡県静岡市葵区平和1-7-1",
        "lng": 138.366779,
        "lat": 34.988437,
        "h": 75
      },
      {
        "name": "籠上中学校",
        "address": "静岡県静岡市葵区平和2-2-1",
        "lng": 138.366668,
        "lat": 34.991947,
        "h": 8
      },
      {
        "name": "県営住宅麻機羽高団地敷地",
        "address": "静岡県静岡市葵区北",
        "lng": 138.391722,
        "lat": 35.036991,
        "h": 8
      },
      {
        "name": "北才光寺公園",
        "address": "静岡県静岡市葵区北1658-1",
        "lng": 138.399967,
        "lat": 35.041906,
        "h": 8
      },
      {
        "name": "北浅間神社",
        "address": "静岡県静岡市葵区北3-5",
        "lng": 138.399583,
        "lat": 35.038432,
        "h": 8
      },
      {
        "name": "北大門公園",
        "address": "静岡県静岡市葵区北521-10",
        "lng": 138.397789,
        "lat": 35.034914,
        "h": 8
      },
      {
        "name": "今宮公園",
        "address": "静岡県静岡市葵区北２１３０他",
        "lng": 138.394824,
        "lat": 35.040239,
        "h": 8
      },
      {
        "name": "北安東一丁目ゆめみらい公園",
        "address": "静岡県静岡市葵区北安東1-291-1",
        "lng": 138.388693,
        "lat": 34.995085,
        "h": 8
      },
      {
        "name": "県立静岡城北高等学校",
        "address": "静岡県静岡市葵区北安東2-3-1",
        "lng": 138.385203,
        "lat": 34.994918,
        "h": 8
      },
      {
        "name": "城北小学校",
        "address": "静岡県静岡市葵区北安東4-27-3",
        "lng": 138.387656,
        "lat": 35.002631,
        "h": 75
      },
      {
        "name": "北沼上小学校",
        "address": "静岡県静岡市葵区北沼上1020",
        "lng": 138.423892,
        "lat": 35.047463,
        "h": 75
      },
      {
        "name": "北沼上こども園",
        "address": "静岡県静岡市葵区北沼上758-1",
        "lng": 138.424536,
        "lat": 35.035169,
        "h": 8
      },
      {
        "name": "牧ヶ谷北公園",
        "address": "静岡県静岡市葵区牧ヶ谷2175",
        "lng": 138.347344,
        "lat": 34.972722,
        "h": 8
      },
      {
        "name": "県立静岡西高等学校",
        "address": "静岡県静岡市葵区牧ヶ谷680-1",
        "lng": 138.350405,
        "lat": 34.971337,
        "h": 8
      },
      {
        "name": "末広中学校",
        "address": "静岡県静岡市葵区末広町41",
        "lng": 138.37238,
        "lat": 34.982636,
        "h": 8
      },
      {
        "name": "門屋スポーツ広場",
        "address": "静岡県静岡市葵区門屋３６３－２地先",
        "lng": 138.373269,
        "lat": 35.04848,
        "h": 8
      },
      {
        "name": "安倍川中学校",
        "address": "静岡県静岡市葵区弥勒2-11-1",
        "lng": 138.368404,
        "lat": 34.963236,
        "h": 8
      },
      {
        "name": "麻機小学校",
        "address": "静岡県静岡市葵区有永町2-43",
        "lng": 138.389484,
        "lat": 35.025676,
        "h": 75
      },
      {
        "name": "有東木分校跡地",
        "address": "静岡県静岡市葵区有東木",
        "lng": 138.369711,
        "lat": 35.207815,
        "h": 8
      },
      {
        "name": "護国神社",
        "address": "静岡県静岡市葵区柚木366",
        "lng": 138.407327,
        "lat": 34.986823,
        "h": 8
      },
      {
        "name": "与一スポーツ広場",
        "address": "静岡県静岡市葵区与一４－３３５－７２７地先",
        "lng": 138.362161,
        "lat": 35.00768,
        "h": 8
      },
      {
        "name": "玉川小中学校",
        "address": "静岡県静岡市葵区落合103-3",
        "lng": 138.333745,
        "lat": 35.110206,
        "h": 8
      },
      {
        "name": "玉川生涯学習交流館",
        "address": "静岡県静岡市葵区落合126-1",
        "lng": 138.331551,
        "lat": 35.110429,
        "h": 67
      },
      {
        "name": "玉川西公民館（小学校跡地）",
        "address": "静岡県静岡市葵区落合1417-12",
        "lng": 138.305927,
        "lat": 35.117132,
        "h": 8
      },
      {
        "name": "ガイアフロー静岡蒸留所　駐車場",
        "address": "静岡県静岡市葵区落合555",
        "lng": 138.325233,
        "lat": 35.120783,
        "h": 8
      },
      {
        "name": "竜南小学校",
        "address": "静岡県静岡市葵区竜南1-23-1",
        "lng": 138.39623,
        "lat": 34.99904,
        "h": 73
      },
      {
        "name": "竜南雨坪公園",
        "address": "静岡県静岡市葵区竜南3-162",
        "lng": 138.401238,
        "lat": 35.000627,
        "h": 8
      },
      {
        "name": "横内小学校",
        "address": "静岡県静岡市葵区緑町1-1",
        "lng": 138.392867,
        "lat": 34.986068,
        "h": 75
      }
    ]
  },
  "22102": {
    "source": "国土地理院「指定緊急避難場所データ」",
    "asOf": "2026-06-19",
    "sites": [
      {
        "name": "みずほなかよし公園",
        "address": "静岡県静岡市駿河区みずほ1-8-1",
        "lng": 138.369326,
        "lat": 34.941743,
        "h": 8
      },
      {
        "name": "長田南中学校",
        "address": "静岡県静岡市駿河区みずほ3-9-1",
        "lng": 138.367991,
        "lat": 34.937691,
        "h": 8
      },
      {
        "name": "みずほ公園",
        "address": "静岡県静岡市駿河区みずほ5-12",
        "lng": 138.365818,
        "lat": 34.938311,
        "h": 8
      },
      {
        "name": "道の駅「宇津ノ谷峠」",
        "address": "静岡県静岡市駿河区宇津ノ谷",
        "lng": 138.309697,
        "lat": 34.937462,
        "h": 8
      },
      {
        "name": "恩田原公園",
        "address": "静岡県静岡市駿河区恩田原",
        "lng": 138.420183,
        "lat": 34.964278,
        "h": 8
      },
      {
        "name": "下川原　天満宮公園",
        "address": "静岡県静岡市駿河区下川原2-31",
        "lng": 138.376809,
        "lat": 34.937794,
        "h": 16
      },
      {
        "name": "下川原東公園",
        "address": "静岡県静岡市駿河区下川原4-115",
        "lng": 138.382342,
        "lat": 34.93677,
        "h": 8
      },
      {
        "name": "川原小学校",
        "address": "静岡県静岡市駿河区下川原4-14-1",
        "lng": 138.383091,
        "lat": 34.937377,
        "h": 77
      },
      {
        "name": "下川原公園",
        "address": "静岡県静岡市駿河区下川原6-24-6",
        "lng": 138.377089,
        "lat": 34.932857,
        "h": 8
      },
      {
        "name": "下川原こども園",
        "address": "静岡県静岡市駿河区下川原6-8-26",
        "lng": 138.373672,
        "lat": 34.933611,
        "h": 8
      },
      {
        "name": "下島北公園",
        "address": "静岡県静岡市駿河区下島",
        "lng": 138.406437,
        "lat": 34.948899,
        "h": 8
      },
      {
        "name": "津波避難タワー（下島）",
        "address": "静岡県静岡市駿河区下島615-56",
        "lng": 138.408841,
        "lat": 34.943235,
        "h": 16
      },
      {
        "name": "長田西中学校",
        "address": "静岡県静岡市駿河区丸子1-1-1",
        "lng": 138.359185,
        "lat": 34.947423,
        "h": 8
      },
      {
        "name": "丸子こども園",
        "address": "静岡県静岡市駿河区丸子2-18-32",
        "lng": 138.355527,
        "lat": 34.942898,
        "h": 8
      },
      {
        "name": "丸子尻高公園",
        "address": "静岡県静岡市駿河区丸子3-682-4",
        "lng": 138.352784,
        "lat": 34.946364,
        "h": 8
      },
      {
        "name": "長田西小学校",
        "address": "静岡県静岡市駿河区丸子6-15-65",
        "lng": 138.350357,
        "lat": 34.946373,
        "h": 79
      },
      {
        "name": "丸子川スポーツ広場",
        "address": "静岡県静岡市駿河区丸子７－２５８６－３地先",
        "lng": 138.336575,
        "lat": 34.950696,
        "h": 8
      },
      {
        "name": "高松公園",
        "address": "静岡県静岡市駿河区宮竹1-6",
        "lng": 138.415742,
        "lat": 34.95359,
        "h": 24
      },
      {
        "name": "南中学校",
        "address": "静岡県静岡市駿河区宮竹2-11-1",
        "lng": 138.418385,
        "lat": 34.951051,
        "h": 8
      },
      {
        "name": "宮竹小学校",
        "address": "静岡県静岡市駿河区宮竹2-12-1",
        "lng": 138.417472,
        "lat": 34.951799,
        "h": 77
      },
      {
        "name": "西豊田小学校",
        "address": "静岡県静岡市駿河区曲金2-8-80",
        "lng": 138.407105,
        "lat": 34.978513,
        "h": 77
      },
      {
        "name": "県草薙総合運動場",
        "address": "静岡県静岡市駿河区栗原19-1",
        "lng": 138.42896,
        "lat": 34.989258,
        "h": 40
      },
      {
        "name": "久能小学校",
        "address": "静岡県静岡市駿河区古宿213-2",
        "lng": 138.456553,
        "lat": 34.957886,
        "h": 79
      },
      {
        "name": "長田北小学校",
        "address": "静岡県静岡市駿河区向敷地1-10-28",
        "lng": 138.359093,
        "lat": 34.96164,
        "h": 79
      },
      {
        "name": "長田北向ヶ丘公園",
        "address": "静岡県静岡市駿河区向敷地614-1",
        "lng": 138.356874,
        "lat": 34.957139,
        "h": 8
      },
      {
        "name": "向ヶ丘広場",
        "address": "静岡県静岡市駿河区向敷地614-1",
        "lng": 138.357383,
        "lat": 34.957127,
        "h": 8
      },
      {
        "name": "向敷地スポーツ広場",
        "address": "静岡県静岡市駿河区向敷地８４８－４０地先",
        "lng": 138.358236,
        "lat": 34.96439,
        "h": 8
      },
      {
        "name": "広野公園",
        "address": "静岡県静岡市駿河区広野2-81",
        "lng": 138.366474,
        "lat": 34.932436,
        "h": 24
      },
      {
        "name": "津波避難タワー（長田南⑥）",
        "address": "静岡県静岡市駿河区広野4-1061-2",
        "lng": 138.370242,
        "lat": 34.925961,
        "h": 16
      },
      {
        "name": "長田南小学校",
        "address": "静岡県静岡市駿河区広野4-7-1",
        "lng": 138.369598,
        "lat": 34.927798,
        "h": 69
      },
      {
        "name": "高松若宮公園",
        "address": "静岡県静岡市駿河区高松1-217",
        "lng": 138.418786,
        "lat": 34.957504,
        "h": 8
      },
      {
        "name": "高松神明原公園",
        "address": "静岡県静岡市駿河区高松2-315",
        "lng": 138.421791,
        "lat": 34.951984,
        "h": 8
      },
      {
        "name": "大里東小学校",
        "address": "静岡県静岡市駿河区高松2310",
        "lng": 138.418895,
        "lat": 34.946353,
        "h": 69
      },
      {
        "name": "東豊田中学校",
        "address": "静岡県静岡市駿河区国吉田5-23-1",
        "lng": 138.436877,
        "lat": 34.991195,
        "h": 8
      },
      {
        "name": "東豊田中央こども園",
        "address": "静岡県静岡市駿河区国吉田6-7-29",
        "lng": 138.436557,
        "lat": 34.990367,
        "h": 8
      },
      {
        "name": "東源台小学校",
        "address": "静岡県静岡市駿河区国吉田6-7-45",
        "lng": 138.437279,
        "lat": 34.989253,
        "h": 79
      },
      {
        "name": "小黒こども園",
        "address": "静岡県静岡市駿河区小黒1-7-6",
        "lng": 138.40091,
        "lat": 34.975015,
        "h": 8
      },
      {
        "name": "城山中学校",
        "address": "静岡県静岡市駿河区小坂2-33",
        "lng": 138.357452,
        "lat": 34.930374,
        "h": 71
      },
      {
        "name": "静岡聖光学院中学・高等学校",
        "address": "静岡県静岡市駿河区小鹿1440",
        "lng": 138.433617,
        "lat": 34.971778,
        "h": 8
      },
      {
        "name": "静岡県立大学短期大学部",
        "address": "静岡県静岡市駿河区小鹿2-2-1",
        "lng": 138.417225,
        "lat": 34.974845,
        "h": 8
      },
      {
        "name": "競輪場駐車場",
        "address": "静岡県静岡市駿河区小鹿2-9-1",
        "lng": 138.423491,
        "lat": 34.970763,
        "h": 8
      },
      {
        "name": "小鹿公園",
        "address": "静岡県静岡市駿河区小鹿930-4",
        "lng": 138.42723,
        "lat": 34.971997,
        "h": 8
      },
      {
        "name": "新川公園",
        "address": "静岡県静岡市駿河区新川2-13",
        "lng": 138.38694,
        "lat": 34.961544,
        "h": 8
      },
      {
        "name": "森下小学校",
        "address": "静岡県静岡市駿河区森下町2-1",
        "lng": 138.392728,
        "lat": 34.971206,
        "h": 79
      },
      {
        "name": "中原スポーツ広場　安倍川（左岸）",
        "address": "静岡県静岡市駿河区西中原２－１２５０－２４地先",
        "lng": 138.379522,
        "lat": 34.953511,
        "h": 40
      },
      {
        "name": "津波避難タワー（大浜）",
        "address": "静岡県静岡市駿河区西島1380",
        "lng": 138.407138,
        "lat": 34.939128,
        "h": 16
      },
      {
        "name": "津波避難タワー（西島）",
        "address": "静岡県静岡市駿河区西島667-1",
        "lng": 138.405297,
        "lat": 34.942402,
        "h": 16
      },
      {
        "name": "津波避難タワー（石部）",
        "address": "静岡県静岡市駿河区石部183-1",
        "lng": 138.356538,
        "lat": 34.91592,
        "h": 16
      },
      {
        "name": "大谷不動山公園",
        "address": "静岡県静岡市駿河区大谷2-8",
        "lng": 138.431188,
        "lat": 34.951985,
        "h": 16
      },
      {
        "name": "大谷洋光台東公園",
        "address": "静岡県静岡市駿河区大谷3163-12",
        "lng": 138.435988,
        "lat": 34.952964,
        "h": 16
      },
      {
        "name": "大谷小学校",
        "address": "静岡県静岡市駿河区大谷3683-2",
        "lng": 138.429482,
        "lat": 34.954859,
        "h": 79
      },
      {
        "name": "ふじのくに地球環境史ミュージアム",
        "address": "静岡県静岡市駿河区大谷5762",
        "lng": 138.436598,
        "lat": 34.95928,
        "h": 8
      },
      {
        "name": "静岡大学",
        "address": "静岡県静岡市駿河区大谷836",
        "lng": 138.431861,
        "lat": 34.964903,
        "h": 8
      },
      {
        "name": "片山公園",
        "address": "静岡県静岡市駿河区大谷839",
        "lng": 138.428916,
        "lat": 34.966896,
        "h": 8
      },
      {
        "name": "静岡県立大学芝生公園",
        "address": "静岡県静岡市駿河区谷田50-19",
        "lng": 138.443951,
        "lat": 34.994317,
        "h": 40
      },
      {
        "name": "池田島崎公園",
        "address": "静岡県静岡市駿河区池田1562-2",
        "lng": 138.424966,
        "lat": 34.978979,
        "h": 8
      },
      {
        "name": "静岡英和学院大学",
        "address": "静岡県静岡市駿河区池田1769",
        "lng": 138.43671,
        "lat": 34.983095,
        "h": 8
      },
      {
        "name": "東豊田小学校",
        "address": "静岡県静岡市駿河区池田491-2",
        "lng": 138.423389,
        "lat": 34.984063,
        "h": 79
      },
      {
        "name": "池田公園",
        "address": "静岡県静岡市駿河区池田605",
        "lng": 138.421778,
        "lat": 34.980951,
        "h": 8
      },
      {
        "name": "中吉田公園",
        "address": "静岡県静岡市駿河区中吉田9",
        "lng": 138.437069,
        "lat": 34.997527,
        "h": 8
      },
      {
        "name": "大里西小学校",
        "address": "静岡県静岡市駿河区中原400",
        "lng": 138.386355,
        "lat": 34.956934,
        "h": 77
      },
      {
        "name": "中原桔梗公園",
        "address": "静岡県静岡市駿河区中原495-1",
        "lng": 138.388144,
        "lat": 34.954805,
        "h": 8
      },
      {
        "name": "静岡聴覚特別支援学校",
        "address": "静岡県静岡市駿河区中村町251",
        "lng": 138.392325,
        "lat": 34.950966,
        "h": 8
      },
      {
        "name": "中村町こども園",
        "address": "静岡県静岡市駿河区中村町94",
        "lng": 138.392015,
        "lat": 34.953873,
        "h": 8
      },
      {
        "name": "中田小学校",
        "address": "静岡県静岡市駿河区中田2-14-1",
        "lng": 138.392525,
        "lat": 34.9636,
        "h": 77
      },
      {
        "name": "国道１５０号　中島高架橋非常階段",
        "address": "静岡県静岡市駿河区中島",
        "lng": 138.397431,
        "lat": 34.938763,
        "h": 16
      },
      {
        "name": "津波避難タワー（中島）",
        "address": "静岡県静岡市駿河区中島2676-1",
        "lng": 138.403596,
        "lat": 34.937519,
        "h": 16
      },
      {
        "name": "中島児童館",
        "address": "静岡県静岡市駿河区中島2992",
        "lng": 138.39897,
        "lat": 34.94138,
        "h": 8
      },
      {
        "name": "中島小学校",
        "address": "静岡県静岡市駿河区中島2992-1",
        "lng": 138.399444,
        "lat": 34.941009,
        "h": 69
      },
      {
        "name": "中島上公園",
        "address": "静岡県静岡市駿河区中島430-6",
        "lng": 138.394858,
        "lat": 34.943764,
        "h": 24
      },
      {
        "name": "昌林寺",
        "address": "静岡県静岡市駿河区中島636",
        "lng": 138.391346,
        "lat": 34.94124,
        "h": 24
      },
      {
        "name": "中野新田スポーツ広場",
        "address": "静岡県静岡市駿河区中島３０４－８地先",
        "lng": 138.386287,
        "lat": 34.946194,
        "h": 8
      },
      {
        "name": "久能天羽衣公園",
        "address": "静岡県静岡市駿河区中平松173-1",
        "lng": 138.444177,
        "lat": 34.954308,
        "h": 16
      },
      {
        "name": "大里中学校",
        "address": "静岡県静岡市駿河区中野新田57-5",
        "lng": 138.384707,
        "lat": 34.952021,
        "h": 8
      },
      {
        "name": "富士見小学校",
        "address": "静岡県静岡市駿河区登呂1-1-1",
        "lng": 138.409771,
        "lat": 34.960572,
        "h": 79
      },
      {
        "name": "登呂こども園",
        "address": "静岡県静岡市駿河区登呂3-19-1",
        "lng": 138.407389,
        "lat": 34.958438,
        "h": 8
      },
      {
        "name": "高松中学校",
        "address": "静岡県静岡市駿河区登呂4-6-1",
        "lng": 138.410141,
        "lat": 34.958322,
        "h": 8
      },
      {
        "name": "登呂二丁目公園",
        "address": "静岡県静岡市駿河区登呂２－８３－２外",
        "lng": 138.413102,
        "lat": 34.959598,
        "h": 8
      },
      {
        "name": "登呂公園",
        "address": "静岡県静岡市駿河区登呂５－４５７－１他",
        "lng": 138.408597,
        "lat": 34.955793,
        "h": 8
      },
      {
        "name": "長田東小学校",
        "address": "静岡県静岡市駿河区東新田3-10-1",
        "lng": 138.372534,
        "lat": 34.946007,
        "h": 77
      },
      {
        "name": "東新田こども園",
        "address": "静岡県静岡市駿河区東新田4-1-40",
        "lng": 138.375819,
        "lat": 34.944821,
        "h": 8
      },
      {
        "name": "東新田公園",
        "address": "静岡県静岡市駿河区東新田4-924",
        "lng": 138.378626,
        "lat": 34.944004,
        "h": 8
      },
      {
        "name": "丸子新田スポーツ広場",
        "address": "静岡県静岡市駿河区東新田１３２－４地先",
        "lng": 138.372347,
        "lat": 34.951582,
        "h": 8
      },
      {
        "name": "東新田スポーツ広場",
        "address": "静岡県静岡市駿河区東新田２－２５１－９地先",
        "lng": 138.377486,
        "lat": 34.946354,
        "h": 8
      },
      {
        "name": "南安倍公園",
        "address": "静岡県静岡市駿河区南安倍3-556",
        "lng": 138.375114,
        "lat": 34.958627,
        "h": 8
      },
      {
        "name": "南安倍スポーツ広場　安倍川（左岸）",
        "address": "静岡県静岡市駿河区南安倍３－４９４地先",
        "lng": 138.375001,
        "lat": 34.95754,
        "h": 40
      },
      {
        "name": "城南静岡中学・高等学校",
        "address": "静岡県静岡市駿河区南八幡町1-1",
        "lng": 138.400431,
        "lat": 34.963379,
        "h": 8
      },
      {
        "name": "南部小学校",
        "address": "静岡県静岡市駿河区南八幡町11-1",
        "lng": 138.403119,
        "lat": 34.96244,
        "h": 77
      },
      {
        "name": "中田こども園",
        "address": "静岡県静岡市駿河区馬渕4-2-29",
        "lng": 138.392267,
        "lat": 34.962581,
        "h": 8
      },
      {
        "name": "八幡こども園",
        "address": "静岡県静岡市駿河区八幡2-15-20",
        "lng": 138.397383,
        "lat": 34.971631,
        "h": 8
      },
      {
        "name": "森下公園",
        "address": "静岡県静岡市駿河区八幡2-16",
        "lng": 138.393577,
        "lat": 34.9702,
        "h": 8
      },
      {
        "name": "八幡山公園",
        "address": "静岡県静岡市駿河区八幡５外",
        "lng": 138.401452,
        "lat": 34.969354,
        "h": 8
      },
      {
        "name": "富士見台こども園",
        "address": "静岡県静岡市駿河区富士見台2-11-44",
        "lng": 138.417947,
        "lat": 34.963125,
        "h": 8
      },
      {
        "name": "高松咲花公園",
        "address": "静岡県静岡市駿河区敷地1-284",
        "lng": 138.411957,
        "lat": 34.952879,
        "h": 8
      },
      {
        "name": "高松汐入公園",
        "address": "静岡県静岡市駿河区敷地2-173",
        "lng": 138.41396,
        "lat": 34.94921,
        "h": 8
      },
      {
        "name": "高松こども園",
        "address": "静岡県静岡市駿河区敷地2-7-14",
        "lng": 138.412436,
        "lat": 34.949297,
        "h": 8
      },
      {
        "name": "豊田中学校",
        "address": "静岡県静岡市駿河区豊田1-3-1",
        "lng": 138.409048,
        "lat": 34.971269,
        "h": 79
      },
      {
        "name": "戸斗前公園",
        "address": "静岡県静岡市駿河区北丸子2-1402-5",
        "lng": 138.346103,
        "lat": 34.950998,
        "h": 8
      },
      {
        "name": "常葉大学静岡草薙キャンパス",
        "address": "静岡県静岡市駿河区弥生町6-1",
        "lng": 138.438392,
        "lat": 35.004099,
        "h": 8
      },
      {
        "name": "県立駿河総合高等学校",
        "address": "静岡県静岡市駿河区有東3-4-17",
        "lng": 138.410361,
        "lat": 34.963279,
        "h": 8
      },
      {
        "name": "国道１５０号　用宗高架橋",
        "address": "静岡県静岡市駿河区用宗",
        "lng": 138.365571,
        "lat": 34.929718,
        "h": 16
      },
      {
        "name": "津波避難タワー（長田南④）",
        "address": "静岡県静岡市駿河区用宗1-17",
        "lng": 138.363608,
        "lat": 34.926261,
        "h": 16
      },
      {
        "name": "津波避難タワー（長田南⑤）",
        "address": "静岡県静岡市駿河区用宗1-309-1",
        "lng": 138.366203,
        "lat": 34.927443,
        "h": 16
      },
      {
        "name": "津波避難タワー（用宗漁港）",
        "address": "静岡県静岡市駿河区用宗2-18-5",
        "lng": 138.367004,
        "lat": 34.923401,
        "h": 16
      },
      {
        "name": "津波避難タワー（長田南③）",
        "address": "静岡県静岡市駿河区用宗2-189",
        "lng": 138.364733,
        "lat": 34.923969,
        "h": 16
      }
    ]
  },
  "22103": {
    "source": "国土地理院「指定緊急避難場所データ」",
    "asOf": "2026-06-19",
    "sites": [
      {
        "name": "清水橋",
        "address": "静岡県静岡市清水区",
        "lng": 138.487706,
        "lat": 35.018836,
        "h": 16
      },
      {
        "name": "清水庵原小学校",
        "address": "静岡県静岡市清水区庵原町1723",
        "lng": 138.475202,
        "lat": 35.052184,
        "h": 8
      },
      {
        "name": "庵原こども園",
        "address": "静岡県静岡市清水区庵原町1938",
        "lng": 138.473304,
        "lat": 35.054362,
        "h": 8
      },
      {
        "name": "庵原球場第２球場",
        "address": "静岡県静岡市清水区庵原町3000",
        "lng": 138.471104,
        "lat": 35.055914,
        "h": 8
      },
      {
        "name": "庵原ふれあい公園",
        "address": "静岡県静岡市清水区庵原町588-2",
        "lng": 138.478488,
        "lat": 35.04634,
        "h": 8
      },
      {
        "name": "庵原生涯学習交流館",
        "address": "静岡県静岡市清水区庵原町68-1",
        "lng": 138.483309,
        "lat": 35.044086,
        "h": 71
      },