{
  "19201": {
    "source": "国土地理院「指定緊急避難場所データ」",
    "asOf": "2026-06-19",
    "sites": [
      {
        "name": "荒川緑地（千秋橋上流左岸）",
        "address": "山梨県甲府市伊勢1",
        "lng": 138.566439,
        "lat": 35.650617,
        "h": 42
      },
      {
        "name": "伊勢小学校",
        "address": "山梨県甲府市伊勢2-16-1",
        "lng": 138.567491,
        "lat": 35.645074,
        "h": 235
      },
      {
        "name": "荒川緑地（新平和橋下流左岸）",
        "address": "山梨県甲府市伊勢4",
        "lng": 138.563954,
        "lat": 35.639571,
        "h": 42
      },
      {
        "name": "羽黒小学校",
        "address": "山梨県甲府市羽黒町527",
        "lng": 138.543643,
        "lat": 35.690226,
        "h": 235
      },
      {
        "name": "朝日小学校",
        "address": "山梨県甲府市塩部1-4-1",
        "lng": 138.560588,
        "lat": 35.672001,
        "h": 235
      },
      {
        "name": "甲府工業高等学校",
        "address": "山梨県甲府市塩部2-7-1",
        "lng": 138.560024,
        "lat": 35.671186,
        "h": 235
      },
      {
        "name": "駿台甲府高等学校グラウンド",
        "address": "山梨県甲府市塩部2-8-1",
        "lng": 138.557243,
        "lat": 35.670232,
        "h": 107
      },
      {
        "name": "荒川緑地（音羽橋下流左岸）",
        "address": "山梨県甲府市音羽町1",
        "lng": 138.540844,
        "lat": 35.676936,
        "h": 42
      },
      {
        "name": "貢川団地　２９号館南側空地",
        "address": "山梨県甲府市下河原町3",
        "lng": 138.532903,
        "lat": 35.666088,
        "h": 106
      },
      {
        "name": "貢川団地　３７号館東側空地",
        "address": "山梨県甲府市下河原町3",
        "lng": 138.53401,
        "lat": 35.666103,
        "h": 106
      },
      {
        "name": "貢川団地　４号館南側空地",
        "address": "山梨県甲府市下河原町3",
        "lng": 138.532661,
        "lat": 35.665195,
        "h": 106
      },
      {
        "name": "貢川団地　８号館東側空地",
        "address": "山梨県甲府市下河原町3",
        "lng": 138.533397,
        "lat": 35.664345,
        "h": 106
      },
      {
        "name": "中道南小学校",
        "address": "山梨県甲府市下向山町4366",
        "lng": 138.583447,
        "lat": 35.577133,
        "h": 235
      },
      {
        "name": "中道スポーツ広場",
        "address": "山梨県甲府市下向山町946",
        "lng": 138.588611,
        "lat": 35.58631,
        "h": 235
      },
      {
        "name": "南部市民センター",
        "address": "山梨県甲府市下今井町15",
        "lng": 138.579911,
        "lat": 35.614161,
        "h": 235
      },
      {
        "name": "南西第四公園",
        "address": "山梨県甲府市下石田2-3",
        "lng": 138.551256,
        "lat": 35.649028,
        "h": 106
      },
      {
        "name": "南西第三公園",
        "address": "山梨県甲府市下石田2-8",
        "lng": 138.554078,
        "lat": 35.647875,
        "h": 106
      },
      {
        "name": "甲府市立笛南中学校",
        "address": "山梨県甲府市下曽根町270",
        "lng": 138.575525,
        "lat": 35.594801,
        "h": 235
      },
      {
        "name": "千代田小学校",
        "address": "山梨県甲府市下帯那町3034-2",
        "lng": 138.552568,
        "lat": 35.712947,
        "h": 235
      },
      {
        "name": "下飯田防災拠点",
        "address": "山梨県甲府市下飯田1-442",
        "lng": 138.547678,
        "lat": 35.668993,
        "h": 42
      },
      {
        "name": "甲府城西高等学校",
        "address": "山梨県甲府市下飯田1-9-1",
        "lng": 138.546929,
        "lat": 35.666649,
        "h": 235
      },
      {
        "name": "甲府西高等学校",
        "address": "山梨県甲府市下飯田4-1-1",
        "lng": 138.549568,
        "lat": 35.660816,
        "h": 235
      },
      {
        "name": "舞鶴小学校",
        "address": "山梨県甲府市丸の内2-35-5",
        "lng": 138.565024,
        "lat": 35.662828,
        "h": 235
      },
      {
        "name": "ダイタ駅前第一・第二駐車場",
        "address": "山梨県甲府市丸の内2-5",
        "lng": 138.566553,
        "lat": 35.666253,
        "h": 106
      },
      {
        "name": "中央部市民センター",
        "address": "山梨県甲府市丸の内3-26-16",
        "lng": 138.563336,
        "lat": 35.66093,
        "h": 235
      },
      {
        "name": "八幡神社境内",
        "address": "山梨県甲府市宮前町194",
        "lng": 138.575595,
        "lat": 35.674693,
        "h": 107
      },
      {
        "name": "東海甲府高等学校グラウンド",
        "address": "山梨県甲府市金竹町1-1",
        "lng": 138.538804,
        "lat": 35.667203,
        "h": 107
      },
      {
        "name": "上九一色出張所",
        "address": "山梨県甲府市古関町1158",
        "lng": 138.609913,
        "lat": 35.530795,
        "h": 234
      },
      {
        "name": "上条中学校",
        "address": "山梨県甲府市古上条町95",
        "lng": 138.556047,
        "lat": 35.629559,
        "h": 235
      },
      {
        "name": "相川小学校",
        "address": "山梨県甲府市古府中町1501",
        "lng": 138.574269,
        "lat": 35.686753,
        "h": 235
      },
      {
        "name": "武田神社境内",
        "address": "山梨県甲府市古府中町2611",
        "lng": 138.576942,
        "lat": 35.686348,
        "h": 107
      },
      {
        "name": "大国小学校",
        "address": "山梨県甲府市後屋町150",
        "lng": 138.565811,
        "lat": 35.628566,
        "h": 235
      },
      {
        "name": "玉諸公園",
        "address": "山梨県甲府市向町568",
        "lng": 138.613007,
        "lat": 35.643515,
        "h": 106
      },
      {
        "name": "老人ホーム敷地（へいりん荘）空地",
        "address": "山梨県甲府市向町568",
        "lng": 138.612045,
        "lat": 35.644663,
        "h": 106
      },
      {
        "name": "荒川緑地（音羽橋下流右岸）",
        "address": "山梨県甲府市荒川1",
        "lng": 138.540506,
        "lat": 35.676849,
        "h": 42
      },
      {
        "name": "県立美術館広場",
        "address": "山梨県甲府市貢川1-4-27",
        "lng": 138.538263,
        "lat": 35.660388,
        "h": 106
      },
      {
        "name": "南西第二公園",
        "address": "山梨県甲府市貢川本町14",
        "lng": 138.551208,
        "lat": 35.65367,
        "h": 106
      },
      {
        "name": "貢川小学校",
        "address": "山梨県甲府市貢川本町8-1",
        "lng": 138.548847,
        "lat": 35.654493,
        "h": 235
      },
      {
        "name": "荒川緑地（千秋橋上流右岸）",
        "address": "山梨県甲府市高畑1",
        "lng": 138.565521,
        "lat": 35.648759,
        "h": 42
      },
      {
        "name": "荒川緑地（千秋橋下流右岸）",
        "address": "山梨県甲府市高畑3",
        "lng": 138.565083,
        "lat": 35.646204,
        "h": 42
      },
      {
        "name": "国母小学校",
        "address": "山梨県甲府市国母4-1-10",
        "lng": 138.558056,
        "lat": 35.64069,
        "h": 235
      },
      {
        "name": "南西部市民センター",
        "address": "山梨県甲府市国母6-4-2",
        "lng": 138.554789,
        "lat": 35.637245,
        "h": 235
      },
      {
        "name": "地方卸売市場駐車場",
        "address": "山梨県甲府市国母6-5-1",
        "lng": 138.557428,
        "lat": 35.635464,
        "h": 106
      },
      {
        "name": "国母南公園",
        "address": "山梨県甲府市国母8-32",
        "lng": 138.552221,
        "lat": 35.632761,
        "h": 106
      },
      {
        "name": "黒平小学校跡地",
        "address": "山梨県甲府市黒平町485-1",
        "lng": 138.587142,
        "lat": 35.804467,
        "h": 107
      },
      {
        "name": "山宮福祉センター",
        "address": "山梨県甲府市山宮町383-1",
        "lng": 138.52684,
        "lat": 35.696587,
        "h": 235
      },
      {
        "name": "甲府市立北西中学校",
        "address": "山梨県甲府市山宮町538",
        "lng": 138.529308,
        "lat": 35.691698,
        "h": 235
      },
      {
        "name": "甲府東高等学校",
        "address": "山梨県甲府市酒折1-17-1",
        "lng": 138.59732,
        "lat": 35.655797,
        "h": 235
      },
      {
        "name": "山梨学院大学第３駐車場",
        "address": "山梨県甲府市酒折2-4-5",
        "lng": 138.602567,
        "lat": 35.656853,
        "h": 106
      },
      {
        "name": "寿宝第一公園",
        "address": "山梨県甲府市寿町26",
        "lng": 138.561546,
        "lat": 35.657475,
        "h": 106
      },
      {
        "name": "ＹＣＣ県民文化ホール駐車場",
        "address": "山梨県甲府市寿町26-1",
        "lng": 138.561335,
        "lat": 35.658305,
        "h": 106
      },
      {
        "name": "住吉区画整理３号公園",
        "address": "山梨県甲府市住吉4-3036",
        "lng": 138.584262,
        "lat": 35.638675,
        "h": 106
      },
      {
        "name": "小瀬スポーツ公園",
        "address": "山梨県甲府市小瀬町840",
        "lng": 138.586968,
        "lat": 35.621675,
        "h": 106
      },
      {
        "name": "玉諸小学校",
        "address": "山梨県甲府市上阿原町491",
        "lng": 138.602901,
        "lat": 35.645641,
        "h": 235
      },
      {
        "name": "甲府商業高等学校",
        "address": "山梨県甲府市上今井町300",
        "lng": 138.574908,
        "lat": 35.626042,
        "h": 235
      },
      {
        "name": "山城小学校",
        "address": "山梨県甲府市上今井町474-2",
        "lng": 138.578671,
        "lat": 35.626184,
        "h": 235
      },
      {
        "name": "南西第一公園",
        "address": "山梨県甲府市上石田3-15",
        "lng": 138.555194,
        "lat": 35.651562,
        "h": 106
      },
      {
        "name": "石田小学校",
        "address": "山梨県甲府市上石田3-6-31",
        "lng": 138.557089,
        "lat": 35.652612,
        "h": 235
      },
      {
        "name": "南西中学校",
        "address": "山梨県甲府市上石田4-10-8",
        "lng": 138.555801,
        "lat": 35.648828,
        "h": 235
      },
      {
        "name": "甲府市立中道北小学校",
        "address": "山梨県甲府市上曽根町3368-36",
        "lng": 138.587517,
        "lat": 35.602557,
        "h": 235
      },
      {
        "name": "環境センター",
        "address": "山梨県甲府市上町601-4",
        "lng": 138.596161,
        "lat": 35.6283,
        "h": 235
      },
      {
        "name": "教育研修所駐車場ゲートボール場",
        "address": "山梨県甲府市城東1-12-28",
        "lng": 138.580537,
        "lat": 35.659428,
        "h": 107
      },
      {
        "name": "市立図書館駐車場",
        "address": "山梨県甲府市城東1-12-33",
        "lng": 138.581711,
        "lat": 35.659797,
        "h": 107
      },
      {
        "name": "オギノ城東店駐車場",
        "address": "山梨県甲府市城東4-3-17",
        "lng": 138.583487,
        "lat": 35.658408,
        "h": 106
      },
      {
        "name": "新田小学校",
        "address": "山梨県甲府市新田町12-28",
        "lng": 138.539109,
        "lat": 35.662551,
        "h": 235
      },
      {
        "name": "甲府商科専門学校",
        "address": "山梨県甲府市西下条町1020",
        "lng": 138.576001,
        "lat": 35.608879,
        "h": 235
      },
      {
        "name": "甲府市総合市民会館駐車場",
        "address": "山梨県甲府市青沼3-5-44",
        "lng": 138.576074,
        "lat": 35.652218,
        "h": 106
      },
      {
        "name": "青葉スポーツ広場グラウンド",
        "address": "山梨県甲府市青葉町19-1",
        "lng": 138.583348,
        "lat": 35.643063,
        "h": 106
      },
      {
        "name": "千塚小学校",
        "address": "山梨県甲府市千塚1-2-16",
        "lng": 138.541224,
        "lat": 35.680434,
        "h": 235
      },
      {
        "name": "千塚公園",
        "address": "山梨県甲府市千塚3-4",
        "lng": 138.542281,
        "lat": 35.68453,
        "h": 107
      },
      {
        "name": "県立青少年センター駐車場・グラウンド",
        "address": "山梨県甲府市川田町517",
        "lng": 138.625397,
        "lat": 35.65296,
        "h": 107
      },
      {
        "name": "甲運小学校",
        "address": "山梨県甲府市川田町65-2",
        "lng": 138.622436,
        "lat": 35.656329,
        "h": 235
      },
      {
        "name": "里垣小学校",
        "address": "山梨県甲府市善光寺2-7-1",
        "lng": 138.590021,
        "lat": 35.662839,
        "h": 235
      },
      {
        "name": "甲府市役所南庁舎別館",
        "address": "山梨県甲府市相生1-9-7",
        "lng": 138.565894,
        "lat": 35.65646,
        "h": 235
      },
      {
        "name": "甲府市役所南庁舎",
        "address": "山梨県甲府市相生2-17-1",
        "lng": 138.567619,
        "lat": 35.655284,
        "h": 235
      },
      {
        "name": "山梨大学グラウンド（東）",
        "address": "山梨県甲府市大手2-1",
        "lng": 138.576337,
        "lat": 35.67764,
        "h": 107
      },
      {
        "name": "山梨大学グラウンド（北）",
        "address": "山梨県甲府市大手2-2",
        "lng": 138.577709,
        "lat": 35.678818,
        "h": 107
      },
      {
        "name": "北東中学校",
        "address": "山梨県甲府市大手2-4-18",
        "lng": 138.579032,
        "lat": 35.681728,
        "h": 235
      },
      {
        "name": "甲府市浄化センターグラウンド",
        "address": "山梨県甲府市大津町1645",
        "lng": 138.561366,
        "lat": 35.59769,
        "h": 106
      },
      {
        "name": "アイメッセ山梨軒下・駐車場",
        "address": "山梨県甲府市大津町2192-8",
        "lng": 138.564459,
        "lat": 35.60175,
        "h": 106
      },
      {
        "name": "甲府市立城南中学校",
        "address": "山梨県甲府市大里町2590-1",
        "lng": 138.569234,
        "lat": 35.619218,
        "h": 235
      },
      {
        "name": "大里小学校",
        "address": "山梨県甲府市大里町3785-2",
        "lng": 138.56586,
        "lat": 35.61409,
        "h": 235
      },
      {
        "name": "オギノ国母店駐車場",
        "address": "山梨県甲府市大里町5016",
        "lng": 138.550476,
        "lat": 35.625347,
        "h": 106
      },
      {
        "name": "北中学校",
        "address": "山梨県甲府市大和町4-35",
        "lng": 138.55555,
        "lat": 35.679223,
        "h": 235
      },
      {
        "name": "県立大学（池田）グラウンド",
        "address": "山梨県甲府市池田1-6-1",
        "lng": 138.546709,
        "lat": 35.671084,
        "h": 107
      },
      {
        "name": "中央公園",
        "address": "山梨県甲府市中央1-11",
        "lng": 138.567861,
        "lat": 35.660012,
        "h": 106
      },
      {
        "name": "富士川悠遊館",
        "address": "山梨県甲府市中央3-3-1",
        "lng": 138.576626,
        "lat": 35.66334,
        "h": 235
      },
      {
        "name": "甲府南高等学校",
        "address": "山梨県甲府市中小河原町222",
        "lng": 138.574114,
        "lat": 35.630344,
        "h": 235
      },
      {
        "name": "池田公園",
        "address": "山梨県甲府市中村町10",
        "lng": 138.536084,
        "lat": 35.665594,
        "h": 107
      },
      {
        "name": "東小学校",
        "address": "山梨県甲府市朝気1-14-1",
        "lng": 138.58315,
        "lat": 35.651483,
        "h": 235
      },
      {
        "name": "善誘館小学校",
        "address": "山梨県甲府市朝気1-2-52",
        "lng": 138.580782,
        "lat": 35.65502,
        "h": 235
      },
      {
        "name": "イーストモールバリオ駐車場",
        "address": "山梨県甲府市朝気3-1-12",
        "lng": 138.583757,
        "lat": 35.650249,
        "h": 106
      },
      {
        "name": "西部市民センター",
        "address": "山梨県甲府市長松寺町12-30",
        "lng": 138.540367,
        "lat": 35.664912,
        "h": 235
      },
      {
        "name": "池田小学校",
        "address": "山梨県甲府市長松寺町7-1",
        "lng": 138.541699,
        "lat": 35.666255,
        "h": 235
      },
      {
        "name": "かえで支援学校",
        "address": "山梨県甲府市東光寺2-25-1",
        "lng": 138.586487,
        "lat": 35.66497,
        "h": 234
      },
      {
        "name": "東中学校",
        "address": "山梨県甲府市東光寺2-8-1",
        "lng": 138.585799,
        "lat": 35.663169,
        "h": 235
      },
      {
        "name": "北部市民センター",
        "address": "山梨県甲府市湯村3-5-20",
        "lng": 138.550063,
        "lat": 35.680271,
        "h": 235
      },
      {
        "name": "湯田小学校",
        "address": "山梨県甲府市湯田1-8-1",
        "lng": 138.575194,
        "lat": 35.648887,
        "h": 235
      },
      {
        "name": "南中学校",
        "address": "山梨県甲府市湯田2-21-24",
        "lng": 138.575161,
        "lat": 35.643416,
        "h": 235
      },
      {
        "name": "オギノ貢川店駐車場",
        "address": "山梨県甲府市徳行1-2-18",
        "lng": 138.544827,
        "lat": 35.655478,
        "h": 106
      },
      {
        "name": "貢川福祉センター",
        "address": "山梨県甲府市徳行3-12-1",
        "lng": 138.542055,
        "lat": 35.647524,
        "h": 235
      },
      {
        "name": "笠屋神社境内",
        "address": "山梨県甲府市徳行5-1",
        "lng": 138.54,
        "lat": 35.653685,
        "h": 106
      },
      {
        "name": "県立大学（飯田）グラウンド",
        "address": "山梨県甲府市飯田5-11-1",
        "lng": 138.556689,
        "lat": 35.663228,
        "h": 106
      },
      {
        "name": "県営飯田野球場グラウンド",
        "address": "山梨県甲府市飯田5-12",
        "lng": 138.555047,
        "lat": 35.662644,
        "h": 107
      },
      {
        "name": "西中学校",
        "address": "山梨県甲府市飯田5-13-1",
        "lng": 138.554589,
        "lat": 35.663598,
        "h": 235
      },
      {
        "name": "甲府第一高等学校",
        "address": "山梨県甲府市美咲2-13-44",
        "lng": 138.564047,
        "lat": 35.677304,
        "h": 235
      },
      {
        "name": "八幡神社境内",
        "address": "山梨県甲府市富竹3-4",
        "lng": 138.541332,
        "lat": 35.65719,
        "h": 106
      },
      {
        "name": "富竹中学校",
        "address": "山梨県甲府市富竹4-5-8",
        "lng": 138.536739,
        "lat": 35.655477,
        "h": 235
      },
      {
        "name": "新紺屋小学校",
        "address": "山梨県甲府市武田1-3-34",
        "lng": 138.56936,
        "lat": 35.671915,
        "h": 235
      },
      {
        "name": "北東部市民センター",
        "address": "山梨県甲府市武田3-1-6",
        "lng": 138.569758,
        "lat": 35.675272,
        "h": 235
      },
      {
        "name": "県営グリーンライン駐車場",
        "address": "山梨県甲府市平瀬町3221",
        "lng": 138.565344,
        "lat": 35.738291,
        "h": 107
      },
      {
        "name": "ＪＡパーキング協同駐車場",
        "address": "山梨県甲府市宝1-1",
        "lng": 138.564337,
        "lat": 35.667926,
        "h": 106
      },
      {
        "name": "甲府市役所西庁舎",
        "address": "山梨県甲府市宝2-8-19",
        "lng": 138.559767,
        "lat": 35.66314,
        "h": 235
      },
      {
        "name": "山梨県自治会館",
        "address": "山梨県甲府市蓬沢1-15-35",
        "lng": 138.587304,
        "lat": 35.641974,
        "h": 235
      },
      {
        "name": "歴史公園",
        "address": "山梨県甲府市北口2",
        "lng": 138.570742,
        "lat": 35.66763,
        "h": 107
      },
      {
        "name": "附属小中学校グラウンド",
        "address": "山梨県甲府市北新1-4-1",
        "lng": 138.566585,
        "lat": 35.678905,
        "h": 107
      },
      {
        "name": "附属小中学校テニスコート",
        "address": "山梨県甲府市北新1-4-2",
        "lng": 138.566294,
        "lat": 35.678388,
        "h": 107
      },
      {
        "name": "北新小学校グラウンド",
        "address": "山梨県甲府市北新1-5-1",
        "lng": 138.565688,
        "lat": 35.679817,
        "h": 107
      },
      {
        "name": "堀之内南公園",
        "address": "山梨県甲府市堀之内町961",
        "lng": 138.560551,
        "lat": 35.610516,
        "h": 106
      },
      {
        "name": "甲斐清和高等学校里吉グラウンド",
        "address": "山梨県甲府市里吉2-7",
        "lng": 138.592871,
        "lat": 35.650461,
        "h": 106
      },
      {
        "name": "緑が丘スポーツ公園",
        "address": "山梨県甲府市緑が丘2-8-2",
        "lng": 138.55754,
        "lat": 35.68381,
        "h": 107
      },
      {
        "name": "東部市民センター",
        "address": "山梨県甲府市和戸町955-1",
        "lng": 138.613037,
        "lat": 35.652952,
        "h": 235
      },
      {
        "name": "和田堀公園",
        "address": "山梨県甲府市和田町2968",
        "lng": 138.561808,
        "lat": 35.690846,
        "h": 105
      }
    ]
  },
  "19202": {
    "source": "国土地理院「指定緊急避難場所データ」",
    "asOf": "2026-06-19",
    "sites": [
      {
        "name": "ときわ台会館",
        "address": "山梨県富士吉田市ときわ台2-5-4",
        "lng": 138.787191,
        "lat": 35.488332,
        "h": 171
      },
      {
        "name": "旭町会館",
        "address": "山梨県富士吉田市旭3-4-1",
        "lng": 138.792625,
        "lat": 35.498104,
        "h": 171
      },
      {
        "name": "仲町会館",
        "address": "山梨県富士吉田市下吉田1-10-5",
        "lng": 138.806866,
        "lat": 35.495175,
        "h": 171
      },
      {
        "name": "西町会館",
        "address": "山梨県富士吉田市下吉田1-8-32",
        "lng": 138.805618,
        "lat": 35.494307,
        "h": 171
      },
      {
        "name": "中央会館",
        "address": "山梨県富士吉田市下吉田2-21-39",
        "lng": 138.805355,
        "lat": 35.489626,
        "h": 171
      },
      {
        "name": "天神社",
        "address": "山梨県富士吉田市下吉田2-29-37",
        "lng": 138.806228,
        "lat": 35.489106,
        "h": 168
      },
      {
        "name": "中央まちかど公園",
        "address": "山梨県富士吉田市下吉田2-54",
        "lng": 138.802757,
        "lat": 35.490332,
        "h": 168
      },
      {
        "name": "中村会館",
        "address": "山梨県富士吉田市下吉田3-12-9",
        "lng": 138.803015,
        "lat": 35.492177,
        "h": 171
      },
      {
        "name": "月江寺境内地",
        "address": "山梨県富士吉田市下吉田3-869",
        "lng": 138.800013,
        "lat": 35.493395,
        "h": 168
      },
      {
        "name": "幸町会館",
        "address": "山梨県富士吉田市下吉田5-14-4",
        "lng": 138.802593,
        "lat": 35.488403,
        "h": 171
      },
      {
        "name": "下吉田南コミュニティセンター",
        "address": "山梨県富士吉田市下吉田6-16-1",
        "lng": 138.806451,
        "lat": 35.486034,
        "h": 171
      },
      {
        "name": "県立吉田高等学校",
        "address": "山梨県富士吉田市下吉田6-17-1",
        "lng": 138.806467,
        "lat": 35.485058,
        "h": 171
      },
      {
        "name": "御茶屋町会館",
        "address": "山梨県富士吉田市下吉田6-24-24",
        "lng": 138.809852,
        "lat": 35.481635,
        "h": 171
      },
      {
        "name": "東町会館",
        "address": "山梨県富士吉田市下吉田8-24-28",
        "lng": 138.812384,
        "lat": 35.49239,
        "h": 171
      },
      {
        "name": "下吉田東小学校",
        "address": "山梨県富士吉田市下吉田9-21-1",
        "lng": 138.813557,
        "lat": 35.496273,
        "h": 171
      },
      {
        "name": "第三保育園",
        "address": "山梨県富士吉田市下吉田東2-14-21",
        "lng": 138.81412,
        "lat": 35.487332,
        "h": 168
      },
      {
        "name": "向原富士浅間神社",
        "address": "山梨県富士吉田市向原1-21-11",
        "lng": 138.830277,
        "lat": 35.496291,
        "h": 168
      },
      {
        "name": "向原会館",
        "address": "山梨県富士吉田市向原2-1-5",
        "lng": 138.832837,
        "lat": 35.494858,
        "h": 171
      },
      {
        "name": "明見中学校",
        "address": "山梨県富士吉田市小明見1-4-14",
        "lng": 138.820815,
        "lat": 35.492062,
        "h": 171
      },
      {
        "name": "明見小学校",
        "address": "山梨県富士吉田市小明見1-4-6",
        "lng": 138.821952,
        "lat": 35.49262,
        "h": 171
      },
      {
        "name": "小明見会館",
        "address": "山梨県富士吉田市小明見4-5-28",
        "lng": 138.825478,
        "lat": 35.495225,
        "h": 171
      },
      {
        "name": "第七保育園",
        "address": "山梨県富士吉田市小明見4-9-1",
        "lng": 138.825752,
        "lat": 35.494084,
        "h": 168
      },
      {
        "name": "丸ヶ丘公園",
        "address": "山梨県富士吉田市小明見5-14",
        "lng": 138.828814,
        "lat": 35.493326,
        "h": 168
      },
      {
        "name": "松尾神社",
        "address": "山梨県富士吉田市松山2-10-18",
        "lng": 138.795637,
        "lat": 35.486424,
        "h": 168
      },
      {
        "name": "第四保育園",
        "address": "山梨県富士吉田市松山4-11-27",
        "lng": 138.792153,
        "lat": 35.486754,
        "h": 168
      },
      {
        "name": "神田堀駐車場",
        "address": "山梨県富士吉田市松山4-4",
        "lng": 138.793595,
        "lat": 35.485294,
        "h": 168
      },
      {
        "name": "吉田中学校",
        "address": "山梨県富士吉田市上吉田1-3-6",
        "lng": 138.79981,
        "lat": 35.480697,
        "h": 171
      },
      {
        "name": "金鳥居市民公園",
        "address": "山梨県富士吉田市上吉田2-6-1",
        "lng": 138.797199,
        "lat": 35.483033,
        "h": 168
      },
      {
        "name": "下宿会館",
        "address": "山梨県富士吉田市上吉田3-14-12",
        "lng": 138.796548,
        "lat": 35.480367,
        "h": 171
      },
      {
        "name": "上吉田コミュニティセンター",
        "address": "山梨県富士吉田市上吉田4-9-11",
        "lng": 138.793685,
        "lat": 35.478717,
        "h": 171
      },
      {
        "name": "熊穴団地集会場",
        "address": "山梨県富士吉田市上吉田4356",
        "lng": 138.783454,
        "lat": 35.474457,
        "h": 168
      },
      {
        "name": "青少年センター",
        "address": "山梨県富士吉田市上吉田4433-1",
        "lng": 138.778012,
        "lat": 35.477164,
        "h": 168
      },
      {
        "name": "習志野市立富士吉田青年の家",
        "address": "山梨県富士吉田市上吉田4443",
        "lng": 138.777791,
        "lat": 35.476408,
        "h": 168
      },
      {
        "name": "吉田小学校",
        "address": "山梨県富士吉田市上吉田5-1-1",
        "lng": 138.79804,
        "lat": 35.477491,
        "h": 171
      },
      {
        "name": "上宿会館",
        "address": "山梨県富士吉田市上吉田5434-1",
        "lng": 138.789035,
        "lat": 35.471319,
        "h": 171
      },
      {
        "name": "北口本宮冨士浅間神社",
        "address": "山梨県富士吉田市上吉田5558",
        "lng": 138.792422,
        "lat": 35.470756,
        "h": 168
      },
      {
        "name": "県立ひばりが丘高等学校",
        "address": "山梨県富士吉田市上吉田東4-3-1",
        "lng": 138.80535,
        "lat": 35.477124,
        "h": 171
      },
      {
        "name": "ふじさんミュージアム",
        "address": "山梨県富士吉田市上吉田東7-27-1",
        "lng": 138.805374,
        "lat": 35.4581,
        "h": 168
      },
      {
        "name": "鐘山会館",
        "address": "山梨県富士吉田市上吉田東8-7-16",
        "lng": 138.813643,
        "lat": 35.474179,
        "h": 9
      },
      {
        "name": "鐘山総合スポーツセンター",
        "address": "山梨県富士吉田市上吉田東9-4-18",
        "lng": 138.812745,
        "lat": 35.464591,
        "h": 168
      },
      {
        "name": "富士小学校",
        "address": "山梨県富士吉田市上暮地1-22-1",
        "lng": 138.82883,
        "lat": 35.509081,
        "h": 171
      },
      {
        "name": "富士見台中学校",
        "address": "山梨県富士吉田市上暮地1-6-1",
        "lng": 138.827952,
        "lat": 35.507194,
        "h": 171
      },
      {
        "name": "上暮地コミュニティセンター",
        "address": "山梨県富士吉田市上暮地4-16-15",
        "lng": 138.831408,
        "lat": 35.516492,
        "h": 171
      },
      {
        "name": "寿町会館",
        "address": "山梨県富士吉田市上暮地4-7-18",
        "lng": 138.829058,
        "lat": 35.513594,
        "h": 171
      },
      {
        "name": "白糸町会館",
        "address": "山梨県富士吉田市上暮地7-1-16",
        "lng": 138.831054,
        "lat": 35.517985,
        "h": 171
      },
      {
        "name": "第五保育園",
        "address": "山梨県富士吉田市新屋1236",
        "lng": 138.796812,
        "lat": 35.465942,
        "h": 168
      },
      {
        "name": "新屋会館",
        "address": "山梨県富士吉田市新屋173-1",
        "lng": 138.798546,
        "lat": 35.469431,
        "h": 171
      },
      {
        "name": "富士散策公園",
        "address": "山梨県富士吉田市新屋1770-12",
        "lng": 138.80531,
        "lat": 35.455318,
        "h": 168
      },
      {
        "name": "県立富士北稜高等学校",
        "address": "山梨県富士吉田市新西原1-23-1",
        "lng": 138.789982,
        "lat": 35.482215,
        "h": 171
      },
      {
        "name": "西原南公園",
        "address": "山梨県富士吉田市新西原2-13",
        "lng": 138.78726,
        "lat": 35.479158,
        "h": 168
      },
      {
        "name": "松山会館",
        "address": "山梨県富士吉田市新西原3-17-3",
        "lng": 138.784532,
        "lat": 35.485,
        "h": 171
      },
      {
        "name": "吉田西小学校",
        "address": "山梨県富士吉田市新西原3-7-1",
        "lng": 138.784465,
        "lat": 35.484694,
        "h": 171
      },
      {
        "name": "赤坂会館",
        "address": "山梨県富士吉田市新倉3033-5",
        "lng": 138.777813,
        "lat": 35.490241,
        "h": 171
      },
      {
        "name": "第一保育園",
        "address": "山梨県富士吉田市新町1-2-1",
        "lng": 138.800874,
        "lat": 35.494853,
        "h": 168
      },
      {
        "name": "下吉田第一小学校",
        "address": "山梨県富士吉田市新町1-8-1",
        "lng": 138.802719,
        "lat": 35.495507,
        "h": 171
      },
      {
        "name": "新町会館",
        "address": "山梨県富士吉田市新町2-4-15",
        "lng": 138.802268,
        "lat": 35.496519,
        "h": 171
      },
      {
        "name": "下吉田中学校",
        "address": "山梨県富士吉田市新町4-12-27",
        "lng": 138.796,
        "lat": 35.495667,
        "h": 171
      },
      {
        "name": "下吉田コミュニティセンター",
        "address": "山梨県富士吉田市新町4-12-34",
        "lng": 138.795492,
        "lat": 35.495183,
        "h": 171
      },
      {
        "name": "浅間町会館",
        "address": "山梨県富士吉田市浅間1-6-5",
        "lng": 138.797298,
        "lat": 35.49926,
        "h": 171
      },
      {
        "name": "大明見小室浅間神社",
        "address": "山梨県富士吉田市大明見2-1-1",
        "lng": 138.819064,
        "lat": 35.484156,
        "h": 168
      },
      {
        "name": "大明見会館",
        "address": "山梨県富士吉田市大明見5-1-18",
        "lng": 138.820275,
        "lat": 35.488024,
        "h": 171
      },
      {
        "name": "明見コミュニティセンター",
        "address": "山梨県富士吉田市大明見6-16-19",
        "lng": 138.818085,
        "lat": 35.491217,
        "h": 171
      },
      {
        "name": "第六保育園",
        "address": "山梨県富士吉田市中曽根1-10-1",
        "lng": 138.800241,
        "lat": 35.483887,
        "h": 168
      },
      {
        "name": "中曽根会館",
        "address": "山梨県富士吉田市中曽根2-9-28",
        "lng": 138.802444,
        "lat": 35.482531,
        "h": 171
      },
      {
        "name": "富士見町会館",
        "address": "山梨県富士吉田市富士見3-2-8",
        "lng": 138.811888,
        "lat": 35.499318,
        "h": 171
      },
      {
        "name": "竜ヶ丘会館",
        "address": "山梨県富士吉田市竜ケ丘3-4-39",
        "lng": 138.789675,
        "lat": 35.491228,
        "h": 171
      },
      {
        "name": "富士学苑高等学校体育館（秀敬館）",
        "address": "山梨県富士吉田市緑ケ丘1-1-1",
        "lng": 138.799174,
        "lat": 35.493313,
        "h": 171
      },
      {
        "name": "市民会館",
        "address": "山梨県富士吉田市緑ケ丘2-5-23",
        "lng": 138.796172,
        "lat": 35.491237,
        "h": 168
      },
      {
        "name": "下吉田第二小学校",
        "address": "山梨県富士吉田市緑ケ丘2-8-2",
        "lng": 138.794094,
        "lat": 35.493917,
        "h": 171
      },
      {
        "name": "富士河口湖高等学校グラウンド",
        "address": "山梨県富士河口湖町船津6663-1",
        "lng": 138.772531,
        "lat": 35.488341,
        "h": 255
      }
    ]
  },
  "19204": {
    "source": "国土地理院「指定緊急避難場所データ」",
    "asOf": "2026-06-19",
    "sites": [
      {
        "name": "下谷体育館",
        "address": "山梨県都留市下谷4-2-19",
        "lng": 138.910437,
        "lat": 35.563437,
        "h": 11
      },
      {
        "name": "東桂小学校　校庭",
        "address": "山梨県都留市桂町796-1",
        "lng": 138.87265,
        "lat": 35.535856,
        "h": 11
      },
      {
        "name": "東桂中学校　校庭",
        "address": "山梨県都留市桂町840",
        "lng": 138.872392,
        "lat": 35.532936,
        "h": 8
      },
      {
        "name": "禾生第一小学校　校庭",
        "address": "山梨県都留市古川渡553",
        "lng": 138.929936,
        "lat": 35.574405,
        "h": 139
      },
      {
        "name": "都留第二中学校　校庭",
        "address": "山梨県都留市四日市場750",
        "lng": 138.916277,
        "lat": 35.57063,
        "h": 139
      },
      {
        "name": "禾生第二小学校　校庭",
        "address": "山梨県都留市小形山753",
        "lng": 138.926202,
        "lat": 35.591266,
        "h": 139
      },
      {
        "name": "谷村第一小学校　校庭",
        "address": "山梨県都留市上谷1-1-2",
        "lng": 138.906524,
        "lat": 35.552027,
        "h": 139
      },
      {
        "name": "都留興譲館高等学校　校庭",
        "address": "山梨県都留市上谷5-7-1",
        "lng": 138.902737,
        "lat": 35.544984,
        "h": 139
      },
      {
        "name": "旧与縄営農指導センター",
        "address": "山梨県都留市盛里134-1",
        "lng": 138.943626,
        "lat": 35.562856,
        "h": 8
      },
      {
        "name": "旧川棚営農指導センター",
        "address": "山梨県都留市川棚809",
        "lng": 138.902538,
        "lat": 35.552737,
        "h": 8
      },
      {
        "name": "宝小学校　校庭",
        "address": "山梨県都留市大幡1143",
        "lng": 138.877669,
        "lat": 35.562858,
        "h": 139
      },
      {
        "name": "都留文科大学付属小学校　校庭",
        "address": "山梨県都留市大野396",
        "lng": 138.920725,
        "lat": 35.528669,
        "h": 8
      },
      {
        "name": "旭小学校　校庭",
        "address": "山梨県都留市朝日馬場544",
        "lng": 138.974284,
        "lat": 35.56291,
        "h": 139
      },
      {
        "name": "都留文科大学グラウンド",
        "address": "山梨県都留市田原3-8-1",
        "lng": 138.896538,
        "lat": 35.537642,
        "h": 136
      },
      {
        "name": "住吉球場",
        "address": "山梨県都留市法能333",
        "lng": 138.912322,
        "lat": 35.544231,
        "h": 139
      },
      {
        "name": "谷村第二小学校　校庭",
        "address": "山梨県都留市法能923",
        "lng": 138.926572,
        "lat": 35.551727,
        "h": 11
      }
    ]
  },
  "19205": {
    "source": "国土地理院「指定緊急避難場所データ」",
    "asOf": "2026-06-19",
    "sites": [
      {
        "name": "県立日川高等学校グラウンド",
        "address": "山梨県山梨市一町田中1062",
        "lng": 138.682647,
        "lat": 35.663574,
        "h": 10
      },
      {
        "name": "加納岩小学校グラウンド",
        "address": "山梨県山梨市下神内川123-2",
        "lng": 138.685414,
        "lat": 35.681792,
        "h": 11
      },
      {
        "name": "山梨南中学校グラウンド",
        "address": "山梨県山梨市下石森287",
        "lng": 138.686036,
        "lat": 35.672423,
        "h": 10
      },
      {
        "name": "日川小学校グラウンド",
        "address": "山梨県山梨市歌田143",
        "lng": 138.690087,
        "lat": 35.66519,
        "h": 10
      },
      {
        "name": "後屋敷小学校グラウンド",
        "address": "山梨県山梨市三ケ所877",
        "lng": 138.704241,
        "lat": 35.688984,
        "h": 11
      },
      {
        "name": "旧三富保育園前庭",
        "address": "山梨県山梨市三富下荻原120",
        "lng": 138.737874,
        "lat": 35.770932,
        "h": 9
      },
      {
        "name": "旧三富小学校グラウンド",
        "address": "山梨県山梨市三富下釜口165-1",
        "lng": 138.738732,
        "lat": 35.781137,
        "h": 9
      },
      {
        "name": "三富川浦スポーツ広場",
        "address": "山梨県山梨市三富川浦1394",
        "lng": 138.738183,
        "lat": 35.788847,
        "h": 9
      },
      {
        "name": "広瀬地区集会所前庭",
        "address": "山梨県山梨市三富川浦1819-189",
        "lng": 138.758742,
        "lat": 35.850748,
        "h": 11
      },
      {
        "name": "三富基幹集落センター前庭",
        "address": "山梨県山梨市三富川浦262",
        "lng": 138.738934,
        "lat": 35.792924,
        "h": 11
      },
      {
        "name": "徳和地区多目的集会施設前庭",
        "address": "山梨県山梨市三富徳和628",
        "lng": 138.72533,
        "lat": 35.791062,
        "h": 11
      },
      {
        "name": "八幡スポーツ広場",
        "address": "山梨県山梨市市川1220",
        "lng": 138.674697,
        "lat": 35.709488,
        "h": 11
      },
      {
        "name": "日下部小学校グラウンド",
        "address": "山梨県山梨市小原東305",
        "lng": 138.699314,
        "lat": 35.697291,
        "h": 11
      },
      {
        "name": "山梨北中学校グラウンド",
        "address": "山梨県山梨市小原東359",
        "lng": 138.697515,
        "lat": 35.699276,
        "h": 11
      },
      {
        "name": "県立山梨高等学校グラウンド",
        "address": "山梨県山梨市上神内川194",
        "lng": 138.686809,
        "lat": 35.682038,
        "h": 11
      },
      {
        "name": "市民総合体育館駐車場",
        "address": "山梨県山梨市上石森701",
        "lng": 138.696659,
        "lat": 35.675317,
        "h": 10
      },
      {
        "name": "県立ろう学校グラウンド",
        "address": "山梨県山梨市大野1009",
        "lng": 138.674398,
        "lat": 35.673613,
        "h": 10
      },
      {
        "name": "岩手小学校グラウンド",
        "address": "山梨県山梨市東1760",
        "lng": 138.69708,
        "lat": 35.71541,
        "h": 11
      },
      {
        "name": "八幡小学校グラウンド",
        "address": "山梨県山梨市北1889",
        "lng": 138.684116,
        "lat": 35.70666,
        "h": 11
      },
      {
        "name": "笛川中学校グラウンド",
        "address": "山梨県山梨市牧丘町窪平1100",
        "lng": 138.713678,
        "lat": 35.743531,
        "h": 11
      },
      {
        "name": "旧笛川小学校グラウンド",
        "address": "山梨県山梨市牧丘町窪平1200",
        "lng": 138.713619,
        "lat": 35.746179,
        "h": 11
      },
      {
        "name": "牧丘町総合会館駐車場",
        "address": "山梨県山梨市牧丘町窪平350",
        "lng": 138.714534,
        "lat": 35.739051,
        "h": 11
      },
      {
        "name": "花かげの湯前庭",
        "address": "山梨県山梨市牧丘町窪平453-1",
        "lng": 138.713747,
        "lat": 35.736471,
        "h": 11
      },
      {
        "name": "牧丘町コミュニティセンター前庭・駐車場",
        "address": "山梨県山梨市牧丘町窪平56",
        "lng": 138.714299,
        "lat": 35.740028,
        "h": 11
      },
      {
        "name": "道の駅花かげの郷まきおか駐車場",
        "address": "山梨県山梨市牧丘町室伏2120",
        "lng": 138.718499,
        "lat": 35.754224,
        "h": 9
      },
      {
        "name": "中牧多目的集会施設前庭",
        "address": "山梨県山梨市牧丘町西保下2230",
        "lng": 138.692285,
        "lat": 35.7421,
        "h": 11
      },
      {
        "name": "旧牧丘第二小学校グラウンド",
        "address": "山梨県山梨市牧丘町倉科5938-2",
        "lng": 138.695658,
        "lat": 35.747439,
        "h": 11
      },
      {
        "name": "旧保健農園ホテル・フフ山梨庭園",
        "address": "山梨県山梨市牧丘町倉科7190",
        "lng": 138.685864,
        "lat": 35.758732,
        "h": 11
      },
      {
        "name": "旧牧丘第三小学校グラウンド",
        "address": "山梨県山梨市牧丘町牧平16",
        "lng": 138.652724,
        "lat": 35.745492,
        "h": 9
      },
      {
        "name": "柳平分校グラウンド",
        "address": "山梨県山梨市牧丘町柳平43",
        "lng": 138.654484,
        "lat": 35.810274,
        "h": 11
      },
      {
        "name": "旧堀之内小学校グラウンド",
        "address": "山梨県山梨市堀内1936",
        "lng": 138.663964,
        "lat": 35.717106,
        "h": 9
      },
      {
        "name": "山梨市民会館駐車場",
        "address": "山梨県山梨市万力1830",
        "lng": 138.681979,
        "lat": 35.693601,
        "h": 11
      },
      {
        "name": "山梨小学校グラウンド",
        "address": "山梨県山梨市落合3",
        "lng": 138.666127,
        "lat": 35.684005,
        "h": 10
      }
    ]
  },
  "19206": {
    "source": "国土地理院「指定緊急避難場所データ」",
    "asOf": "2026-06-19",
    "sites": [
      {
        "name": "猿橋小学校",
        "address": "山梨県大月市猿橋町伊良原48",
        "lng": 138.982545,
        "lat": 35.611978,
        "h": 10
      },
      {
        "name": "猿橋中学校",
        "address": "山梨県大月市猿橋町猿橋567",
        "lng": 138.980482,
        "lat": 35.616963,
        "h": 10
      },
      {
        "name": "猿橋公民館桂台分館",
        "address": "山梨県大月市猿橋町桂台1-19-1",
        "lng": 138.970641,
        "lat": 35.610362,
        "h": 9
      },
      {
        "name": "猿橋公民館小沢分館",
        "address": "山梨県大月市猿橋町小沢1452",
        "lng": 138.966958,
        "lat": 35.592757,
        "h": 9
      },
      {
        "name": "猿橋公民館殿上分館",
        "address": "山梨県大月市猿橋町殿上4-1",
        "lng": 138.967628,
        "lat": 35.614555,
        "h": 8
      },
      {
        "name": "猿橋公民館藤崎分館",
        "address": "山梨県大月市猿橋町藤崎1522-1",
        "lng": 138.994063,
        "lat": 35.604487,
        "h": 11
      },
      {
        "name": "大月短期大学",
        "address": "山梨県大月市御太刀1-16-2",
        "lng": 138.946494,
        "lat": 35.612844,
        "h": 11
      },
      {
        "name": "大月市民会館",
        "address": "山梨県大月市御太刀2-11-22",
        "lng": 138.949214,
        "lat": 35.615818,
        "h": 11
      },
      {
        "name": "旧笹子小学校",
        "address": "山梨県大月市笹子町吉久保196",
        "lng": 138.831073,
        "lat": 35.605224,
        "h": 11
      },
      {
        "name": "笹子公民館（西部ふれあいセンター）",
        "address": "山梨県大月市笹子町黒野田1359-7",
        "lng": 138.827583,
        "lat": 35.603752,
        "h": 11
      },
      {
        "name": "七保公民館下和田分館",
        "address": "山梨県大月市七保町下和田1021",
        "lng": 138.975565,
        "lat": 35.624502,
        "h": 11
      },
      {
        "name": "七保小学校",
        "address": "山梨県大月市七保町葛野2345",
        "lng": 138.9555,
        "lat": 35.631808,
        "h": 11
      },
      {
        "name": "旧瀬戸小学校",
        "address": "山梨県大月市七保町瀬戸1000",
        "lng": 138.967548,
        "lat": 35.664021,
        "h": 11
      },
      {
        "name": "旧上和田小学校",
        "address": "山梨県大月市七保町瀬戸1909-1",
        "lng": 138.960666,
        "lat": 35.691317,
        "h": 11
      },
      {
        "name": "七保公民館浅川分館",
        "address": "山梨県大月市七保町浅川1027",
        "lng": 138.989177,
        "lat": 35.654103,
        "h": 9
      },
      {
        "name": "旧奈良子保育所",
        "address": "山梨県大月市七保町奈良子9-3",
        "lng": 138.950293,
        "lat": 35.660616,
        "h": 9
      },
      {
        "name": "初狩小学校",
        "address": "山梨県大月市初狩町下初狩1144",
        "lng": 138.884335,
        "lat": 35.59891,
        "h": 11
      },
      {
        "name": "旧初狩小学校",
        "address": "山梨県大月市初狩町中初狩21",
        "lng": 138.878461,
        "lat": 35.596718,
        "h": 11
      },
      {
        "name": "大月東中学校",
        "address": "山梨県大月市大月2-15-11",
        "lng": 138.936118,
        "lat": 35.611159,
        "h": 11
      },
      {
        "name": "大月東小学校",
        "address": "山梨県大月市大月2-7-43",
        "lng": 138.9407,
        "lat": 35.610344,
        "h": 11
      },
      {
        "name": "総合福祉センター",
        "address": "山梨県大月市大月町花咲10",
        "lng": 138.927198,
        "lat": 35.604547,
        "h": 11
      },
      {
        "name": "旧大月西小学校",
        "address": "山梨県大月市大月町真木2288",
        "lng": 138.906046,
        "lat": 35.609306,
        "h": 11
      },
      {
        "name": "真木公民館間明野分館",
        "address": "山梨県大月市大月町真木6469",
        "lng": 138.893256,
        "lat": 35.631576,
        "h": 11
      },
      {
        "name": "旧強瀬小学校",
        "address": "山梨県大月市賑岡町強瀬747",
        "lng": 138.956659,
        "lat": 35.615816,
        "h": 9
      },
      {
        "name": "（社福）山の都福祉会",
        "address": "山梨県大月市賑岡町浅利1108-6",
        "lng": 138.925606,
        "lat": 35.620963,
        "h": 9
      },
      {
        "name": "賑岡公民館",
        "address": "山梨県大月市賑岡町畑倉1288-1",
        "lng": 138.94766,
        "lat": 35.628312,
        "h": 11
      },
      {
        "name": "旧宮谷小学校",
        "address": "山梨県大月市富浜町宮谷915",
        "lng": 138.990208,
        "lat": 35.622721,
        "h": 9
      },
      {
        "name": "鳥沢小学校",
        "address": "山梨県大月市富浜町鳥沢1979",
        "lng": 139.005159,
        "lat": 35.610098,
        "h": 11
      },
      {
        "name": "旧富浜中学校",
        "address": "山梨県大月市富浜町鳥沢562",
        "lng": 138.999321,
        "lat": 35.605357,
        "h": 11
      },
      {
        "name": "（学法）自然学園高等学校（旧梁川小学校）",
        "address": "山梨県大月市梁川町綱の上1225",
        "lng": 139.042828,
        "lat": 35.600306,
        "h": 11
      },
      {
        "name": "旧梁川中学校",
        "address": "山梨県大月市梁川町綱の上1389-1",
        "lng": 139.042142,
        "lat": 35.602238,
        "h": 9
      }
    ]
  },
  "19207": {
    "source": "国土地理院「指定緊急避難場所データ」",
    "asOf": "2026-06-19",
    "sites": [
      {
        "name": "みだい体育センター",
        "address": "山梨県韮崎市旭町上條南割3314-15",
        "lng": 138.440163,
        "lat": 35.667174,
        "h": 8
      },
      {
        "name": "旭屋内運動場",
        "address": "山梨県韮崎市旭町上條北割3879-1",
        "lng": 138.437671,
        "lat": 35.688375,
        "h": 11
      },
      {
        "name": "旭公民館",
        "address": "山梨県韮崎市旭町上條北割3879-1",
        "lng": 138.437636,
        "lat": 35.688826,
        "h": 8
      },
      {
        "name": "円野公民館",
        "address": "山梨県韮崎市円野町下円井1199-3",
        "lng": 138.398421,
        "lat": 35.75985,
        "h": 8
      },
      {
        "name": "円野屋内運動場",
        "address": "山梨県韮崎市円野町下円井1239",
        "lng": 138.39766,
        "lat": 35.760117,
        "h": 8
      },
      {
        "name": "祖母石公民館",
        "address": "山梨県韮崎市下祖母石370",
        "lng": 138.424677,
        "lat": 35.730243,
        "h": 8
      },
      {
        "name": "穴山公民館",
        "address": "山梨県韮崎市穴山町4487-1",
        "lng": 138.418063,
        "lat": 35.755448,
        "h": 8
      },
      {
        "name": "韮崎高等学校",
        "address": "山梨県韮崎市若宮3-2-1",
        "lng": 138.450395,
        "lat": 35.714969,
        "h": 11
      },
      {
        "name": "韮崎西中学校",
        "address": "山梨県韮崎市神山町鍋山1-1",
        "lng": 138.439059,
        "lat": 35.70939,
        "h": 8
      },
      {
        "name": "神山屋内運動場",
        "address": "山梨県韮崎市神山町北宮地1019",
        "lng": 138.424754,
        "lat": 35.705327,
        "h": 8
      },
      {
        "name": "神山公民館",
        "address": "山梨県韮崎市神山町北宮地945-3",
        "lng": 138.426094,
        "lat": 35.705764,
        "h": 8
      },
      {
        "name": "北西児童センター",
        "address": "山梨県韮崎市清哲町青木1078-1",
        "lng": 138.417417,
        "lat": 35.728764,
        "h": 8
      },
      {
        "name": "韮崎北西小学校",
        "address": "山梨県韮崎市清哲町青木193-1",
        "lng": 138.417715,
        "lat": 35.728338,
        "h": 8
      },
      {
        "name": "清哲公民館",
        "address": "山梨県韮崎市清哲町青木2309-1",
        "lng": 138.416133,
        "lat": 35.722907,
        "h": 11
      },
      {
        "name": "甘利児童センター",
        "address": "山梨県韮崎市大草町上條東割788",
        "lng": 138.451259,
        "lat": 35.685503,
        "h": 11
      },
      {
        "name": "大草公民館",
        "address": "山梨県韮崎市大草町上條東割788",
        "lng": 138.451235,
        "lat": 35.685705,
        "h": 11
      },
      {
        "name": "甘利小学校",
        "address": "山梨県韮崎市大草町上條東割821-1",
        "lng": 138.451581,
        "lat": 35.68737,
        "h": 11
      },
      {
        "name": "健康ふれあいセンター",
        "address": "山梨県韮崎市中田町中條1800-1",
        "lng": 138.437932,
        "lat": 35.748012,
        "h": 11
      },
      {
        "name": "中田屋内運動場",
        "address": "山梨県韮崎市中田町中條490-1",
        "lng": 138.436743,
        "lat": 35.74372,
        "h": 11
      },
      {
        "name": "中田公民館",
        "address": "山梨県韮崎市中田町中條490-1",
        "lng": 138.436796,
        "lat": 35.743714,
        "h": 11
      },
      {
        "name": "韮崎北東小学校",
        "address": "山梨県韮崎市藤井町駒井1912",
        "lng": 138.442102,
        "lat": 35.732449,
        "h": 11
      },
      {
        "name": "北東児童センター",
        "address": "山梨県韮崎市藤井町駒井2248-1",
        "lng": 138.444068,
        "lat": 35.733981,
        "h": 8
      },
      {
        "name": "藤井公民館",
        "address": "山梨県韮崎市藤井町坂井119-1",
        "lng": 138.443811,
        "lat": 35.728896,
        "h": 8
      },
      {
        "name": "東京エレクトロン韮崎文化ホール",
        "address": "山梨県韮崎市藤井町坂井205",
        "lng": 138.44387,
        "lat": 35.72838,
        "h": 11
      },
      {
        "name": "韮崎東中学校",
        "address": "山梨県韮崎市藤井町南下條371",
        "lng": 138.451041,
        "lat": 35.718198,
        "h": 11
      },
      {
        "name": "韮崎中央体育館",
        "address": "山梨県韮崎市藤井町南下條897",
        "lng": 138.440122,
        "lat": 35.721091,
        "h": 75
      },
      {
        "name": "勤労青年センター",
        "address": "山梨県韮崎市穂坂町宮久保5136-2",
        "lng": 138.470293,
        "lat": 35.728653,
        "h": 11
      },
      {
        "name": "穂坂小学校",
        "address": "山梨県韮崎市穂坂町宮久保6121",
        "lng": 138.483546,
        "lat": 35.736376,
        "h": 11
      },
      {
        "name": "穂坂公民館（コミュニティセンター）",
        "address": "山梨県韮崎市穂坂町宮久保6196-1",
        "lng": 138.481453,
        "lat": 35.734377,
        "h": 11
      },
      {
        "name": "韮崎児童センター",
        "address": "山梨県韮崎市本町2-1-7",
        "lng": 138.452729,
        "lat": 35.70773,
        "h": 8
      },
      {
        "name": "韮崎小学校",
        "address": "山梨県韮崎市本町2-2-41",
        "lng": 138.453329,
        "lat": 35.706715,
        "h": 11
      },
      {
        "name": "竜岡公民館",
        "address": "山梨県韮崎市龍岡町下條南割1007",
        "lng": 138.466065,
        "lat": 35.678791,
        "h": 11
      },
      {
        "name": "竜岡体育館",
        "address": "山梨県韮崎市龍岡町下條南割1007",
        "lng": 138.465501,
        "lat": 35.678863,
        "h": 11
      },
      {
        "name": "エコパークたつおかコミュニティセンター",
        "address": "山梨県韮崎市龍岡町下條南割1895",
        "lng": 138.478622,
        "lat": 35.675053,
        "h": 8
      },
      {
        "name": "韮崎工業高等学校",
        "address": "山梨県韮崎市龍岡町若尾新田50-1",
        "lng": 138.450096,
        "lat": 35.700349,
        "h": 8
      }
    ]
  },
  "19208": {
    "source": "国土地理院「指定緊急避難場所データ」",
    "asOf": "2026-06-19",
    "sites": [
      {
        "name": "南アルプスチロル学園",
        "address": "山梨県南アルプス市芦安芦倉1008",
        "lng": 138.370214,
        "lat": 35.637816,
        "h": 233
      },
      {
        "name": "芦安山岳館",
        "address": "山梨県南アルプス市芦安芦倉1570",
        "lng": 138.360991,
        "lat": 35.633182,
        "h": 233
      },
      {
        "name": "芦安支所（旧芦安健康管理センター）",
        "address": "山梨県南アルプス市芦安芦倉518",
        "lng": 138.380311,
        "lat": 35.637861,
        "h": 233
      },
      {
        "name": "芦安小学校　（校舎）",
        "address": "山梨県南アルプス市芦安安通335",
        "lng": 138.37954,
        "lat": 35.636914,
        "h": 233
      },
      {
        "name": "芦安小学校　（グランド）",
        "address": "山梨県南アルプス市芦安安通335",
        "lng": 138.379706,
        "lat": 35.636688,
        "h": 233
      },
      {
        "name": "芦安小学校　（体育館）",
        "address": "山梨県南アルプス市芦安安通335",
        "lng": 138.380007,
        "lat": 35.636932,
        "h": 233
      },
      {
        "name": "芦安中学校（グランド）",
        "address": "山梨県南アルプス市芦安安通352",
        "lng": 138.379032,
        "lat": 35.636593,
        "h": 233
      },
      {
        "name": "芦安保育所",
        "address": "山梨県南アルプス市芦安安通503",
        "lng": 138.374979,
        "lat": 35.637582,
        "h": 233
      },
      {
        "name": "大明保育所（グランド）",
        "address": "山梨県南アルプス市鮎沢1063-1",
        "lng": 138.470875,
        "lat": 35.593433,
        "h": 235
      },
      {
        "name": "甲西農村環境改善センター",
        "address": "山梨県南アルプス市鮎沢1234-1",
        "lng": 138.469704,
        "lat": 35.59423,
        "h": 235
      },
      {
        "name": "八田保育所",
        "address": "山梨県南アルプス市榎原558",
        "lng": 138.483889,
        "lat": 35.66,
        "h": 235
      },
      {
        "name": "八田中学校　（グランド）",
        "address": "山梨県南アルプス市榎原620",
        "lng": 138.485622,
        "lat": 35.660061,
        "h": 235
      },
      {
        "name": "八田中学校　（体育館）",
        "address": "山梨県南アルプス市榎原620",
        "lng": 138.485413,
        "lat": 35.661012,
        "h": 235
      },
      {
        "name": "八田中学校　（校舎）",
        "address": "山梨県南アルプス市榎原620",
        "lng": 138.485424,
        "lat": 35.660541,
        "h": 235
      },
      {
        "name": "榎原集落センター（駐車場）",
        "address": "山梨県南アルプス市榎原646-2",
        "lng": 138.485071,
        "lat": 35.658296,
        "h": 235
      },
      {
        "name": "八田児童館",
        "address": "山梨県南アルプス市榎原794-16",
        "lng": 138.483887,
        "lat": 35.662211,
        "h": 235
      },
      {
        "name": "高度農業情報センター（駐車場）",
        "address": "山梨県南アルプス市榎原800",
        "lng": 138.48301,
        "lat": 35.661636,
        "h": 235
      },
      {
        "name": "くしがたすこやか八幡館",
        "address": "山梨県南アルプス市下宮地469-1",
        "lng": 138.463838,
        "lat": 35.60467,
        "h": 235
      },
      {
        "name": "下高砂神明神社",
        "address": "山梨県南アルプス市下高砂174",
        "lng": 138.491727,
        "lat": 35.660546,
        "h": 235
      },
      {
        "name": "下高砂集落センター（駐車場）",
        "address": "山梨県南アルプス市下高砂373-1",
        "lng": 138.493174,
        "lat": 35.656744,
        "h": 235
      },
      {
        "name": "マコト愛児園（園庭）",
        "address": "山梨県南アルプス市下今井841-5",
        "lng": 138.497045,
        "lat": 35.625773,
        "h": 235
      },
      {
        "name": "マコト愛児園（園舎）",
        "address": "山梨県南アルプス市下今井841-5",
        "lng": 138.497041,
        "lat": 35.625918,
        "h": 235
      },
      {
        "name": "下今井集落センター",
        "address": "山梨県南アルプス市下今井97-2",
        "lng": 138.493416,
        "lat": 35.624725,
        "h": 235
      },
      {
        "name": "下今井ふれあいセンター",
        "address": "山梨県南アルプス市下今井97-2",
        "lng": 138.493444,
        "lat": 35.624874,
        "h": 235
      },
      {
        "name": "今諏訪生涯学習センター",
        "address": "山梨県南アルプス市下今諏訪431-1",
        "lng": 138.496598,
        "lat": 35.633434,
        "h": 235
      },
      {
        "name": "若草中学校　（校舎）",
        "address": "山梨県南アルプス市加賀美2943",
        "lng": 138.488529,
        "lat": 35.607076,
        "h": 235
      },
      {
        "name": "若草中学校　（体育館）",
        "address": "山梨県南アルプス市加賀美2943",
        "lng": 138.488459,
        "lat": 35.60783,
        "h": 235
      },
      {
        "name": "若草中学校　（グランド）",
        "address": "山梨県南アルプス市加賀美2943",
        "lng": 138.489033,
        "lat": 35.606879,
        "h": 235
      },
      {
        "name": "働く婦人の家",
        "address": "山梨県南アルプス市吉田753-1",
        "lng": 138.477893,
        "lat": 35.621595,
        "h": 235
      },
      {
        "name": "豊小学校　（校舎）",
        "address": "山梨県南アルプス市吉田787",
        "lng": 138.478488,
        "lat": 35.622573,
        "h": 235
      },
      {
        "name": "豊小学校　（体育館）",
        "address": "山梨県南アルプス市吉田787",
        "lng": 138.478493,
        "lat": 35.623101,
        "h": 235
      },
      {
        "name": "豊小学校　（グランド）",
        "address": "山梨県南アルプス市吉田787",
        "lng": 138.478515,
        "lat": 35.622273,
        "h": 235
      },
      {
        "name": "豊保育所",
        "address": "山梨県南アルプス市吉田804",
        "lng": 138.478226,
        "lat": 35.623562,
        "h": 235
      },
      {
        "name": "甲西市民総合グラウンド",
        "address": "山梨県南アルプス市宮沢288-3",
        "lng": 138.471436,
        "lat": 35.584556,
        "h": 234
      },
      {
        "name": "甲西体育センター",
        "address": "山梨県南アルプス市宮沢413-3",
        "lng": 138.470812,
        "lat": 35.580886,
        "h": 234
      },
      {
        "name": "鏡中條ふれあいセンター",
        "address": "山梨県南アルプス市鏡中條1030-1",
        "lng": 138.496362,
        "lat": 35.610146,
        "h": 235
      },
      {
        "name": "遊・湯ふれあい公園（グランド）",
        "address": "山梨県南アルプス市鏡中條3782",
        "lng": 138.502998,
        "lat": 35.62102,
        "h": 235
      },
      {
        "name": "鏡中條公民館",
        "address": "山梨県南アルプス市鏡中條697-1",
        "lng": 138.49689,
        "lat": 35.615086,
        "h": 234
      },
      {
        "name": "鏡中條体育館",
        "address": "山梨県南アルプス市鏡中條710-2",
        "lng": 138.495451,
        "lat": 35.61468,
        "h": 235
      },
      {
        "name": "天笑閣",
        "address": "山梨県南アルプス市駒場147-18",
        "lng": 138.41,
        "lat": 35.651389,
        "h": 233
      },
      {
        "name": "甲西中学校　（グランド）",
        "address": "山梨県南アルプス市古市場150",
        "lng": 138.471436,
        "lat": 35.590347,
        "h": 235
      },
      {
        "name": "甲西中学校　（体育館）",
        "address": "山梨県南アルプス市古市場150",
        "lng": 138.472046,
        "lat": 35.589789,
        "h": 235
      },
      {
        "name": "甲西中学校　（校舎）",
        "address": "山梨県南アルプス市古市場150",
        "lng": 138.471626,
        "lat": 35.590855,
        "h": 235
      },
      {
        "name": "大明小学校　（体育館）",
        "address": "山梨県南アルプス市古市場181-1",
        "lng": 138.470458,
        "lat": 35.589644,
        "h": 235
      },
      {
        "name": "大明小学校　（グランド）",
        "address": "山梨県南アルプス市古市場181-1",
        "lng": 138.470437,
        "lat": 35.590373,
        "h": 235
      },
      {
        "name": "大明小学校　（校舎）",
        "address": "山梨県南アルプス市古市場181-1",
        "lng": 138.470522,
        "lat": 35.590866,
        "h": 235
      },
      {
        "name": "甲西保健福祉センター",
        "address": "山梨県南アルプス市古市場323",
        "lng": 138.468283,
        "lat": 35.590816,
        "h": 235
      },
      {
        "name": "青少年児童センター",
        "address": "山梨県南アルプス市山寺258-1",
        "lng": 138.457014,
        "lat": 35.608417,
        "h": 235
      },
      {
        "name": "おおケヤキ児童館",
        "address": "山梨県南アルプス市寺部1479",
        "lng": 138.494243,
        "lat": 35.620691,
        "h": 235
      },
      {
        "name": "若草保育所",
        "address": "山梨県南アルプス市寺部598-1",
        "lng": 138.490719,
        "lat": 35.605765,
        "h": 235
      },
      {
        "name": "若草体育館",
        "address": "山梨県南アルプス市寺部720",
        "lng": 138.491616,
        "lat": 35.606475,
        "h": 235
      },
      {
        "name": "若草グラウンド",
        "address": "山梨県南アルプス市寺部720",
        "lng": 138.492592,
        "lat": 35.605892,
        "h": 235
      },
      {
        "name": "若草生涯学習センター",
        "address": "山梨県南アルプス市寺部725-1",
        "lng": 138.490758,
        "lat": 35.606557,
        "h": 235
      },
      {
        "name": "若草小学校　（グランド）",
        "address": "山梨県南アルプス市寺部740",
        "lng": 138.491917,
        "lat": 35.607681,
        "h": 235
      },
      {
        "name": "若草小学校　（体育館）",
        "address": "山梨県南アルプス市寺部740",
        "lng": 138.491139,
        "lat": 35.608082,
        "h": 235
      },
      {
        "name": "若草小学校　（校舎）",
        "address": "山梨県南アルプス市寺部740",
        "lng": 138.492099,
        "lat": 35.607904,
        "h": 235
      },
      {
        "name": "秋山公会堂",
        "address": "山梨県南アルプス市秋山671-1",
        "lng": 138.447396,
        "lat": 35.583826,
        "h": 235
      },
      {
        "name": "巨摩高等学校　（校舎）",
        "address": "山梨県南アルプス市小笠原1500-2",
        "lng": 138.468777,
        "lat": 35.616022,
        "h": 235
      },
      {
        "name": "巨摩高等学校　（体育館）",
        "address": "山梨県南アルプス市小笠原1500-2",
        "lng": 138.467645,
        "lat": 35.615704,
        "h": 235
      },
      {
        "name": "巨摩高等学校　（グランド）",
        "address": "山梨県南アルプス市小笠原1500-2",
        "lng": 138.468246,
        "lat": 35.616624,
        "h": 235
      },
      {
        "name": "小笠原小学校　（グランド）",
        "address": "山梨県南アルプス市小笠原441",
        "lng": 138.46226,
        "lat": 35.610226,
        "h": 235
      },
      {
        "name": "小笠原小学校　（校舎）",
        "address": "山梨県南アルプス市小笠原441",
        "lng": 138.462292,
        "lat": 35.610514,
        "h": 235
      },
      {
        "name": "小笠原小学校　（体育館）",
        "address": "山梨県南アルプス市小笠原441",
        "lng": 138.462453,
        "lat": 35.610885,
        "h": 235
      },
      {
        "name": "櫛形社会福祉会館",
        "address": "山梨県南アルプス市小笠原471-8",
        "lng": 138.465768,
        "lat": 35.611695,
        "h": 234
      },
      {
        "name": "櫛形中学校　（校舎）",
        "address": "山梨県南アルプス市小笠原985",
        "lng": 138.460684,
        "lat": 35.615903,
        "h": 234
      },
      {
        "name": "櫛形中学校　（グランド）",
        "address": "山梨県南アルプス市小笠原985",
        "lng": 138.461194,
        "lat": 35.615362,
        "h": 234
      },
      {
        "name": "櫛形中学校　（体育館）",
        "address": "山梨県南アルプス市小笠原985",
        "lng": 138.461435,
        "lat": 35.615846,
        "h": 234
      },
      {
        "name": "櫛形中央保育所",
        "address": "山梨県南アルプス市小笠原985-9",
        "lng": 138.459443,
        "lat": 35.615244,
        "h": 234
      },
      {
        "name": "上高砂神明神社",
        "address": "山梨県南アルプス市上高砂958",
        "lng": 138.492831,
        "lat": 35.663924,
        "h": 235
      },
      {
        "name": "上高砂集落センター（グランド）",
        "address": "山梨県南アルプス市上高砂987",
        "lng": 138.49396,
        "lat": 35.664802,
        "h": 234
      },
      {
        "name": "白根高等学校　（体育館）",
        "address": "山梨県南アルプス市上今諏訪1180",
        "lng": 138.495034,
        "lat": 35.642328,
        "h": 235
      },
      {
        "name": "白根高等学校　（校舎）",
        "address": "山梨県南アルプス市上今諏訪1180",
        "lng": 138.494317,
        "lat": 35.643147,
        "h": 235
      },
      {
        "name": "白根高等学校　（グランド）",
        "address": "山梨県南アルプス市上今諏訪1180",
        "lng": 138.495677,
        "lat": 35.643008,
        "h": 235
      },
      {
        "name": "櫛形西保育所",
        "address": "山梨県南アルプス市上市之瀬724",
        "lng": 138.438845,
        "lat": 35.606017,
        "h": 233
      },
      {
        "name": "櫛形西地区農村環境改善センター",
        "address": "山梨県南アルプス市上市之瀬725-7",
        "lng": 138.438024,
        "lat": 35.604749,
        "h": 233
      },
      {
        "name": "櫛形西小学校　（体育館）",
        "address": "山梨県南アルプス市上市之瀬727",
        "lng": 138.439373,
        "lat": 35.605537,
        "h": 233
      },
      {
        "name": "櫛形西小学校　（校舎）",
        "address": "山梨県南アルプス市上市之瀬727",
        "lng": 138.438976,
        "lat": 35.605084,
        "h": 233
      },
      {
        "name": "櫛形西小学校　（グランド）",
        "address": "山梨県南アルプス市上市之瀬727",
        "lng": 138.439367,
        "lat": 35.604944,
        "h": 233
      },
      {
        "name": "甲西児童館",
        "address": "山梨県南アルプス市清水24",
        "lng": 138.471309,
        "lat": 35.589458,
        "h": 234
      },
      {
        "name": "南湖小学校　（校舎）",
        "address": "山梨県南アルプス市西南湖3024-1",
        "lng": 138.487894,
        "lat": 35.586301,
        "h": 234
      },
      {
        "name": "南湖小学校　（グランド）",
        "address": "山梨県南アルプス市西南湖3024-1",
        "lng": 138.48791,
        "lat": 35.585986,
        "h": 234
      },
      {
        "name": "南湖小学校　（体育館）",
        "address": "山梨県南アルプス市西南湖3024-1",
        "lng": 138.488801,
        "lat": 35.586192,
        "h": 234
      },
      {
        "name": "南湖保育所（グランド）",
        "address": "山梨県南アルプス市西南湖738",
        "lng": 138.488971,
        "lat": 35.586725,
        "h": 234
      },
      {
        "name": "白根東保育所",
        "address": "山梨県南アルプス市西野1394",
        "lng": 138.488504,
        "lat": 35.642483,
        "h": 235
      },
      {
        "name": "白根東小学校　（校舎）",
        "address": "山梨県南アルプス市西野2311",
        "lng": 138.47699,
        "lat": 35.638881,
        "h": 235
      },
      {
        "name": "白根東小学校　（グランド）",
        "address": "山梨県南アルプス市西野2311",
        "lng": 138.477017,
        "lat": 35.638572,
        "h": 235
      },
      {
        "name": "白根東小学校　（体育館）",
        "address": "山梨県南アルプス市西野2311",
        "lng": 138.476191,
        "lat": 35.638825,
        "h": 235
      },
      {
        "name": "西野松聲堂",
        "address": "山梨県南アルプス市西野2783-22",
        "lng": 138.483914,
        "lat": 35.636788,
        "h": 235
      },
      {
        "name": "沢登公会堂",
        "address": "山梨県南アルプス市沢登743-1",
        "lng": 138.469956,
        "lat": 35.627093,
        "h": 235
      },
      {
        "name": "田島公民館",
        "address": "山梨県南アルプス市田島985-1",
        "lng": 138.483476,
        "lat": 35.592794,
        "h": 235
      },
      {
        "name": "櫛形北保育所",
        "address": "山梨県南アルプス市桃園165-8",
        "lng": 138.448626,
        "lat": 35.627297,
        "h": 235
      },
      {
        "name": "櫛形北地区農村環境改善センター",
        "address": "山梨県南アルプス市桃園167-1",
        "lng": 138.449119,
        "lat": 35.62671,
        "h": 235
      },
      {
        "name": "櫛形北小学校　（体育館）",
        "address": "山梨県南アルプス市桃園813",
        "lng": 138.449561,
        "lat": 35.626911,
        "h": 235
      },
      {
        "name": "櫛形北小学校　（講堂）",
        "address": "山梨県南アルプス市桃園813",
        "lng": 138.449781,
        "lat": 35.626427,
        "h": 235
      },
      {
        "name": "櫛形北小学校　（校舎）",
        "address": "山梨県南アルプス市桃園813",
        "lng": 138.449411,
        "lat": 35.626502,
        "h": 235
      },
      {
        "name": "櫛形北小学校　（グランド）",
        "address": "山梨県南アルプス市桃園813",
        "lng": 138.449491,
        "lat": 35.626,
        "h": 235
      },
      {
        "name": "落合創造館アミカル",
        "address": "山梨県南アルプス市湯沢1035-5",
        "lng": 138.449003,
        "lat": 35.585678,
        "h": 235
      },
      {
        "name": "湯沢公会堂",
        "address": "山梨県南アルプス市湯沢1035-6",
        "lng": 138.448926,
        "lat": 35.585901,
        "h": 235
      },
      {
        "name": "若草南小学校　（体育館）",
        "address": "山梨県南アルプス市藤田1130-1",
        "lng": 138.498684,
        "lat": 35.596102,
        "h": 234
      },
      {
        "name": "若草南小学校　（校舎）",
        "address": "山梨県南アルプス市藤田1130-1",
        "lng": 138.498212,
        "lat": 35.595828,
        "h": 234
      },
      {
        "name": "若草南小学校　（グランド）",
        "address": "山梨県南アルプス市藤田1130-1",
        "lng": 138.498308,
        "lat": 35.595544,
        "h": 234
      },
      {
        "name": "藤田ふれあいセンター",
        "address": "山梨県南アルプス市藤田1173-6",
        "lng": 138.493565,
        "lat": 35.59994,
        "h": 234
      },
      {
        "name": "若草なかよし児童館",
        "address": "山梨県南アルプス市藤田1512",
        "lng": 138.496263,
        "lat": 35.59844,
        "h": 234
      },
      {
        "name": "藤田緑地公園",
        "address": "山梨県南アルプス市藤田1600",
        "lng": 138.497179,
        "lat": 35.598983,
        "h": 234
      },
      {
        "name": "徳永チビッコ広場",
        "address": "山梨県南アルプス市徳永1683",
        "lng": 138.489225,
        "lat": 35.654208,
        "h": 235
      },
      {
        "name": "徳永集落センター（駐車場）",
        "address": "山梨県南アルプス市徳永2026",
        "lng": 138.490037,
        "lat": 35.652204,
        "h": 235
      },
      {
        "name": "白根保育所",
        "address": "山梨県南アルプス市飯野1",
        "lng": 138.440787,
        "lat": 35.65245,
        "h": 235
      },
      {
        "name": "白根飯野小学校（校舎）",
        "address": "山梨県南アルプス市飯野1972-1",
        "lng": 138.454063,
        "lat": 35.643363,
        "h": 235
      },
      {
        "name": "白根飯野小学校（体育館）",
        "address": "山梨県南アルプス市飯野1972-1",
        "lng": 138.454787,
        "lat": 35.643123,
        "h": 235
      },
      {
        "name": "白根飯野小学校（グランド）",
        "address": "山梨県南アルプス市飯野1972-1",
        "lng": 138.453915,
        "lat": 35.64293,
        "h": 235
      },
      {
        "name": "白根飯野小学校（体育館）",
        "address": "山梨県南アルプス市飯野1972-1",
        "lng": 138.454186,
        "lat": 35.643716,
        "h": 235
      },
      {
        "name": "白根飯野小学校（校舎）",
        "address": "山梨県南アルプス市飯野1972-1",
        "lng": 138.454111,
        "lat": 35.643363,
        "h": 235
      },
      {
        "name": "白根飯野小学校（グランド）",
        "address": "山梨県南アルプス市飯野1972-1",
        "lng": 138.454004,
        "lat": 35.643097,
        "h": 235
      },
      {
        "name": "地域活動支援センター（きがる館）",
        "address": "山梨県南アルプス市飯野2842-1",
        "lng": 138.46459,
        "lat": 35.639971,
        "h": 235
      },
      {
        "name": "白根巨摩中学校（校舎）",
        "address": "山梨県南アルプス市飯野2860-2",
        "lng": 138.463533,
        "lat": 35.63939,
        "h": 235
      },
      {
        "name": "白根巨摩中学校（体育館）",
        "address": "山梨県南アルプス市飯野2860-2",
        "lng": 138.46196,
        "lat": 35.639015,
        "h": 235
      },
      {
        "name": "白根巨摩中学校（グランド）",
        "address": "山梨県南アルプス市飯野2860-2",
        "lng": 138.463435,
        "lat": 35.638838,
        "h": 235
      },
      {
        "name": "白根巨摩中学校（校舎）",
        "address": "山梨県南アルプス市飯野2860-2",
        "lng": 138.463283,
        "lat": 35.639298,
        "h": 235
      },
      {
        "name": "白根巨摩中学校（グランド）",
        "address": "山梨県南アルプス市飯野2860-2",
        "lng": 138.463165,
        "lat": 35.638923,
        "h": 235
      },
      {
        "name": "白根巨摩中学校（体育館）",
        "address": "山梨県南アルプス市飯野2860-2",
        "lng": 138.462419,
        "lat": 35.639185,
        "h": 235
      },
      {
        "name": "巨摩保育所",
        "address": "山梨県南アルプス市飯野2912-4",
        "lng": 138.461361,
        "lat": 35.63952,
        "h": 235
      },
      {
        "name": "白根御勅使中学校（校舎）",
        "address": "山梨県南アルプス市百々1990-1",
        "lng": 138.466655,
        "lat": 35.661803,
        "h": 235
      },
      {
        "name": "白根御勅使中学校（体育館）",
        "address": "山梨県南アルプス市百々1990-1",
        "lng": 138.467255,
        "lat": 35.66182,
        "h": 235
      },
      {
        "name": "白根御勅使中学校（校舎）",
        "address": "山梨県南アルプス市百々1990-1",
        "lng": 138.466668,
        "lat": 35.661815,
        "h": 235
      },
      {
        "name": "白根御勅使中学校（グランド）",
        "address": "山梨県南アルプス市百々1990-1",
        "lng": 138.466915,
        "lat": 35.661466,
        "h": 235
      },
      {
        "name": "白根御勅使中学校（体育館）",
        "address": "山梨県南アルプス市百々1990-1",
        "lng": 138.467263,
        "lat": 35.661854,
        "h": 235
      },
      {
        "name": "白根御勅使中学校（グランド）",
        "address": "山梨県南アルプス市百々1990-1",
        "lng": 138.466827,
        "lat": 35.661236,
        "h": 235
      },
      {
        "name": "白根百田小学校（校舎）",
        "address": "山梨県南アルプス市百々2300",
        "lng": 138.469923,
        "lat": 35.658253,
        "h": 235
      },
      {
        "name": "白根百田小学校（グランド）",
        "address": "山梨県南アルプス市百々2300",
        "lng": 138.470104,
        "lat": 35.65784,
        "h": 235
      },
      {
        "name": "白根百田小学校（体育館）",
        "address": "山梨県南アルプス市百々2300",
        "lng": 138.469825,
        "lat": 35.658603,
        "h": 235
      },
      {
        "name": "白根百田小学校（校舎）",
        "address": "山梨県南アルプス市百々2300",
        "lng": 138.4699,
        "lat": 35.658128,
        "h": 235
      },
      {
        "name": "白根百田小学校（体育館）",
        "address": "山梨県南アルプス市百々2300",
        "lng": 138.469864,
        "lat": 35.658601,
        "h": 235
      },
      {
        "name": "白根百田小学校（グランド）",
        "address": "山梨県南アルプス市百々2300",
        "lng": 138.469996,
        "lat": 35.657619,
        "h": 235
      },
      {
        "name": "百田保育所",
        "address": "山梨県南アルプス市百々2328",
        "lng": 138.47002,
        "lat": 35.656946,
        "h": 235
      },
      {
        "name": "百々公民館",
        "address": "山梨県南アルプス市百々2991",
        "lng": 138.466164,
        "lat": 35.655277,
        "h": 235
      },
      {
        "name": "白根Ｂ＆Ｇ海洋センター",
        "address": "山梨県南アルプス市百々3468-65",
        "lng": 138.465425,
        "lat": 35.649712,
        "h": 235
      },
      {
        "name": "白根Ｂ＆Ｇ海洋センター",
        "address": "山梨県南アルプス市百々3468-65",
        "lng": 138.465244,
        "lat": 35.649775,
        "h": 235
      },
      {
        "name": "白根中央公園",
        "address": "山梨県南アルプス市百々3468-65",
        "lng": 138.467319,
        "lat": 35.649427,
        "h": 235
      },
      {
        "name": "白根中央公園",
        "address": "山梨県南アルプス市百々3468-65",
        "lng": 138.467583,
        "lat": 35.649606,
        "h": 235
      },
      {
        "name": "ほたるみ館",
        "address": "山梨県南アルプス市平岡1210-1",
        "lng": 138.440152,
        "lat": 35.60896,
        "h": 233
      },
      {
        "name": "西地区多目的活性化広場",
        "address": "山梨県南アルプス市平岡1211",
        "lng": 138.439557,
        "lat": 35.609729,
        "h": 233
      },
      {
        "name": "たちあい公園",
        "address": "山梨県南アルプス市野牛島1337",
        "lng": 138.488018,
        "lat": 35.674769,
        "h": 234
      },
      {
        "name": "スパーク八田",
        "address": "山梨県南アルプス市野牛島1946-1",
        "lng": 138.483948,
        "lat": 35.664883,
        "h": 235
      },
      {
        "name": "野牛島集落センター（駐車場等）",
        "address": "山梨県南アルプス市野牛島2013",
        "lng": 138.481586,
        "lat": 35.6652,
        "h": 235
      },
      {
        "name": "八田小学校（校舎）",
        "address": "山梨県南アルプス市野牛島2222",
        "lng": 138.477479,
        "lat": 35.664411,
        "h": 235
      },
      {
        "name": "八田小学校（体育館）",
        "address": "山梨県南アルプス市野牛島2222",
        "lng": 138.478063,
        "lat": 35.664281,
        "h": 235
      },
      {
        "name": "八田小学校（グランド）",
        "address": "山梨県南アルプス市野牛島2222",
        "lng": 138.477524,
        "lat": 35.663684,
        "h": 235
      },
      {
        "name": "八田小学校（校舎）",
        "address": "山梨県南アルプス市野牛島2222",
        "lng": 138.477364,
        "lat": 35.664144,
        "h": 235
      },
      {
        "name": "八田小学校　（体育館）",
        "address": "山梨県南アルプス市野牛島2222",
        "lng": 138.478066,
        "lat": 35.664261,
        "h": 235
      },
      {
        "name": "八田小学校　（グランド）",
        "address": "山梨県南アルプス市野牛島2222",
        "lng": 138.477551,
        "lat": 35.663869,
        "h": 235
      },
      {
        "name": "有野公民館",
        "address": "山梨県南アルプス市有野1090",
        "lng": 138.44176,
        "lat": 35.657914,
        "h": 235
      },
      {
        "name": "西区公民館",
        "address": "山梨県南アルプス市有野2491-1",
        "lng": 138.418803,
        "lat": 35.654215,
        "h": 170
      },
      {
        "name": "白根源小学校（校舎）",
        "address": "山梨県南アルプス市有野490",
        "lng": 138.440251,
        "lat": 35.655305,
        "h": 235
      },
      {
        "name": "白根源小学校（体育館）",
        "address": "山梨県南アルプス市有野490",
        "lng": 138.439847,
        "lat": 35.654957,
        "h": 227
      },
      {
        "name": "白根源小学校（グランド）",
        "address": "山梨県南アルプス市有野490",
        "lng": 138.440543,
        "lat": 35.654877,
        "h": 235
      },
      {
        "name": "白根源小学校　（体育館）",
        "address": "山梨県南アルプス市有野490",
        "lng": 138.439791,
        "lat": 35.654954,
        "h": 235
      },
      {
        "name": "白根源小学校　（校舎）",
        "address": "山梨県南アルプス市有野490",
        "lng": 138.440231,
        "lat": 35.655285,
        "h": 235
      },
      {
        "name": "白根源小学校　（グランド）",
        "address": "山梨県南アルプス市有野490",
        "lng": 138.440347,
        "lat": 35.65505,
        "h": 235
      },
      {
        "name": "落合小学校（校舎）",
        "address": "山梨県南アルプス市落合1092",
        "lng": 138.456301,
        "lat": 35.588501,
        "h": 235
      },
      {
        "name": "落合小学校（体育館）",
        "address": "山梨県南アルプス市落合1092",
        "lng": 138.456352,
        "lat": 35.587994,
        "h": 235
      },
      {
        "name": "落合小学校（グランド）",
        "address": "山梨県南アルプス市落合1092",
        "lng": 138.455947,
        "lat": 35.588165,
        "h": 235
      },
      {
        "name": "落合小学校　（体育館）",
        "address": "山梨県南アルプス市落合1092",
        "lng": 138.456353,
        "lat": 35.588021,
        "h": 235
      },
      {
        "name": "落合小学校　（グランド）",
        "address": "山梨県南アルプス市落合1092",
        "lng": 138.455953,
        "lat": 35.588146,
        "h": 235
      },
      {
        "name": "落合小学校　（校舎）",
        "address": "山梨県南アルプス市落合1092",
        "lng": 138.45614,
        "lat": 35.588532,
        "h": 235
      },
      {
        "name": "落合保育所（グランド）",
        "address": "山梨県南アルプス市落合1128-3",
        "lng": 138.4556,
        "lat": 35.586465,
        "h": 235
      },
      {
        "name": "六科集落センター（駐車場等）",
        "address": "山梨県南アルプス市六科1499",
        "lng": 138.466171,
        "lat": 35.663218,
        "h": 235
      },
      {
        "name": "御勅使南公園",
        "address": "山梨県南アルプス市六科1588-2",
        "lng": 138.4601,
        "lat": 35.668194,
        "h": 234
      }
    ]
  },
  "19209": {
    "source": "国土地理院「指定緊急避難場所データ」",
    "asOf": "2026-06-19",
    "sites": [
      {
        "name": "（旧）高根清里小学校校庭",
        "address": "山梨県北杜市高根町清里3545-2083",
        "lng": 138.44511,
        "lat": 35.905255,
        "h": 43
      },
      {
        "name": "（旧）高根清里小学校",
        "address": "山梨県北杜市高根町清里3545-2083",
        "lng": 138.444462,
        "lat": 35.905511,
        "h": 43
      },
      {
        "name": "北杜市高根清里スポーツ広場",
        "address": "山梨県北杜市高根町浅川267",
        "lng": 138.447376,
        "lat": 35.895569,
        "h": 43
      },
      {
        "name": "高根西小学校",
        "address": "山梨県北杜市高根町村山西割1696",
        "lng": 138.405741,
        "lat": 35.823459,
        "h": 43
      },
      {
        "name": "高根西小学校校庭",
        "address": "山梨県北杜市高根町村山西割1696",
        "lng": 138.40511,
        "lat": 35.822905,
        "h": 43
      },
      {
        "name": "高根中学校",
        "address": "山梨県北杜市高根町村山東割98",
        "lng": 138.410825,
        "lat": 35.834085,
        "h": 43
      },
      {
        "name": "高根中学校校庭",
        "address": "山梨県北杜市高根町村山東割98",
        "lng": 138.411357,
        "lat": 35.833145,
        "h": 43
      },
      {
        "name": "北杜市高根テニスコート",
        "address": "山梨県北杜市高根町村山北割100",
        "lng": 138.426055,
        "lat": 35.841567,
        "h": 43
      },
      {
        "name": "北杜市高根ゲートボール場",
        "address": "山梨県北杜市高根町村山北割100",
        "lng": 138.427511,
        "lat": 35.84113,
        "h": 43
      },
      {
        "name": "北杜市高根総合グラウンド",
        "address": "山梨県北杜市高根町村山北割100",
        "lng": 138.426831,
        "lat": 35.841769,
        "h": 43
      },
      {
        "name": "高根東小学校校庭",
        "address": "山梨県北杜市高根町村山北割1035",
        "lng": 138.421701,
        "lat": 35.83523,
        "h": 43
      },
      {
        "name": "高根東小学校",
        "address": "山梨県北杜市高根町村山北割1035",
        "lng": 138.422075,
        "lat": 35.835841,
        "h": 43
      },
      {
        "name": "北杜市高根体育館",
        "address": "山梨県北杜市高根町村山北割111",
        "lng": 138.428055,
        "lat": 35.843202,
        "h": 43
      },
      {
        "name": "高根総合支所",
        "address": "山梨県北杜市高根町村山北割3261",
        "lng": 138.4135,
        "lat": 35.837498,
        "h": 3
      },
      {
        "name": "高根農村環境改善センター",
        "address": "山梨県北杜市高根町村山北割3288",
        "lng": 138.411594,
        "lat": 35.83752,
        "h": 3
      },
      {
        "name": "（旧）高根北小学校",
        "address": "山梨県北杜市高根町長澤2141",
        "lng": 138.423532,
        "lat": 35.868245,
        "h": 43
      },
      {
        "name": "（旧）高根北小学校校庭",
        "address": "山梨県北杜市高根町長澤2141",
        "lng": 138.423826,
        "lat": 35.867995,
        "h": 43
      },
      {
        "name": "小淵沢総合スポーツセンターグラウンド",
        "address": "山梨県北杜市小淵沢町2161",
        "lng": 138.308284,
        "lat": 35.8631,
        "h": 43
      },
      {
        "name": "小淵沢総合スポーツセンター体育館",
        "address": "山梨県北杜市小淵沢町2161",
        "lng": 138.308682,
        "lat": 35.863761,
        "h": 43
      },
      {
        "name": "小淵沢中学校校庭",
        "address": "山梨県北杜市小淵沢町732",
        "lng": 138.321304,
        "lat": 35.866159,
        "h": 43
      },
      {
        "name": "小淵沢中学校",
        "address": "山梨県北杜市小淵沢町732",
        "lng": 138.320851,
        "lat": 35.867013,
        "h": 43
      },
      {
        "name": "小淵沢総合支所",
        "address": "山梨県北杜市小淵沢町7711",
        "lng": 138.317423,
        "lat": 35.858142,
        "h": 3
      },
      {
        "name": "小淵沢小学校校庭",
        "address": "山梨県北杜市小淵沢町7741",
        "lng": 138.316997,
        "lat": 35.856257,
        "h": 43
      },
      {
        "name": "小淵沢小学校",
        "address": "山梨県北杜市小淵沢町7741",
        "lng": 138.31646,
        "lat": 35.85689,
        "h": 43
      },
      {
        "name": "小淵沢東スポーツセンターグラウンド",
        "address": "山梨県北杜市小淵沢町上笹尾1240",
        "lng": 138.328527,
        "lat": 35.846757,
        "h": 43
      },
      {
        "name": "小淵沢東スポーツセンター体育館",
        "address": "山梨県北杜市小淵沢町上笹尾1240",
        "lng": 138.329322,
        "lat": 35.847948,
        "h": 43
      },
      {
        "name": "須玉小学校校庭",
        "address": "山梨県北杜市須玉町若神子200-2",
        "lng": 138.424995,
        "lat": 35.793813,
        "h": 43
      },
      {
        "name": "須玉小学校",
        "address": "山梨県北杜市須玉町若神子200-2",
        "lng": 138.425816,
        "lat": 35.794427,
        "h": 43
      },
      {
        "name": "須玉総合支所",
        "address": "山梨県北杜市須玉町若神子2155",
        "lng": 138.421681,
        "lat": 35.79167,
        "h": 3
      },
      {
        "name": "北杜市須玉のろしの里ふれあい広場",
        "address": "山梨県北杜市須玉町若神子395",
        "lng": 138.427956,
        "lat": 35.795847,
        "h": 43
      },
      {
        "name": "須玉中学校",
        "address": "山梨県北杜市須玉町小倉200",
        "lng": 138.433084,
        "lat": 35.79762,
        "h": 43
      },
      {
        "name": "須玉中学校校庭",
        "address": "山梨県北杜市須玉町小倉200",
        "lng": 138.432241,
        "lat": 35.797081,
        "h": 43
      },
      {
        "name": "北杜市須玉穂足スポーツ公園",
        "address": "山梨県北杜市須玉町大蔵734",
        "lng": 138.423836,
        "lat": 35.780637,
        "h": 43
      },
      {
        "name": "北杜市須玉総合体育館",
        "address": "山梨県北杜市須玉町大蔵734",
        "lng": 138.424573,
        "lat": 35.780737,
        "h": 43
      },
      {
        "name": "（旧）増富小学校",
        "address": "山梨県北杜市須玉町比志3611-6",
        "lng": 138.502078,
        "lat": 35.855279,
        "h": 43
      },
      {
        "name": "（旧）増富小学校校庭",
        "address": "山梨県北杜市須玉町比志3611-6",
        "lng": 138.502489,
        "lat": 35.855705,
        "h": 43
      },
      {
        "name": "増富出張所",
        "address": "山梨県北杜市須玉町比志3621-30",
        "lng": 138.501273,
        "lat": 35.856031,
        "h": 3
      },
      {
        "name": "大泉総合支所",
        "address": "山梨県北杜市大泉町西井出3164-1",
        "lng": 138.389127,
        "lat": 35.860913,
        "h": 3
      },
      {
        "name": "大泉体育館",
        "address": "山梨県北杜市大泉町谷戸1915",
        "lng": 138.378797,
        "lat": 35.858203,
        "h": 43
      },
      {
        "name": "泉中学校",
        "address": "山梨県北杜市大泉町谷戸2087",
        "lng": 138.381541,
        "lat": 35.859959,
        "h": 43
      },
      {
        "name": "泉中学校校庭",
        "address": "山梨県北杜市大泉町谷戸2087",
        "lng": 138.380925,
        "lat": 35.85944,
        "h": 43
      },
      {
        "name": "泉小学校",
        "address": "山梨県北杜市大泉町谷戸2870",
        "lng": 138.389058,
        "lat": 35.860126,
        "h": 43
      },
      {
        "name": "泉小学校校庭",
        "address": "山梨県北杜市大泉町谷戸2870",
        "lng": 138.388914,
        "lat": 35.859385,
        "h": 43
      },
      {
        "name": "（旧）秋田小学校校庭",
        "address": "山梨県北杜市長坂町大八田3677",
        "lng": 138.383071,
        "lat": 35.83488,
        "h": 43
      },
      {
        "name": "長坂総合スポーツ公園柔剣道場",
        "address": "山梨県北杜市長坂町大八田6811-187",
        "lng": 138.37007,
        "lat": 35.841714,
        "h": 43
      },
      {
        "name": "長坂総合スポーツ公園屋内ゲートボール場",
        "address": "山梨県北杜市長坂町大八田6811-187",
        "lng": 138.368462,
        "lat": 35.843852,
        "h": 43
      },
      {
        "name": "長坂総合スポーツ公園体育館",
        "address": "山梨県北杜市長坂町大八田6811-187",
        "lng": 138.370152,
        "lat": 35.841273,
        "h": 43
      },
      {
        "name": "長坂総合スポーツ公園野球場",
        "address": "山梨県北杜市長坂町大八田6811-187",
        "lng": 138.370697,
        "lat": 35.84046,
        "h": 43
      },
      {
        "name": "長坂総合スポーツ公園陸上競技場",
        "address": "山梨県北杜市長坂町大八田6811-187",
        "lng": 138.370016,
        "lat": 35.843295,
        "h": 43
      },
      {
        "name": "北杜市郷土資料館",
        "address": "山梨県北杜市長坂町中丸1996-2",
        "lng": 138.354794,
        "lat": 35.821621,
        "h": 43
      },
      {
        "name": "（旧）日野春小学校",
        "address": "山梨県北杜市長坂町長坂下条1237-3",
        "lng": 138.379629,
        "lat": 35.807834,
        "h": 43
      },
      {
        "name": "（旧）日野春小学校校庭",
        "address": "山梨県北杜市長坂町長坂下条1237-3",
        "lng": 138.379857,
        "lat": 35.807394,
        "h": 43
      },
      {
        "name": "長坂小学校",
        "address": "山梨県北杜市長坂町長坂上条1603-1",
        "lng": 138.373111,
        "lat": 35.824964,
        "h": 43
      },
      {
        "name": "長坂小学校校庭",
        "address": "山梨県北杜市長坂町長坂上条1603-1",
        "lng": 138.373873,
        "lat": 35.824138,
        "h": 43
      },
      {
        "name": "長坂中学校",
        "address": "山梨県北杜市長坂町長坂上条1608",
        "lng": 138.375662,
        "lat": 35.824753,
        "h": 43
      },
      {
        "name": "長坂中学校校庭",
        "address": "山梨県北杜市長坂町長坂上条1608",
        "lng": 138.375365,
        "lat": 35.82367,
        "h": 43
      },
      {
        "name": "甲陵中・高等学校校庭",
        "address": "山梨県北杜市長坂町長坂上条2003",
        "lng": 138.379461,
        "lat": 35.825419,
        "h": 43
      },
      {
        "name": "甲陵中・高等学校",
        "address": "山梨県北杜市長坂町長坂上条2003",
        "lng": 138.378675,
        "lat": 35.825149,
        "h": 43
      },
      {
        "name": "長坂総合支所",
        "address": "山梨県北杜市長坂町長坂上条2575-19",
        "lng": 138.366361,
        "lat": 35.826121,
        "h": 3
      },
      {
        "name": "（旧）小泉小学校校庭",
        "address": "山梨県北杜市長坂町白井沢4078",
        "lng": 138.359658,
        "lat": 35.864691,
        "h": 43
      },
      {
        "name": "（旧）小泉小学校",
        "address": "山梨県北杜市長坂町白井沢4078",
        "lng": 138.359454,
        "lat": 35.865387,
        "h": 43
      },
      {
        "name": "白州体育館",
        "address": "山梨県北杜市白州町鳥原2913-208",
        "lng": 138.310417,
        "lat": 35.826643,
        "h": 40
      },
      {
        "name": "白州中学校",
        "address": "山梨県北杜市白州町白須1920",
        "lng": 138.322642,
        "lat": 35.806163,
        "h": 43
      },
      {
        "name": "白州中学校校庭",
        "address": "山梨県北杜市白州町白須1920",
        "lng": 138.324309,
        "lat": 35.806594,
        "h": 43
      },
      {
        "name": "白州小学校校庭",
        "address": "山梨県北杜市白州町白須225",
        "lng": 138.335195,
        "lat": 35.810411,
        "h": 43
      },
      {
        "name": "白州小学校",
        "address": "山梨県北杜市白州町白須225",
        "lng": 138.33537,
        "lat": 35.811314,
        "h": 43
      },
      {
        "name": "白州総合会館",
        "address": "山梨県北杜市白州町白須288-1",
        "lng": 138.336663,
        "lat": 35.808726,
        "h": 43
      },
      {
        "name": "白州総合支所",
        "address": "山梨県北杜市白州町白須312",
        "lng": 138.335654,
        "lat": 35.807832,
        "h": 3
      },
      {
        "name": "北杜市白州総合運動場",
        "address": "山梨県北杜市白州町白須7458-2",
        "lng": 138.313767,
        "lat": 35.827348,
        "h": 40
      },
      {
        "name": "北杜市武川運動公園",
        "address": "山梨県北杜市武川町三吹2218",
        "lng": 138.380538,
        "lat": 35.775416,
        "h": 43
      },
      {
        "name": "武川体育館",
        "address": "山梨県北杜市武川町三吹2218",
        "lng": 138.373569,
        "lat": 35.785665,
        "h": 40
      },
      {
        "name": "武川中学校",
        "address": "山梨県北杜市武川町山高1457",
        "lng": 138.373736,
        "lat": 35.784862,
        "h": 40
      },
      {
        "name": "武川中学校校庭",
        "address": "山梨県北杜市武川町山高1457",
        "lng": 138.373254,
        "lat": 35.784196,
        "h": 40
      },
      {
        "name": "甲斐駒センターせせらぎ",
        "address": "山梨県北杜市武川町牧原1243",
        "lng": 138.375217,
        "lat": 35.784016,
        "h": 40
      },
      {
        "name": "武川総合支所",
        "address": "山梨県北杜市武川町牧原1457-3",
        "lng": 138.375656,
        "lat": 35.785054,
        "h": 3
      },
      {
        "name": "武川小学校",
        "address": "山梨県北杜市武川町牧原944",
        "lng": 138.381348,
        "lat": 35.783424,
        "h": 43
      },
      {
        "name": "武川小学校校庭",
        "address": "山梨県北杜市武川町牧原944",
        "lng": 138.381328,
        "lat": 35.782739,
        "h": 43
      },
      {
        "name": "明野総合支所",
        "address": "山梨県北杜市明野町上手5219-1",
        "lng": 138.440929,
        "lat": 35.769282,
        "h": 3
      },
      {
        "name": "北杜市明野テニスコート",
        "address": "山梨県北杜市明野町上手8303",
        "lng": 138.443015,
        "lat": 35.769556,
        "h": 43
      },
      {
        "name": "明野多目的屋内運動場",
        "address": "山梨県北杜市明野町上手8304",
        "lng": 138.44261,
        "lat": 35.769406,
        "h": 43
      },
      {
        "name": "明野中学校校庭",
        "address": "山梨県北杜市明野町上手8342",
        "lng": 138.442707,
        "lat": 35.770761,
        "h": 43
      },
      {
        "name": "明野中学校",
        "address": "山梨県北杜市明野町上手8342",
        "lng": 138.443641,
        "lat": 35.770868,
        "h": 43
      },
      {
        "name": "明野小学校グラウンド",
        "address": "山梨県北杜市明野町上手8418",
        "lng": 138.444936,
        "lat": 35.77082,
        "h": 43
      },
      {
        "name": "明野小学校",
        "address": "山梨県北杜市明野町上手8418",
        "lng": 138.44538,
        "lat": 35.771173,
        "h": 43
      }
    ]
  },
  "19210": {
    "source": "国土地理院「指定緊急避難場所データ」",
    "asOf": "2026-06-19",
    "sites": [
      {
        "name": "双葉体育館",
        "address": "山梨県甲斐市宇津谷2221",
        "lng": 138.485,
        "lat": 35.7036,
        "h": 65
      },
      {
        "name": "双葉中学校【体育館】",
        "address": "山梨県甲斐市岩森1337",
        "lng": 138.491311,
        "lat": 35.690208,
        "h": 65
      },
      {
        "name": "敷島北小学校【学校校舎２階以上】",
        "address": "山梨県甲斐市境57",
        "lng": 138.524718,
        "lat": 35.694777,
        "h": 65
      },
      {
        "name": "竜王西小学校　【学校校舎２階以上】",
        "address": "山梨県甲斐市玉川75",
        "lng": 138.5184,
        "lat": 35.6384,
        "h": 65
      },
      {
        "name": "双葉西小学校【体育館】",
        "address": "山梨県甲斐市志田146",
        "lng": 138.481301,
        "lat": 35.690286,
        "h": 65
      },
      {
        "name": "竜王南小学校　【学校校舎２階以上】",
        "address": "山梨県甲斐市篠原1180",
        "lng": 138.5282,
        "lat": 35.6425,
        "h": 65
      },
      {
        "name": "市営田中団地２階以上共有部",
        "address": "山梨県甲斐市篠原1318-1",
        "lng": 138.5263,
        "lat": 35.6446,
        "h": 65
      },
      {
        "name": "竜王中学校　【学校校舎２階以上】",
        "address": "山梨県甲斐市篠原2030",
        "lng": 138.5145,
        "lat": 35.6542,
        "h": 65
      },
      {
        "name": "竜王小学校　【学校校舎２階以上】",
        "address": "山梨県甲斐市篠原2800",
        "lng": 138.5185,
        "lat": 35.6599,
        "h": 65
      },
      {
        "name": "竜王南部公民館　【２階以上】",
        "address": "山梨県甲斐市西八幡1976-1",
        "lng": 138.5239,
        "lat": 35.6375,
        "h": 65
      },
      {
        "name": "玉幡小学校　【学校校舎２階以上】",
        "address": "山梨県甲斐市西八幡2560",
        "lng": 138.5169,
        "lat": 35.6455,
        "h": 65
      },
      {
        "name": "玉幡中学校　【学校校舎２階以上】",
        "address": "山梨県甲斐市西八幡3190",
        "lng": 138.5095,
        "lat": 35.6462,
        "h": 65
      },
      {
        "name": "敷島南小学校　【学校校舎２階以上】",
        "address": "山梨県甲斐市大下条175",
        "lng": 138.529026,
        "lat": 35.671741,
        "h": 65
      },
      {
        "name": "双葉東小学校【体育館】",
        "address": "山梨県甲斐市大垈2780",
        "lng": 138.498795,
        "lat": 35.692294,
        "h": 65
      },
      {
        "name": "敷島総合文化会館",
        "address": "山梨県甲斐市島上条1020",
        "lng": 138.521779,
        "lat": 35.688575,
        "h": 65
      },
      {
        "name": "敷島中学校　【体育館】",
        "address": "山梨県甲斐市島上条1263",
        "lng": 138.525978,
        "lat": 35.686777,
        "h": 65
      },
      {
        "name": "敷島小学校　【学校校舎２階以上】",
        "address": "山梨県甲斐市島上条212",
        "lng": 138.5305,
        "lat": 35.6845,
        "h": 65
      },
      {
        "name": "竜王東小学校　【学校校舎２階以上】",
        "address": "山梨県甲斐市富竹新田933-1",
        "lng": 138.528418,
        "lat": 35.658874,
        "h": 65
      },
      {
        "name": "竜王北中学校【体育館】",
        "address": "山梨県甲斐市竜王420",
        "lng": 138.505075,
        "lat": 35.670161,
        "h": 65
      },
      {
        "name": "竜王北小学校【体育館】",
        "address": "山梨県甲斐市竜王555",
        "lng": 138.508156,
        "lat": 35.670316,
        "h": 65
      }
    ]
  },
  "19211": {
    "source": "国土地理院「指定緊急避難場所データ」",
    "asOf": "2026-06-19",
    "sites": [
      {
        "name": "芦川小学校グラウンド",
        "address": "山梨県笛吹市芦川町中芦川835",
        "lng": 138.670748,
        "lat": 35.554939,
        "h": 9
      },
      {
        "name": "一宮北小学校グラウンド",
        "address": "山梨県笛吹市一宮町中尾933",
        "lng": 138.705445,
        "lat": 35.65688,
        "h": 11
      },
      {
        "name": "一宮南小学校グラウンド",
        "address": "山梨県笛吹市一宮町土塚655-2",
        "lng": 138.697817,
        "lat": 35.632524,
        "h": 11
      },
      {
        "name": "一宮西小学校グラウンド",
        "address": "山梨県笛吹市一宮町東原330-2",
        "lng": 138.681144,
        "lat": 35.647704,
        "h": 11
      },
      {
        "name": "一宮中学校グラウンド",
        "address": "山梨県笛吹市一宮町末木801",
        "lng": 138.690709,
        "lat": 35.648629,
        "h": 11
      },
      {
        "name": "境川スポーツセンターグラウンド",
        "address": "山梨県笛吹市境川町三椚4",
        "lng": 138.615827,
        "lat": 35.603167,
        "h": 11
      },
      {
        "name": "境川小学校グラウンド",
        "address": "山梨県笛吹市境川町小黒坂1941",
        "lng": 138.622946,
        "lat": 35.596956,
        "h": 11
      },
      {
        "name": "御坂中学校グラウンド",
        "address": "山梨県笛吹市御坂町下野原1257",
        "lng": 138.669519,
        "lat": 35.618859,
        "h": 11
      },
      {
        "name": "御坂西小学校グラウンド",
        "address": "山梨県笛吹市御坂町夏目原592-1",
        "lng": 138.662659,
        "lat": 35.62595,
        "h": 11
      },
      {
        "name": "御坂東小学校グラウンド",
        "address": "山梨県笛吹市御坂町上黒駒1692",
        "lng": 138.700821,
        "lat": 35.611576,
        "h": 8
      },
      {
        "name": "みさかの湯駐車場",
        "address": "山梨県笛吹市御坂町成田2200",
        "lng": 138.643948,
        "lat": 35.638235,
        "h": 11
      },
      {
        "name": "春日居小学校グラウンド",
        "address": "山梨県笛吹市春日居町桑戸664",
        "lng": 138.659016,
        "lat": 35.671228,
        "h": 11
      },
      {
        "name": "春日居中学校グラウンド",
        "address": "山梨県笛吹市春日居町鎮目613-2",
        "lng": 138.642949,
        "lat": 35.663409,
        "h": 10
      },
      {
        "name": "石和農村スポーツ広場",
        "address": "山梨県笛吹市石和町広瀬666-1",
        "lng": 138.63048,
        "lat": 35.634463,
        "h": 10
      },
      {
        "name": "富士見小学校グラウンド",
        "address": "山梨県笛吹市石和町今井10",
        "lng": 138.611246,
        "lat": 35.629415,
        "h": 10
      },
      {
        "name": "石和南小学校グラウンド",
        "address": "山梨県笛吹市石和町市部720",
        "lng": 138.637523,
        "lat": 35.647811,
        "h": 10
      },
      {
        "name": "石和中学校グラウンド",
        "address": "山梨県笛吹市石和町小石和716",
        "lng": 138.628085,
        "lat": 35.633078,
        "h": 10
      },
      {
        "name": "石和北小学校グラウンド",
        "address": "山梨県笛吹市石和町松本1442-20",
        "lng": 138.63699,
        "lat": 35.654008,
        "h": 10
      },
      {
        "name": "石和東小学校グラウンド",
        "address": "山梨県笛吹市石和町中川478",
        "lng": 138.656221,
        "lat": 35.643798,
        "h": 11
      },
      {
        "name": "石和西小学校グラウンド",
        "address": "山梨県笛吹市石和町唐柏360",
        "lng": 138.619459,
        "lat": 35.631792,
        "h": 10
      },
      {
        "name": "浅川中学校グラウンド",
        "address": "山梨県笛吹市八代町岡1111",
        "lng": 138.639768,
        "lat": 35.607873,
        "h": 11
      },
      {
        "name": "八代小学校グラウンド",
        "address": "山梨県笛吹市八代町岡780",
        "lng": 138.640381,
        "lat": 35.610962,
        "h": 11
      }
    ]
  },
  "19212": {
    "source": "国土地理院「指定緊急避難場所データ」",
    "asOf": "2026-06-19",
    "sites": [
      {
        "name": "上野原カントリークラブ駐車場",
        "address": "山梨県上野原市上野原6887",
        "lng": 139.118241,
        "lat": 35.659625,
        "h": 2
      },
      {
        "name": "上野原西小学校体育館",
        "address": "山梨県上野原市コモアしおつ2-13-1",
        "lng": 139.078478,
        "lat": 35.615975,
        "h": 10
      },
      {
        "name": "上野原西中学校体育館",
        "address": "山梨県上野原市四方津215",
        "lng": 139.089488,
        "lat": 35.618393,
        "h": 10
      },
      {
        "name": "無生野集会所",
        "address": "山梨県上野原市秋山12370-1",
        "lng": 139.028798,
        "lat": 35.57177,
        "h": 2
      },
      {
        "name": "旧桜井小学校体育館",
        "address": "山梨県上野原市秋山3325",
        "lng": 139.113713,
        "lat": 35.581752,
        "h": 10
      },
      {
        "name": "秋山小学校体育館",
        "address": "山梨県上野原市秋山8674",
        "lng": 139.071153,
        "lat": 35.570314,
        "h": 10
      },
      {
        "name": "上野原小学校体育館",
        "address": "山梨県上野原市上野原3454",
        "lng": 139.112164,
        "lat": 35.630738,
        "h": 10
      },
      {
        "name": "上野原市文化ホール",
        "address": "山梨県上野原市上野原3832",
        "lng": 139.10824,
        "lat": 35.630045,
        "h": 2
      },
      {
        "name": "西原出張所",
        "address": "山梨県上野原市西原3947",
        "lng": 139.022726,
        "lat": 35.701948,
        "h": 2
      },
      {
        "name": "大目出張所",
        "address": "山梨県上野原市大野1261",
        "lng": 139.06005,
        "lat": 35.620939,
        "h": 2
      },
      {
        "name": "旧大鶴小学校体育館",
        "address": "山梨県上野原市鶴川1571",
        "lng": 139.093622,
        "lat": 35.636414,
        "h": 10
      },
      {
        "name": "島田小学校体育館",
        "address": "山梨県上野原市鶴島2024",
        "lng": 139.118666,
        "lat": 35.615044,
        "h": 10
      },
      {
        "name": "旧沢松小学校体育館",
        "address": "山梨県上野原市八ッ沢12",
        "lng": 139.103521,
        "lat": 35.620067,
        "h": 10
      },
      {
        "name": "甲東出張所",
        "address": "山梨県上野原市野田尻334-1",
        "lng": 139.0639,
        "lat": 35.636421,
        "h": 2
      },
      {
        "name": "旧平和中学校校舎・体育館",
        "address": "山梨県上野原市野田尻808",
        "lng": 139.060855,
        "lat": 35.632091,
        "h": 10
      },
      {
        "name": "旧甲東小学校和見分校",
        "address": "山梨県上野原市和見955",
        "lng": 139.057978,
        "lat": 35.658956,
        "h": 10
      },
      {
        "name": "ふるさと長寿館",
        "address": "山梨県上野原市棡原2374-1",
        "lng": 139.089419,
        "lat": 35.669839,
        "h": 2
      }
    ]
  },
  "19346": {
    "source": "国土地理院「指定緊急避難場所データ」",
    "asOf": "2026-06-19",
    "sites": [
      {
        "name": "高田地区公民館",
        "address": "山梨県市川三郷町印沢71-1",
        "lng": 138.491912,
        "lat": 35.557654,
        "h": 42
      },
      {
        "name": "下芦川地域集会所",
        "address": "山梨県市川三郷町下芦川1103",
        "lng": 138.586943,
        "lat": 35.537966,
        "h": 33
      },
      {
        "name": "下大鳥居自治公民館",
        "address": "山梨県市川三郷町下大鳥居33",
        "lng": 138.479911,
        "lat": 35.549898,
        "h": 34
      },
      {
        "name": "葛篭沢公民館",
        "address": "山梨県市川三郷町葛篭沢998",
        "lng": 138.471366,
        "lat": 35.492078,
        "h": 41
      },
      {
        "name": "鴨狩公民館",
        "address": "山梨県市川三郷町鴨狩津向240",
        "lng": 138.45579,
        "lat": 35.483461,
        "h": 34
      },
      {
        "name": "鴨狩スポーツ広場",
        "address": "山梨県市川三郷町鴨狩津向無番地",
        "lng": 138.456257,
        "lat": 35.484693,
        "h": 42
      },
      {
        "name": "岩下公民館",
        "address": "山梨県市川三郷町岩下117",
        "lng": 138.485848,
        "lat": 35.494351,
        "h": 35
      },
      {
        "name": "上手方ふれあいプラザ",
        "address": "山梨県市川三郷町岩間118",
        "lng": 138.468447,
        "lat": 35.501251,
        "h": 41
      },
      {
        "name": "駅前ふれあいプラザ",
        "address": "山梨県市川三郷町岩間1361",
        "lng": 138.462918,
        "lat": 35.492855,
        "h": 42
      },
      {
        "name": "下宿公民館",
        "address": "山梨県市川三郷町岩間1886",
        "lng": 138.461245,
        "lat": 35.490252,
        "h": 42
      },
      {
        "name": "上仲公民館",
        "address": "山梨県市川三郷町岩間2096",
        "lng": 138.460156,
        "lat": 35.494543,
        "h": 40
      },
      {
        "name": "細田公民館",
        "address": "山梨県市川三郷町岩間2454-1",
        "lng": 138.461242,
        "lat": 35.490226,
        "h": 40
      },
      {
        "name": "総合子どもセンター",
        "address": "山梨県市川三郷町岩間2917",
        "lng": 138.462126,
        "lat": 35.497202,
        "h": 33
      },
      {
        "name": "六郷小学校体育館",
        "address": "山梨県市川三郷町岩間2917",
        "lng": 138.461949,
        "lat": 35.498113,
        "h": 41
      },
      {
        "name": "六郷小学校",
        "address": "山梨県市川三郷町岩間2917",
        "lng": 138.462539,
        "lat": 35.497751,
        "h": 41
      },
      {
        "name": "文京交流センター",
        "address": "山梨県市川三郷町岩間2920-1",
        "lng": 138.462584,
        "lat": 35.496615,
        "h": 41
      },
      {
        "name": "六郷中学校体育館",
        "address": "山梨県市川三郷町岩間2927",
        "lng": 138.463062,
        "lat": 35.49817,
        "h": 41
      },
      {
        "name": "六郷中学校",
        "address": "山梨県市川三郷町岩間2927",
        "lng": 138.463663,
        "lat": 35.498526,
        "h": 41
      },
      {
        "name": "西河原地域交流センター",
        "address": "山梨県市川三郷町岩間4418-4",
        "lng": 138.455867,
        "lat": 35.492993,
        "h": 42
      },
      {
        "name": "市川三郷町六郷町民会館",
        "address": "山梨県市川三郷町岩間485",
        "lng": 138.463482,
        "lat": 35.495463,
        "h": 43
      },
      {
        "name": "原公民館",
        "address": "山梨県市川三郷町岩間708",
        "lng": 138.467772,
        "lat": 35.49275,
        "h": 41
      },
      {
        "name": "山宮スポーツ広場",
        "address": "山梨県市川三郷町宮原1290",
        "lng": 138.469766,
        "lat": 35.489621,
        "h": 41
      },
      {
        "name": "宮原公民館",
        "address": "山梨県市川三郷町宮原609",
        "lng": 138.47028,
        "lat": 35.490285,
        "h": 43
      },
      {
        "name": "五八公民館",
        "address": "山梨県市川三郷町五八540",
        "lng": 138.486323,
        "lat": 35.500447,
        "h": 33
      },
      {
        "name": "上中浦自治公民館",
        "address": "山梨県市川三郷町高田2427",
        "lng": 138.488943,
        "lat": 35.558299,
        "h": 42
      },
      {
        "name": "宮本自治公民館",
        "address": "山梨県市川三郷町高田2944-1",
        "lng": 138.487386,
        "lat": 35.554945,
        "h": 42
      },
      {
        "name": "旧下九一色中学校校庭",
        "address": "山梨県市川三郷町高萩829",
        "lng": 138.55131,
        "lat": 35.53328,
        "h": 41
      },